address,latitude,longitude,Bank
"MRT BUNDARAN HOTEL INDONESIA 1 GONDANGDIA, KEC MENTENG, JAKARTA PUSAT",-6.191577,106.823058,BCA
"PLAZA INDONESIA CRM 1 JL MH THAMRIN, JAKARTA PUSAT",-6.193526,106.821965,BCA
"PLAZA INDONESIA CRM 2 JL MH THAMRIN, JAKARTA PUSAT",-6.193526,106.821965,BCA
"PLAZA INDONESIA CRM 3 JL MH THAMRIN, JAKARTA PUSAT",-6.193526,106.821965,BCA
"PLAZA INDONESIA CRM 4 JL MH THAMRIN, JAKARTA PUSAT",-6.193526,106.821965,BCA
"PLAZA INDONESIA CRM 5 JL MH THAMRIN, JAKARTA PUSAT",-6.193526,106.821965,BCA
"MENARA THAMRIN 1 JL. MH. THAMRIN KAV. 3, JAKARTA 10250",-6.192,106.8206,BCA
"MENARA THAMRIN 2 JL. MH. THAMRIN KAV. 3, JAKARTA 10250",-6.192,106.8206,BCA
INDOMARET KEBON KACANG 30 2 JL KEBON KACANG 30 NO 19 JAKARTA PUSAT,-6.1937,106.8206,BCA
INDOMARET KEBON KACANG IX JL KEBON KACANG IX NO 59 KEBON KACANG TANAH ABANG JAKARTA PUSAT,-6.1924,106.8187,BCA
"MAL GRAND INDONESIA CRM 5 GI MAL A LOWER GROUND 20-21, JL MH THAMRIN",-6.1955874,106.8204593,BCA
"MAL GRAND INDONESIA CRM 2 GI MAL A LOWER GROUND 20-21, JL MH THAMRIN",-6.1955874,106.8204593,BCA
"MAL GRAND INDONESIA CRM 3 GI MAL A LOWER GROUND 20-21, JL MH THAMRIN",-6.1955874,106.8204593,BCA
"MAL GRAND INDONESIA CRM 4 GI MAL A LOWER GROUND 20-21, JL MH THAMRIN",-6.1955874,106.8204593,BCA
"MAL GRAND INDONESIA CRM 6 GI MAL A LOWER GROUND 20-21, JL MH THAMRIN",-6.1955874,106.8204593,BCA
"MAL GRAND INDONESIA CRM 1 GI MAL A LOWER GROUND 20-21, JL MH THAMRIN",-6.1955874,106.8204593,BCA
KEDUTAAN JERMAN JAKARTA JL MH THAMRIN 1 JAKPUS,-6.1965,106.8229,BCA
SARINAH THAMRIN CRM 1 JL. M.H. THAMRIN 11- JAKARTA - 10350,-6.1871,106.8241,BCA
"PLAZA INDEX CRM 2 GEDUNG PLAZA BANK INDEX GF21, JL MH THAMRIN NO 57",-6.1971113,106.8227999,BCA
"PLAZA INDEX CRM 1 GEDUNG PLAZA BANK INDEX GF21, JL MH THAMRIN NO 57 JAKARTA",-6.1971113,106.8227999,BCA
THAMRIN CITY CRM 1 JL MH THAMRIN BOULEVARD JAKARTA PUSAT,-6.1971113,106.8227999,BCA
THAMRIN CITY CRM 2 JL MH THAMRIN BOULEVARD JAKARTA PUSAT,-6.1971113,106.8227999,BCA
THAMRIN CITY CRM 3 JL MH THAMRIN BOULEVARD JAKARTA PUSAT,-6.1971113,106.8227999,BCA
THAMRIN CRM 2 GED MENARA BCA GI JL MH THAMRIN NO1 JAKARTA,-6.1971113,106.8227999,BCA
"MENARA BCA LT 18 GEDUNG MENARA BCA GRAND INDONESIA LT 18, JL. MH THAMRIN NO.1 JAKARTA 10310",-6.1971113,106.8227999,BCA
THAMRIN CRM 1 GED MENARA BCA GI JL MH THAMRIN NO1 JAKARTA,-6.1971113,106.8227999,BCA
THAMRIN 1 GED MENARA BCA GI JL MH THAMRIN NO1 JAKARTA,-6.1971113,106.8227999,BCA
THAMRIN 2 GED MENARA BCA GI JL MH THAMRIN NO1 JAKARTA,-6.1971113,106.8227999,BCA
SABANG CRM 1 JL H AGUS SALIM 57 B - JAKARTA,-6.186537,106.825284,BCA
SABANG CRM 2 JL H AGUS SALIM 57 B - JAKARTA,-6.186537,106.825284,BCA
INDOMARET KEBON KACANG II ( T24 B ) JAKPUS JL RAYA KEBON KACANG NO 21 KEBON KACANG TANAH ABANG JAKARTA PUSAT,-6.1945,106.8177,BCA
THAMRIN CRM 3 GED MENARA BCA GI JL MH THAMRIN NO1 JAKARTA,-6.19758,106.822285,BCA
THAMRIN CRM 4 GED MENARA BCA GI JL MH THAMRIN NO1 JAKARTA,-6.19758,106.822285,BCA
THAMRIN CRM 5 GED MENARA BCA GI JL MH THAMRIN NO1 JAKARTA,-6.19758,106.822285,BCA
"GEDUNG M@COKRO 49 1 JL HOS COKROAMINOTO NO 49, KELURAHAN GONDANGDIA, KECAMATAN MENTENG, JAKARTA PUSAT",-6.1922,106.829,BCA
"INDOMARET WAHID HASYIM JL. KH. WAHID HASYIM 200, JAKARTA 10340",-6.1873,106.8182,BCA
APARTEMEN THAMRIN RESIDENCE JL. KEBON KACANG RAYA TANAH ABANG JAKPUS,-6.196914,106.818254,BCA
INDOMARET AGUS SALIM 32 (TO73) CRM JL HAJI AGUS SALIM NO 32,-6.184775,106.8224743,BCA
WAHID HASYIM KCP CRM 1 JL KH WAHID HASYIM 177 D - JAKARTA - 10350,-6.186814,106.827869,BCA
WAHID HASYIM KCP CRM 2 JL KH WAHID HASYIM 177 D - JAKARTA - 10350,-6.186814,106.827869,BCA
WAHID HASYIM KCP CRM 3 JL KH WAHID HASYIM 177 D - JAKARTA - 10350,-6.186814,106.827869,BCA
WAHID HASYIM KCP CRM 4 JL KH WAHID HASYIM 177 D - JAKARTA - 10350,-6.186814,106.827869,BCA
THAMRIN CITY CRM 1 JL MH THAMRIN BOULEVARD - D/H KEBON KACANG RY,-6.193375,106.815948,BCA
THAMRIN CITY CRM 2 JL MH THAMRIN BOULEVARD - D/H KEBON KACANG RY,-6.193375,106.815948,BCA
THAMRIN CITY CRM 3 JL MH THAMRIN BOULEVARD - D/H KEBON KACANG RY,-6.193375,106.815948,BCA
THAMRIN CITY CRM 4 JL MH THAMRIN BOULEVARD - D/H KEBON KACANG RY,-6.193375,106.815948,BCA
FAMILYMART THAMRIN RESIDENCE JL KEBON KACANG TANAH ABANG JAKARTA PUSAT,-6.196849,106.81751,BCA
"CITY TOWER CRM 1 GED THE CITY TOWER, JL MH THAMRIN NO 81 JKT",-6.199065,106.823598,BCA
"CITY TOWER CRM 2 GED THE CITY TOWER, JL MH THAMRIN NO 81 JKT",-6.199065,106.823598,BCA
"CITY TOWER CRM 3 GED THE CITY TOWER, JL MH THAMRIN NO 81 JKT",-6.199065,106.823598,BCA
"MENARA THAMRIN CRM JL MH THAMRIN KAV 3, JAKARTA 10250",-6.199065,106.823598,BCA
PASAR TANAH ABANG BLOK B LANTAI LG CRM 1 PASAR TANAH ABANG BLOK B LANTAI G JAKARTA,-6.187387,106.816771,BCA
"TANAH ABANG BLOK A CRM 1 PASAR TANAH ABANG BLOK A, JAKARTA PUSAT",-6.187387,106.816771,BCA
"TANAH ABANG BLOK A CRM 2 PASAR TANAH ABANG BLOK A, JAKARTA PUSAT",-6.187387,106.816771,BCA
"TANAH ABANG BLOK A CRM 3 PASAR TANAH ABANG BLOK A, JAKARTA PUSAT",-6.187387,106.816771,BCA
METRO TANAH ABANG LT LG CRM 2 PUSAT GROSIR METRO TANAH ABANG LT LG BLOK A,-6.187387,106.816771,BCA
"TANAH ABANG BLOK B CRM 5 TANAH ABANG BLOK B, JL KH FACHRUDIN",-6.187387,106.816771,BCA
"WAHID HASYIM CRM 2 JL KH WAHID HASYIM 183 A-B, JAKARTA PUSAT",-6.187387,106.816771,BCA
"WAHID HASYIM CRM 3 JL KH WAHID HASYIM 183 A-B, JAKARTA PUSAT",-6.187387,106.816771,BCA
"WAHID HASYIM CRM 4 JL KH WAHID HASYIM 183 A-B, JAKARTA PUSAT",-6.187387,106.816771,BCA
INDOMARET THAMRIN RESIDENCES II JL KEBON KACANG RAYA TANAH ABANG JAKPUS,-6.197273,106.81771,BCA
"THAMRIN NINE CRM 1 THAMRIN NINE, JL MH THAMRIN NO 10, JAKARTA",-6.199432,106.822763,BCA
"THAMRIN NINE CRM 2 THAMRIN NINE, JL MH THAMRIN NO 10, JAKARTA",-6.199432,106.822763,BCA
"THAMRIN NINE CRM 3 THAMRIN NINE, JL MH THAMRIN NO 10, JAKARTA",-6.199432,106.822763,BCA
"THAMRIN NINE CRM 4 THAMRIN NINE, JL MH THAMRIN NO 10, JAKARTA",-6.199432,106.822763,BCA
"MENTENG CRM 1 JL HOS COKROAMINOTO NO 83, RT 03 RW 05, KEL MENTENG KEC MENTENG, JAKARTA PUSAT",-6.197455,106.828705,BCA
"MENTENG CRM 2 JL HOS COKROAMINOTO NO 83, RT 03 RW 05, KEL MENTENG KEC MENTENG, JAKARTA PUSAT",-6.197455,106.828705,BCA
"MENTENG CRM 3 JL HOS COKROAMINOTO NO 83, RT 03 RW 05, KEL MENTENG KEC MENTENG, JAKARTA PUSAT",-6.197455,106.828705,BCA
METRO TANAH ABANG 2 JEMBATAN METRO TANAH ABANG LT 3 NO 2 JAKPUS,-6.188122,106.815246,BCA
METRO TANAH ABANG 1 JEMBATAN METRO TANAH ABANG LT 3 NO 2 JAKPUS,-6.188122,106.815246,BCA
METRO TANAH ABANG LT LG CRM 1 PUSAT GROSIR METRO TANAH ABANG LT LG BLOK A,-6.1881,106.8152,BCA
"WISMA PENTA KEBON SIRIH CRM 1 JL KEBON SIRIH NO 65, RT 4/RW 2, KEBON SIRIH, KEC MENTENG JAKARTA PUSAT",-6.1834098,106.8245688,BCA
ALFAMART KEBON SIRIH JL TAMAN KEBON SIRIH III NO 5A K JAK-PUS,-6.1838,106.8197,BCA
INDOMARET MAS MANSYUR II JL KH MAS MANSYUR NO 39 C - D TANAH ABANG KEL KEBON MELATI KEC TANAH ABANG JAKARTA PUSAT,-6.194496,106.814589,BCA
INDOMARET LONTAR ATAS ( T09D ) JAKARTA PUSAT JL LONTAR ATAS NO 108 KEBON MELATITNH ABANG,-6.1925,106.8141,BCA
CIRCLE K JAK0108 WAHID HASYIM II CRM 1 JL KH WAHID HASYIM NO 56 JAKPUS,-6.187,106.8303,BCA
ALFAMART LONTAR RAYA JL LONTAR KEBON KACANG TANAH ABANG JAKPUS,-6.19251,106.813926,BCA
"MRT DUKUH ATAS 1 KB MELATI, TANAHABANG, KOTA JAKARTA PUSAT",-6.200738,106.822811,BCA
"PASAR REGIONAL TANAH ABANG PASAR TANAH ABANG BLOK A, JAKARTA PUSAT 10240",-6.187323,106.814862,BCA
"PASAR REGIONAL TANAH ABANG 2 PASAR TANAH ABANG BLOK A, JAKARTA PUSAT 10240",-6.187323,106.814862,BCA
"PASAR REGIONAL TANAH ABANG 3 PASAR TANAH ABANG BLOK A, JAKARTA PUSAT 10240",-6.187323,106.814862,BCA
"TANAH ABANG BLOK A - 1 PASAR TANAH ABANG BLOK A, JAKARTA PUSAT 10240",-6.187323,106.814862,BCA
"TANAH ABANG BLOK A - 2 PASAR TANAH ABANG BLOK A, JAKARTA PUSAT 10240",-6.187323,106.814862,BCA
METRO TANAH ABANG CRM 1 PASAR GROSIR METRO TANAH ABANG 2JAKARTA,-6.1857722,106.8158768,BCA
METRO TANAH ABANG CRM 2 PASAR GROSIR METRO TANAH ABANG 2JAKARTA,-6.1857722,106.8158768,BCA
METRO TANAH ABANG CRM 3 PASAR GROSIR METRO TANAH ABANG 2JAKARTA,-6.1857722,106.8158768,BCA
METRO TANAH ABANG CRM 4 PASAR GROSIR METRO TANAH ABANG 2JAKARTA,-6.1857722,106.8158768,BCA
"TANAH ABANG ZONA 3 CRM 1 JL K H FACHRUDIN/ WAHID HASYIM, TN ABANG, JKT",-6.18659,106.81515,BCA
"TANAH ABANG ZONA 3 CRM 2 JL K H FACHRUDIN/ WAHID HASYIM, TN ABANG, JKT",-6.18659,106.81515,BCA
"TANAH ABANG BLOK B CRM 1 TANAH ABANG BLOK B, JL KH FACHRUDIN",-6.187751,106.814456,BCA
"TANAH ABANG BLOK B CRM 2 TANAH ABANG BLOK B, JL KH FACHRUDIN",-6.187751,106.814456,BCA
"TANAH ABANG BLOK B CRM 3 TANAH ABANG BLOK B, JL KH FACHRUDIN",-6.187751,106.814456,BCA
"TANAH ABANG BLOK B CRM 4 TANAH ABANG BLOK B, JL KH FACHRUDIN",-6.187751,106.814456,BCA
ALFAMART MARTAPURA JAKARTA PUSAT CRM JL MARTAPURA NO 6A RT 10/02 KEBON MELATI TANAH ABA,-6.2005,106.8199,BCA
"INDOMARET GUNTUR 42 1 JL GUNTUR NO 42, JAKARTA SELATAN",-6.2005,106.8199,BCA
INDOMARET JALAN JAKSA JL. JAKSA JAKARTA PUSAT,-6.184721,106.8292975,BCA
"CERIAMART JATI BUNDER JAKARTA PUSAT JL JATI BUNDER JEMBATAN TINGGI NO 9, KEBON KACANG, JAKARTA PUSAT",-6.1887,106.8137,BCA
TANAH ABANG CRM 1 JL KH FACHRUDIN 36 BLOK D/23 - JAKARTA,-6.185926,106.815121,BCA
TANAH ABANG CRM 2 JL KH FACHRUDIN 36 BLOK D/23 - JAKARTA,-6.185926,106.815121,BCA
TANAH ABANG CRM 3 JL KH FACHRUDIN 36 BLOK D/23 - JAKARTA,-6.185926,106.815121,BCA
"CRM BANK INDONESIA JAKARTA 1 GEDUNG BI, JL MH THAMRIN NO 2, JAKPUS",-6.1821,106.8214,BCA
TANAH ABANG BLOK F CRM 1 JL PSR REGIONAL TANAH ABANG BLOK F/31 LOS AKS,-6.188258,106.813658,BCA
TANAH ABANG BLOK F CRM 2 JL PSR REGIONAL TANAH ABANG BLOK F/31 LOS AKS,-6.188258,106.813658,BCA
TANAH ABANG BLOK F CRM 3 JL PSR REGIONAL TANAH ABANG BLOK F/31 LOS AKS,-6.188258,106.813658,BCA
TANAH ABANG BLOK F CRM 4 JL PSR REGIONAL TANAH ABANG BLOK F/31 LOS AKS,-6.188258,106.813658,BCA
"GEDUNG TANAH ABANG CENTER JL. FACHRUDDIN, TANAH ABANG, JAKARTA PUSAT",-6.185894,106.814937,BCA
BANK CCBI TANAH ABANG JL KH FACHRUDIN BLOK C7 TANAH ABANG BUKIT JKT,-6.1853,106.815,BCA
"STASIUN RAILINK SUDIRMAN BARU ( BNI CITY ) JL TANJUNG KARANG RT 13/04, KEBON MELATI, TANAH ABANG, JAKARTA PUSAT",-6.2017,106.8204,BCA
"ALFAMIDI BLORA CRM 1 JL BLORA NO 24 RT 002/05, MENTENG, MENTENG, JAKPUS",-6.202,106.8227,BCA
GEDUNG WISMA ANTARA JL MERDEKA SELATAN 17 JAKARTA PUSAT,-6.181436,106.824051,BCA
"INDOMARET JOHAR MENTENG JL JOHAN NO 6 C-D, JOHAR, JAKARTA PUSAT",-6.187005,106.832161,BCA
"OJK JAKARTA 1 JL MH THAMRIN NO2, RT2/RW3, GAMBIR, JAKARTA PUSAT",-6.1817327,106.8194015,BCA
"INDOMARET PLUS TAMAN KEBON SIRIH I JL KEBON SIRIH 1 NO 20, KAMPUNG BALI, TANAH ABANG, JAKARTA PUSAT",-6.1824,106.8174,BCA
PASAR GONDANGDIA 1 JL SRI KAYA RAYA KEL KEBON SIRIH KEC MENTENG JAKARTA PUSAT,-6.1867,106.8325,BCA
"APARTEMEN BOULEVARD JL. FACHRUDIN RAYA NO.5, JAKARTA PUSAT",-6.182108,106.816459,BCA
"GEDUNG INDOSAT JL. MEDAN MERDEKA BARAT NO. 21, JAKARTA PUSAT",-6.1802,106.8214,BCA
"ALFAMART AWALUDIN CRM 1 JL AWALUDIN II NO 8 RT01/RW17, KEBON MELATI, TANAH",-6.199291,106.813932,BCA
"GEDUNG SARANA JAYA JL. BUDI KEMULIAAN I/1, JAKARTA PUSAT 10110",-6.1796,106.8204,BCA
"RSIA BUDI KEMULIAAN JL. BUDI KEMULIAAN NO. 25, JAKARTA 10110",-6.1797,106.8196,BCA
"KOPERASI PEGAWAI BANK INDONESIA 1 JL KEBON SIRIH 82-84, JAKPUS",-6.1797,106.8196,BCA
KEBON SIRIH PLAZA PUPUK KALTIM CRM 1 PLAZA PUPUK KALTIM GEDUNG B LANTAI 1 JAKPUS,-6.182471,106.831584,BCA
KEBON SIRIH PLAZA PUPUK KALTIM CRM 2 PLAZA PUPUK KALTIM GEDUNG B LANTAI 1 JAKPUS,-6.182471,106.831584,BCA
SPBU SHELL MENTENG JL MENTENG RAYA NO 23-25,-6.185187,106.8338203,BCA
"ALFAMART JATI BARU CRM JL JATIBARU NO 45 RT 001/03, KEL KAMPUNG BALI, KEC TANAH ABANG, JAKPUS",-6.18362,106.81243,BCA
HERO MENTENG JL. GONDANGDIA LAMA NO. 30,-6.1906,106.836,BCA
"WISMA INDOCEMENT CRM 2 JL JEND SUDIRMAN KAV 70-71, JAKARTA 12910",-6.205066,106.823236,BCA
"WISMA INDOCEMENT CRM 1 JL JEND SUDIRMAN KAV 70-71, JAKARTA 12910",-6.205066,106.823236,BCA
"WISMA INDOCEMENT LOBBY TIMUR, JL. JEND. SUDIRMAN KAV. 70-71,",-6.205066,106.823236,BCA
GONDANGDIA LAMA CRM 1 JL GONDANGDIA LAMA 25 - JAKARTA,-6.191423,106.836229,BCA
GONDANGDIA LAMA CRM 2 JL GONDANGDIA LAMA 25 - JAKARTA,-6.191423,106.836229,BCA
"STASIUN KAI TANAH ABANG JL JATIBARU RAYA, TANAH ABANG, JAKARTA PUSAT",-6.1845,106.8111,BCA
"SPBU COCO ABDUL MUIS JL. ABDUL MUIS RAYA, JAKARTA PUSAT",-6.178545,106.818742,BCA
"APARTEMEN MENTENG PARK CRM 1 JL CIKINI RAYA NO 79, CIKINI, JAKARTA PUSAT",-6.1920797,106.8366822,BCA
SEKOLAH KANISIUS 1 JL MENTENG RAYA NO 64 JAKARTA PUSAT,-6.1855,106.8353,BCA
INDOMARET KS TUBUN V JL KS TUBUN NO 5 KEL PERTAMBURAN TANAH ABANG JAKARTA PUSAT,-6.1881,106.8093,BCA
"APARTEMEN SUDIRMAN PARK 2 JL. KH MAS MANSYUR KAV. 35, JAKARTA PUSAT",-6.2052,106.8189,BCA
"WISMA KYOEI CRM 2 JL. JEND. SUDIRMAN KAV. 3, JAKARTA 10220",-6.2057869,106.8220034,BCA
"WISMA KYOEI CRM 1 JL. JEND. SUDIRMAN KAV. 3, JAKARTA",-6.205901,106.821788,BCA
"APARTEMEN SUDIRMAN PARK JL. KH MAS MANSYUR KAV. 35, JAKARTA PUSAT",-6.205422,106.818806,BCA
"RS BUNDA MENTENG JL TEUKU CIK DITIRO NO. 28, MENTENG, JAKPUS",-6.196189,106.836588,BCA
"GEDUNG LPPM JL. MENTENG RAYA 9, JAKARTA 10340",-6.1842,106.8358,BCA
"FOUR SEASONS JL. SETIABUDI TENGAH, JAKARTA 12910",-6.206299,106.827119,BCA
"INDOMARET TANAH ABANG III - 6 A JL TANAH ABANG III NO 6, PETOJO SELATAN, GAMBIR, JAKARTA PUSAT",-6.1771,106.8183,BCA
INDOMARET SUTAN SYAHRIR JL SUTAN SYAHRIR NO 1C 3-4 KEL GONDANGDIA KEC MENTENG JAKPUS 10350,-6.1967,106.8373,BCA
WISMA BUMIPUTERA JL. JENDRAL SUDIRMAN KAV 57 JAKARTA SELATAN,-6.207332,106.822473,BCA
JAKARTA EYE CENTRE JL. CIK DITIRO 46 MENTENG,-6.1986,106.8372,BCA
PENJERNIHAN CRM 2 JL PENJERNIHAN I NO 23 - JAKARTA,-6.201069,106.80976,BCA
PENJERNIHAN CRM 3 JL PENJERNIHAN I NO 23 - JAKARTA,-6.201069,106.80976,BCA
PENJERNIHAN CRM 1 JL PENJERNIHAN I NO 23 - JAKARTA,-6.201069,106.80976,BCA
"WISMA 46 CRM 1 WISMA 46, LT DASAR, JL JEND SUDIRMAN KAV 1",-6.2075191,106.8193,BCA
"WISMA 46 CRM 2 WISMA 46, LT DASAR, JL JEND SUDIRMAN KAV 1",-6.2075191,106.8193,BCA
"WISMA 46 CRM 3 WISMA 46, LT DASAR, JL JEND SUDIRMAN KAV 1",-6.2075191,106.8193,BCA
"WISMA 46 CRM 4 WISMA 46, LT DASAR, JL JEND SUDIRMAN KAV 1",-6.2075191,106.8193,BCA
"WISMA 46 CRM 5 WISMA 46, LT DASAR, JL JEND SUDIRMAN KAV 1",-6.2075191,106.8193,BCA
SENTRAL CIKINI CRM 1 JL PEGANGSAAN TIMUR NO 1 MENTENG JAKARTA PUSAT,-6.193377,106.838945,BCA
SENTRAL CIKINI CRM 2 JL PEGANGSAAN TIMUR NO 1 MENTENG JAKARTA PUSAT,-6.193377,106.838945,BCA
SENTRAL CIKINI CRM 3 JL PEGANGSAAN TIMUR NO 1 MENTENG JAKARTA PUSAT,-6.193377,106.838945,BCA
SENTRAL CIKINI CRM 4 JL PEGANGSAAN TIMUR NO 1 MENTENG JAKARTA PUSAT,-6.193377,106.838945,BCA
HOTEL BIMO - KS TUBUN JARTA BARAT JL KS TUBUN NO 10 JAKARTA BARAT,-6.1884,106.8068,BCA
ALFAMART KS TUBUN II JL KS TUBUN NO 55 A RT 04/04 KEL PETAMBURAN KEC TANAH ABANG JAKARTA PUSAT,-6.1913,106.8063,BCA
INDOMARET PENJERNIHAN NO2 JAKPUS JL PENJERNIHAN 1 NO2 BENHIL TNABANG JAKPUS,-6.20128,106.80933,BCA
"ALFAMART PETAMBURAN CRM JL PETAMBURAN IV NO 9, PETAMBURAN, TANAH ABANG, JAKARTA PUSAT",-6.1962,106.8069,BCA
"INDOMARET KS TUBUN 78 CRM JL KS TUBUN NO78, SLIPI, PALMERAH, JAKARTA BARAT",-6.1915206,106.8061276,BCA
"SUDIRMAN PLAZA SUDIRMAN PLAZA, JL JENDSUDIRMAN KAV 76-78",-6.208302,106.820971,BCA
"SUDIRMAN PLAZA 2 SUDIRMAN PLAZA, JL JENDSUDIRMAN KAV 76-78",-6.208302,106.820971,BCA
ALFAMART PENJERNIHAN CRM JL PENJERNIHAN I NO 10 JAKARTA PUSAT,-6.201259,106.809112,BCA
INDOMARET MAS MANSYUR 1 JL KARET TENGSIN RT 01 RW 05 NO 48 TN ABANG JAKARTA PUSAT,-6.2078,106.8179,BCA
ALFAMART KOTA BAMBU CRM JL KOTA BAMBU UTARA RAYA 45 JAKARTA BARAT,-6.186276,106.806832,BCA
"INDOMARET KOTA BAMBU UTARA II JL KOTA BAMBU RAYA RT04/04 BAMBU SELATAN, PALMERAH, JAKARTA BARAT",-6.1861,106.8068,BCA
INDOMARET KS TUBUN II 2 JL AIPDA KS TUBUN NO 63 PETAMBURAN JAKARTA PUSAT,-6.1927,106.8057,BCA
INDOMARET KS TUBUN II JL AIPDA KS TUBUN NO 63 PETAMBURAN JAKARTA PUSAT,-6.1927,106.8057,BCA
KANTOR PUSAT PD PASAR JAYA 1 JL CIKINI RAYA NO 90 KEL CIKINI KEC MENTENG JAKARTA PUSAT,-6.1965,106.8394,BCA
ALFAMIDI KALI PASIR JAKPUS JL KALI PASIRGG PENGARENGAN 2 RT14/01JAKPUS,-6.1872,106.8395,BCA
ALFAMIDI KALI PASIR JAKPUS 2 JL KALI PASIRGG PENGARENGAN 2 RT14/01JAKPUS,-6.1872,106.8395,BCA
"ALFAMART KEMBANG RAYA JL. KEMBANG RAYA NO 41, KWITANG, JAKPUS",-6.1848,106.8388,BCA
"ALFAMIDI SETIABUDI TENGAH JL SETIABUDI VII NO 2, SETIABUDI, KUNINGAN, JAKSEL",-6.209399,106.824352,BCA
MD TOWER CRM 1 GED MD TOWER JL SETIABUDI SELATAN NO 7 JAKSEL,-6.208217,106.829391,BCA
MD TOWER CRM 2 GED MD TOWER JL SETIABUDI SELATAN NO 7 JAKSEL,-6.208217,106.829391,BCA
TOKO KELONTONG SETIABUDI JL SETIABUDI TENGAH NO 11 SETIABUDI JAKSEL,-6.209244,106.826227,BCA
TANAH ABANG II CRM 1 JL TANAH ABANG II NO 49 & 51 JAKPUS,-6.175651,106.814954,BCA
TANAH ABANG II CRM 2 JL TANAH ABANG II NO 49 & 51 JAKPUS,-6.175651,106.814954,BCA
TANAH ABANG II CRM 3 JL TANAH ABANG II NO 49 & 51 JAKPUS,-6.175651,106.814954,BCA
TANAH ABANG II CRM 4 JL TANAH ABANG II NO 49 & 51 JAKPUS,-6.175651,106.814954,BCA
"CITY WALK SUDIRMAN CRM 1 JL. KH MAS MANSYUR, JAKARTA PUSAT",-6.209,106.818,BCA
CITY CENTER CRM 1 THE CITY CENTER GEDUNG PERKANTORAN ONE FROUND FLOOR JL KH MAS MANSYUR KAV 126 JAKARTA PUSAT,-6.2093169,106.8191738,BCA
CITY CENTER CRM 2 THE CITY CENTER GEDUNG PERKANTORAN ONE FROUND FLOOR JL KH MAS MANSYUR KAV 126 JAKARTA PUSAT,-6.2093169,106.8191738,BCA
SPBU COCO 31.103.03 CIKINI JL CIKINI RAYA KEC MENTENG JAKPUS,-6.1957,106.8404,BCA
STASIUN GAMBIR CRM 1 STASIUN KERETA API BESAR GAMBIR JAKARTA PUSAT,-6.175558,106.83091,BCA
STASIUN GAMBIR CRM 2 STASIUN KERETA API BESAR GAMBIR JAKARTA PUSAT,-6.175558,106.83091,BCA
ABDUL MUIS CRM 1 JL ABDUL MUIS NO 24-26 - JAKARTA,-6.173697,106.820772,BCA
ABDUL MUIS CRM 2 JL ABDUL MUIS NO 24-26 - JAKARTA,-6.173697,106.820772,BCA
ABDUL MUIS CRM 3 JL ABDUL MUIS NO 24-26 - JAKARTA,-6.173697,106.820772,BCA
"KWITANG CRM 2 JL KWITANG RAYA NO 17, JAKARTA PUSAT",-6.1805639,106.8377703,BCA
BSI BENHIL JL BENDUNGAN HILIR RAYA BLOK G1/3A JAKPUS,-6.2067,106.8115,BCA
INDOMARET SETIABUDI 17 1 JL SETIABUDI RAYA NO 17,-6.210503,106.823101,BCA
"AUDAH GUEST HOUSE SYARIAH CRM 1 JL TAMAN SETIABUDI NO 5, RT.02 RW.02, SETIABUDI, J",-6.210254,106.8261085,BCA
"ALFAMART CIDENG BARAT JL CIDENG BARAT NO 70B, CIDENG, GAMBIR,JAKPUS",-6.1761,106.8122,BCA
"ALFAMART CIDENG BARAT 2 JL CIDENG BARAT NO 70B, CIDENG, GAMBIR,JAKPUS",-6.1761,106.8122,BCA
INDOMARET PENJERNIHAN 12 JL PENJERNIHAN II NO12 RT11/02 TANAH ABANG JAKARTA PUSAT,-6.2055,106.8097,BCA
INDOMARET RADEN SALEH 37 JL RADEN SALEH NO 37 JAKARTA,-6.1918,106.8419,BCA
SAHID SUDIRMAN RESIDENCE CRM 1 JL JEND SUDIRMAN KAV 86 JAKARTA PUSAT,-6.210522,106.819205,BCA
SAHID SUDIRMAN RESIDENCE CRM 2 JL JEND SUDIRMAN KAV 86 JAKARTA PUSAT,-6.210522,106.819205,BCA
"SUDIRMAN CRM 1 GED CHASE PLAZA, JL JEND SUDIRMAN KAV 21 JKT",-6.210901,106.82175,BCA
"SUDIRMAN CRM 2 GED CHASE PLAZA, JL JEND SUDIRMAN KAV 21 JKT",-6.210901,106.82175,BCA
"SUDIRMAN CRM 3 GED CHASE PLAZA, JL JEND SUDIRMAN KAV 21 JKT",-6.210901,106.82175,BCA
"SUDIRMAN CRM 4 GED CHASE PLAZA, JL JEND SUDIRMAN KAV 21 JKT",-6.210901,106.82175,BCA
"SUDIRMAN CRM 5 GED CHASE PLAZA, JL JEND SUDIRMAN KAV 21 JKT",-6.210901,106.82175,BCA
"SUDIRMAN CRM 6 GED CHASE PLAZA, JL JEND SUDIRMAN KAV 21 JKT",-6.210901,106.82175,BCA
"SAHID SUDIRMAN CENTER CRM 3 GED SAHID SUDIRMAN CENTER LT DASAR, JL JEND SUDIRMAN 1 NO 86, JAKARTA PUSAT",-6.210901,106.82175,BCA
INDOMARET ALAM SUTERA NIAGA CRM 1 RUKO PSR DELAPAN BL RC 01 ALAM SUTERA TANGSEL,-6.202646,106.806933,BCA
ALFAMART BENHIL II JL BENDUNGAN HILIR RAYA RT 01 RW 04 KEL BENDUNGAN HILIR KEC TANAH ABANG JAKARTA PUSAT,-6.2061,106.8098,BCA
ALFAMART BENHIL II 2 JL BENDUNGAN HILIR RAYA RT 01 RW 04 KEL BENDUNGAN HILIR KEC TANAH ABANG JAKARTA PUSAT,-6.206158,106.809797,BCA
"SAHID SUDIRMAN CENTER CRM 1 GED SAHID SUDIRMAN CENTER LT DASAR, JL JEND SUDIRMAN 1 NO 86, JAKARTA PUSAT",-6.21086,106.81859,BCA
"SAHID SUDIRMAN CENTER CRM 2 GED SAHID SUDIRMAN CENTER LT DASAR, JL JEND SUDIRMAN 1 NO 86, JAKARTA PUSAT",-6.21086,106.81859,BCA
RS CIKINI JL. CIKINI RAYA 119,-6.1912,106.8424,BCA
ALFAMART PENJERNIHAN II JL PENJERNIHAN NO 16 TANAH ABANG JAKARTA PUSAT,-6.202715,106.806542,BCA
INDOMARET BENHIL 136 (TKLG) JL BENDUNGAN HILIR RAYA NO136 RT012 RW006 KEL BENDUNGAN HILIR KEC TANAH ABANG JAKPUS,-6.2073,106.8106,BCA
PASAR CIKINI CRM GED PERMATA HIJAU LT 2 JL PEGANGSAAN BARAT 7A,-6.1982,106.84169,BCA
"INDOMARET SEMANGKA PALMERAH ( TRV9 ) JAKBAR JL SEMANGKA NO 21 BLK A XII JATIPULO,PALMERAH",-6.180737,106.80606,BCA
"INDOMARET BENHIL III (T985) CRM JL BENDUNGAN HILIR G 11/11, KEL BENDUNGAN HILIR, KEC TANAH ABANG",-6.2081,106.8112,BCA
THE PEAK AT SUDIRMAN JL SETIABUDI RAYA NO 9 JAKARTA SELATAN,-6.211769,106.823836,BCA
ALLIANZ TOWER 1 JL HR RASUNA SAID KAWASAN KUNINGAN PERSADA SUPER BLOK 2 JAKARTA,-6.21,106.8311,BCA
ALFAMART BENHIL IV CRM 1 JL BENDUNGAN HILIR NO 122 JAKARTA PUSAT,-6.20868,106.81175,BCA
MENARA IMPERIUM CRM 1 JL HR RASUNA SAID KAV 01 - JAKARTA,-6.210149,106.831541,BCA
MENARA IMPERIUM CRM 2 JL HR RASUNA SAID KAV 01 - JAKARTA,-6.210149,106.831541,BCA
"KWITANG CRM 1 JL KWITANG RAYA NO 17, JAKARTA PUSAT",-6.180433,106.840058,BCA
"MILLENIUM CENTENNIAL CENTER CRM 2 JL JENDRAL SUDIRMAN NO 86 KAV 25, KUNINGAN, KARET",-6.21233,106.82058,BCA
ALFAMIDI BENDUNGAN HILIR CRM 1 JL BENDUNGAN HILIR TANAH ABANG JAKARTA PUSAT,-6.2096,106.8122,BCA
RSPAD GATOT SUBROTO JL DR ABDUL RACHMAN SALEH NO 24 JAKARTA PUSAT,-6.176378,106.836988,BCA
INDOMARET KS TUBUN III JL KS TUBUN RAYA NO 2 JAKARTA BARAT,-6.1981,106.8029,BCA
INDOMARET KS TUBUN III 2 JL KS TUBUN RAYA NO 2 JAKARTA BARAT,-6.1981,106.8029,BCA
"RADEN SALEH CRM 1 JL RADEN SALEH NO 13,15,17 A JAKARTA PUSAT",-6.190322,106.843729,BCA
"RADEN SALEH CRM 2 JL RADEN SALEH NO 13,15,17 A JAKARTA PUSAT",-6.190322,106.843729,BCA
"RADEN SALEH CRM 3 JL RADEN SALEH NO 13,15,17 A JAKARTA PUSAT",-6.190322,106.843729,BCA
"SONA TOPAS TOWER JL. JEND. SUDIRMAN KAV. 26, JAKARTA SELATAN",-6.212766,106.820316,BCA
FORTUNE HOTEL SPA KARAOKE & CLUB JL KH MAS MANSYUR NO 13 JARTA PUSAT,-6.212234,106.817413,BCA
"ALFAMIDI PENJERNIHAN JL PENJERNIHAN 1 NO 5B, BENDUNGAN HILIR, TANAH ABANG, JAKPUS",-6.2039061,106.8054163,BCA
MAYAPADA TOWER MAYAPADA TOWER JL JEND SUDIRMAN KAV 28 JAKSEL,-6.213002,106.820629,BCA
"KANTOR PUSAT PERTAMINA JL. MEDAN MERDEKA TIMUR NO. 1A, JAKARTA PUSAT",-6.1722,106.8316,BCA
"ALFAMART KS TUBUN JKT JL KS TUBUN NO 17, RT01/05, SLIPI, PALMERAH, JAKARTA BARAT",-6.19901,106.80238,BCA
SMAILING TOUR JL. MAJAPAHIT NO. 28,-6.17,106.8212,BCA
CIDENG BARAT I CRM 1 JL CIDENG BARAT 53 - JAKARTA,-6.173245,106.811175,BCA
CIDENG BARAT I CRM 2 JL CIDENG BARAT 53 - JAKARTA,-6.173245,106.811175,BCA
CIDENG BARAT I CRM 3 JL CIDENG BARAT 53 - JAKARTA,-6.173245,106.811175,BCA
CIDENG BARAT I CRM 4 JL CIDENG BARAT 53 - JAKARTA,-6.173245,106.811175,BCA
CIDENG BARAT I CRM 5 JL CIDENG BARAT 53 - JAKARTA,-6.173245,106.811175,BCA
"PRASADA MANSION JL KOMANDO RAYA NO 6 SETIABUDI, JAKSEL",-6.2134894,106.8197344,BCA
"ALFAMART KOTA BAMBU SELATAN JL KOTA BAMBU SELATAN, RT10/09, KOTA BAMBU SELATAN, PALMERAH, JAKARTA BARAT",-6.1839,106.8022,BCA
"BCA EXPRESS UNIV ATMA JAYA CRM 1 JL JENDRAL SUDIRMAN 51, JAKARTA",-6.1968388,106.8010708,BCA
"BSI KRAMAT 18 JL. KRAMAT RAYA NO. 18, JAKARTA PUSAT",-6.180458,106.842232,BCA
SURYOPRANOTO CRM 1 JL SURYOPRANOTO 40 - JAKARTA,-6.170518,106.814389,BCA
SURYOPRANOTO CRM 2 JL SURYOPRANOTO 40 - JAKARTA,-6.170518,106.814389,BCA
SURYOPRANOTO CRM 3 JL SURYOPRANOTO 40 - JAKARTA,-6.170518,106.814389,BCA
SURYOPRANOTO CRM 4 JL SURYOPRANOTO 40 - JAKARTA,-6.170518,106.814389,BCA
SURYOPRANOTO CRM 5 JL SURYOPRANOTO 40 - JAKARTA,-6.170518,106.814389,BCA
GRAHA SURYA CRM 1 GEDUNGGRAHA SURYA JL SETIABUDI SLTN I KAV9JKT,-6.2140666,106.8276774,BCA
GRAHA SURYA CRM 2 GEDUNGGRAHA SURYA JL SETIABUDI SLTN I KAV9JKT,-6.2140666,106.8276774,BCA
METROPOLE XXI 1 JL PEGANGSAAN TIMUR NO 21 JAKARTA PUSAT,-6.1995,106.8445,BCA
INDOMARET BENHIL 78 JL BENDUNGAN HILIR RAYA NO78 JAKPUS,-6.2123,106.8122,BCA
MEGA PLAZA JL HR RASUNA SAID KAV C-3 JAKARTA SELATAN,-6.213743,106.830168,BCA
WTC SUDIRMAN CRM 1 JL JENDRAL SUDIRMAN KAV 29-31 JAKARTA SELATAN,-6.214829,106.820051,BCA
WTC SUDIRMAN CRM 2 JL JENDRAL SUDIRMAN KAV 29-31 JAKARTA SELATAN,-6.214829,106.820051,BCA
WTC SUDIRMAN CRM 3 JL JENDRAL SUDIRMAN KAV 29-31 JAKARTA SELATAN,-6.214829,106.820051,BCA
"HARMONI PLAZA CRM 1 APT ISTANA HARMONI BLOK E, JL SURYOPRANOTO 2",-6.168585,106.819354,BCA
"HARMONI PLAZA CRM 2 APT ISTANA HARMONI BLOK E, JL SURYOPRANOTO 2",-6.168585,106.819354,BCA
KYAI CARINGIN CRM 1 JL BALIKPAPAN NO 21 A-B JAKARTA PUSAT,-6.17084,106.81212,BCA
KYAI CARINGIN CRM 2 JL BALIKPAPAN NO 21 A-B JAKARTA PUSAT,-6.17084,106.81212,BCA
"RSCM INTERNATIONAL JL. DIPONEGORO 71, JAKARTA PUSAT",-6.1988,106.8452,BCA
INDOMARET KS TUBUN VI A JAKPUS JL KS TUBUN NO 6 -6A KEL PERTAMBURAN KEC TANAH ABANG JAKARTA PUSAT,-6.2,106.8007,BCA
INDOMARET KATAMSO JAKARTA BARAT JL BRIGJEN KATAMSO NO 12B RT 006/009 KOTA BAMBU UTARA PALMERAH JAKARTA BARAT,-6.1894,106.7993,BCA
EBC ATRIUM PLAZA CRM 1 ATRIUM PLAZA LANTAI LG JL RAYA SENEN 135,-6.1776,106.8418,BCA
EBC ATRIUM PLAZA CRM 2 ATRIUM PLAZA LANTAI LG JL RAYA SENEN 135,-6.1776,106.8418,BCA
EBC ATRIUM PLAZA CRM 3 ATRIUM PLAZA LANTAI LG JL RAYA SENEN 135,-6.1776,106.8418,BCA
EBC ATRIUM PLAZA CRM 4 ATRIUM PLAZA LANTAI LG JL RAYA SENEN 135,-6.1776,106.8418,BCA
EBC ATRIUM PLAZA CRM 5 ATRIUM PLAZA LANTAI LG JL RAYA SENEN 135,-6.1776,106.8418,BCA
EBC ATRIUM PLAZA CRM 7 ATRIUM PLAZA LANTAI LG JL RAYA SENEN 135,-6.1776,106.8418,BCA
EBC ATRIUM PLAZA CRM 6 ATRIUM PLAZA LANTAI LG JL RAYA SENEN 135,-6.1776,106.8418,BCA
KUNINGAN VILLAGE JL. KARBELA TIMUR NO. 1 JAKARTA SELATAN,-6.214682,106.828556,BCA
"PERMATA KUNINGAN 1 JL KUNINGAN MULIA 9C KELURAHAN GUNTUR, KECAMATAN SETIABUDI, JAKARTA SELATAN",-6.2126,106.834,BCA
STT JAKARTA JL PROKLAMASI NO 27 JAKARTA PUSAT,-6.2013,106.8446,BCA
INDOMARET KOTA BAMBU SELATAN JL KOTA BAMBU SELATAN NO 1 TOMANG GROGOL PETAMBURAN JAKARTA BARAT,-6.1855,106.7998,BCA
SETIABUDI ATRIUM CRM 1 GDG SETIABUDI ATRIUM JL HR RASUNA SAID KAV 62,-6.2145573,106.8299948,BCA
SETIABUDI ATRIUM CRM 2 GDG SETIABUDI ATRIUM JL HR RASUNA SAID KAV 62,-6.2145573,106.8299948,BCA
"ALFAMART KRAMAT PULO IV JL KRAMAT PULO BARAT BLOK B6 RT 003/004, KRAMAT, SENEN, JAKARTA PUSAT",-6.1828,106.8451,BCA
"CIRCLE K JAK0101 BENDUNGAN HILIR CRM JL. BENDUNGAN HILIR NO.19, JAKARTA PUSAT",-6.213941,106.813553,BCA
ALFAMART KARBELA II CRM 1 JL KARBELA / GG ANGGREK XII 10 KEL KARET KUNINGAN KEC SETIABUDI J AK-SEL,-6.21529,106.82809,BCA
"BENDUNGAN HILIR CRM 1 JL BENDUNGAN HILIR NO 44 B RT 009/ RW 001, KEL BENDUNGAN HILIR, KEC TANAH ABANG, JAKARTA PUSAT",-6.214732,106.815288,BCA
"BENDUNGAN HILIR CRM 2 JL BENDUNGAN HILIR NO 44 B RT 009/ RW 001, KEL BENDUNGAN HILIR, KEC TANAH ABANG, JAKARTA PUSAT",-6.214732,106.815288,BCA
"BENDUNGAN HILIR CRM 3 JL BENDUNGAN HILIR NO 44 B RT 009/ RW 001, KEL BENDUNGAN HILIR, KEC TANAH ABANG, JAKARTA PUSAT",-6.214732,106.815288,BCA
ALFAMART KAMBOJA JAKBAR JL KAMBOJA NO 32 RT 10/01 KEL JATIPULO KEC PALMERAH JAKBAR,-6.1786,106.8024,BCA
INDOMARET KARBELA JL FLAMBOYAN NO 1 KEL KARET JAKSEL,-6.215989,106.823061,BCA
INDOMARET KARBELA 2 JL FLAMBOYAN NO 1 KEL KARET JAKSEL,-6.215989,106.8230615,BCA
"GRAHA INDRA MAS CRM 1 GD GRAHA INDRAMAS, JLAIP II KS TUBUN RY NO77",-6.200174,106.799838,BCA
"GRAHA INDRA MAS CRM 2 GD GRAHA INDRAMAS, JLAIP II KS TUBUN RY NO77",-6.200174,106.799838,BCA
"GRAHA INDRA MAS CRM 3 GD GRAHA INDRAMAS, JLAIP II KS TUBUN RY NO77",-6.200174,106.799838,BCA
"GRAHA INDRA MAS CRM 4 GD GRAHA INDRAMAS, JLAIP II KS TUBUN RY NO77",-6.200174,106.799838,BCA
DUTA MERLIN 1 GRAHA GRAMALA JL GAJAH MADA NO 3-5 JAKARTA,-6.167308,106.820425,BCA
ALFAMART SENEN RAYA CRM JL SENEN RAYA NO 48A JAKARTA PUSAT,-6.1766,106.8421,BCA
INDOMARET KAMBOJA 2 JL KAMBOJA NO 29 JAKARTA BARAT,-6.1786,106.802,BCA
INDOMARET KAMBOJA JL KAMBOJA NO 29 JAKARTA BARAT,-6.1786,106.802,BCA
"WTC 1 WTC 1ST FLOOR, JL JEND. SUDIRMAN KAV. 29-31",-6.2157497,106.8174456,BCA
"DIPO TOWER 1 JL JEND GATOT SUBROTO KV 51-52, KELURAHAN PETAMBURAN, KECAMATAN TANAH ABANG, JAKARTA PUSAT",-6.2028,106.8008,BCA
ALFAMART KRAMAT PULO III JL KRAMAT PULO NO 35 KRAMAT SENEN JAKPUS,-6.1814,106.8452,BCA
"ALFAMIDI KAMBOJA 1 JL KAMBOJA BLOK A NO 6 RT 011/RW 006 KOTA BAMBU UTR, PALMERAH, JAKBAR",-6.1807216,106.8007115,BCA
"ALFAMIDI KAMBOJA JAKBAR CRM JL KAMBOJA BLOK A/6, KOTA BAMBU UTARA, PALMERAH, JAKBAR",-6.1807216,106.8007115,BCA
"INDOMARET KRAMAT SENTIONG JL. KRAMAT SENTIONG NO.2, JAKARTA PUSAT",-6.188,106.8473,BCA
"WISMA 76 CRM 1 JL LETJEN S PARMAN KAV 76, JAKARTA BARAT",-6.190635,106.798043,BCA
"RSCM GEDUNG A JL. DIPONEGORO 71, JAKARTA PUSAT",-6.1969,106.8471,BCA
"SPBU COCO 3111401 S PARMAN JAKBAR JL S PARMAN KAVLING 70, JAKARTA BARAT",-6.1937,106.798,BCA
"RS CIPTO MANGUNKUSUMO JL. DIPONEGORO 71, JAKARTA PUSAT",-6.1975,106.847,BCA
"SEKOLAH SANTA MARIA PASAR BARU 1 JL IR H JUANDA NO 29, GAMBIR, JAKARTA PUSAT",-6.1667933,106.822251,BCA
"WISMA 77 JL LETJEN. S. PARMAN KAV. 77 SLIPI, JAKARTA",-6.1905,106.7979,BCA
"WISMA DHARMALA SAKTI JL. JEND. SUDIRMAN KAV. 32, JAKARTA",-6.215914,106.816525,BCA
TOMANG RAYA CRM 7 JL. TOMANG RAYA 64 - JAKARTA - 11430,-6.17521,106.80401,BCA
INDOMARET POINT JUANDA JL JUANDA RAYA NO 31 A-B GAMBIR GAMBIR JAKARTA PUSAT,-6.166865,106.825925,BCA
"SETIABUDI BUILDING CRM 1 LOBBY SETIABUDI BUILDING 2, JL HR RASUNA SAID",-6.21601,106.829032,BCA
"SENEN CRM 1 PUSAT GROSIR SENEN JAYA BLOK A8-9 LT 2, JKT",-6.175984,106.842361,BCA
"SENEN CRM 2 PUSAT GROSIR SENEN JAYA BLOK A8-9 LT 2, JKT",-6.175984,106.842361,BCA
"SENEN CRM 3 PUSAT GROSIR SENEN JAYA BLOK A8-9 LT 2, JKT",-6.175984,106.842361,BCA
"STASIUN KAI JUANDA JL IR H JUANDA NO 1, JAKARTA PUSAT",-6.1677,106.8304,BCA
"ATRIUM CRM 1 RUKO ATRIUM BLOK E NO 12-13, JAKARTA 10410",-6.176504,106.842884,BCA
"ATRIUM CRM 2 RUKO ATRIUM BLOK E NO 12-13, JAKARTA 10410",-6.176504,106.842884,BCA
"ATRIUM CRM 3 RUKO ATRIUM BLOK E NO 12-13, JAKARTA 10410",-6.176504,106.842884,BCA
"SPBU SHELL S PARMAN JAKBAR 1 JALAN LETJEN S PARMAN KAV 38- 39, KEMANGGISAN, PALMERAH, JAKBAR",-6.1987455,106.7985764,BCA
"PASAR KENARI 1 JL SALEMBA RAYA, KENARI, SENEN, JAKARTA PUSAT",-6.19293,106.84802,BCA
WISMA BARITO CRM 1 JL LETJEN S PARMAN KAV 62-63 SLIPI JAK BAR,-6.1957125,106.7978043,BCA
WISMA BARITO CRM 2 JL LETJEN S PARMAN KAV 62-63 SLIPI JAK BAR,-6.1957125,106.7978043,BCA
"ALFAMART ANGGREK III JL ANGGREK III 25 B RT 19/02, JAKSEL",-6.2165494,106.8279278,BCA
ALFAMART BENHIL JATILUHUR 2 JL BENDUNGAN JATILUHUR NO 22 BENHIL JAKPUS,-6.2152,106.8131,BCA
ALFAMART BENHIL JATILUHUR JL BENDUNGAN JATILUHUR NO 22 BENHIL JAKPUS,-6.2152,106.8131,BCA
BENGKEL CATS JL TOMANG RAYA NO 69 BLOK MM JAKARTA,-6.174,106.8044,BCA
WISMA ASIA CRM 1 JL S PARMAN KAV 79 JAKARTA,-6.189065,106.797371,BCA
WISMA ASIA II LT 12 CRM JL BRIGJEN KATAMSO KAV 1 JAKARTA,-6.189065,106.797371,BCA
WISMA ASIA I CRM 3 JL S PARMAN KAV 79 JAKARTA,-6.189065,106.797371,BCA
WISMA ASIA I CRM 4 JL S PARMAN KAV 79 JAKARTA,-6.189065,106.797371,BCA
WISMA ASIA I CRM 5 JL S PARMAN KAV 79 JAKARTA,-6.189065,106.797371,BCA
WISMA ASIA I CRM 6 JL S PARMAN KAV 79 JAKARTA,-6.189065,106.797371,BCA
WISMA ASIA I CRM 7 JL S PARMAN KAV 79 JAKARTA,-6.189065,106.797371,BCA
WISMA SLIPI CRM 1 JL LET JEND S PARMAN KAV 12 JAKARTA,-6.189065,106.797371,BCA
"BCA EXPRESS TRISAKTI CRM 1 UNIV TRISAKTI, JL KYAI TAPA NO 1 , JAKARTA",-6.189065,106.797371,BCA
WISMA ASIA I CRM 2 JL S PARMAN KAV 79 JAKARTA,-6.189065,106.797371,BCA
"UNIV. BINA NUSANTARA CRM 2 KAM II UNIV BINUS,JL ANGGREK CAKRA 10 JAKARTA",-6.189065,106.797371,BCA
"UNIV. BINA NUSANTARA CRM 3 KAM II UNIV BINUS,JL ANGGREK CAKRA 10 JAKARTA",-6.189065,106.797371,BCA
"UNIV. BINA NUSANTARA CRM 4 KAM II UNIV BINUS,JL ANGGREK CAKRA 10 JAKARTA",-6.189065,106.797371,BCA
"UNIV. BINA NUSANTARA CRM 5 KAM II UNIV BINUS,JL ANGGREK CAKRA 10 JAKARTA",-6.189065,106.797371,BCA
INDOMARET ANTARA PASAR BARU JL ANTARA NO 63 PASAR BARU SAWAH BESAR JAKPUS,-6.1685,106.8336,BCA
SAMPOERNA SQUARE CRM 1 JL JEND SUDIRMAN KAV 45-46 JAKARTA,-6.216852,106.817848,BCA
SAMPOERNA SQUARE CRM 2 JL JEND SUDIRMAN KAV 45-46 JAKARTA,-6.216852,106.817848,BCA
SAMPOERNA SQUARE CRM 3 JL JEND SUDIRMAN KAV 45-46 JAKARTA,-6.216852,106.817848,BCA
"ALFAMART KRAMAT SENTIONG JL. KRAMAT SENTIONG  NO.17, JAKARTA PUSAT",-6.1875,106.8482,BCA
LAWSON DR SATRIO JL DR SATRIO NO 64 RT 003/001 JAKSEL,-6.217316,106.819348,BCA
ALFAMIDI SALEMBA JL SALEMBA RAYA KEL PASEBANAN KEC SENEN,-6.1935,106.8487,BCA
"MENARA STANDARD CHARTERED CRM 1 JL PROF DR SATRIO NO 164, JAKARTA",-6.217569,106.819017,BCA
"INDOMARET CIDENG TIMUR JL CIDENG TIMUR NO 30A, JAKARTA PUSAT",-6.1684,106.8109,BCA
"GRAHA RAYA BINTARO CRM 1 KOMPLEK RUKO PASAR SEGAR BLOK RA-1 NO. 12 & 15, GRAHA RAYA BINTARO",-6.1655858,106.8201965,BCA
DUTA MERLIN CRM 2 PERTOK DUTA MERLIN BLOK A/24-25 JL GAJAH MADA,-6.1655858,106.8201965,BCA
DUTA MERLIN CRM 3 PERTOK DUTA MERLIN BLOK A/24-25 JL GAJAH MADA,-6.1655858,106.8201965,BCA
DUTA MERLIN CRM 4 PERTOK DUTA MERLIN BLOK A/24-25 JL GAJAH MADA,-6.1655858,106.8201965,BCA
DUTA MERLIN CRM 1 PERTOK DUTA MERLIN BLOK A/24-25 JL GAJAH MADA,-6.1655858,106.8201965,BCA
"INDOMARET FRESH TOMANG RAYA JL TOMANG RAYA NO 40, JAKBAR",-6.17629,106.80145,BCA
"SPBU COCO 31-11404 TOMANG JAKARTA JL. TOMANG RAYA, JAKARTA BARAT",-6.1762,106.8015,BCA
"ABFI PERBANAS STIE PERBANAS, JL GENTENG HIJAU, KUNINGAN",-6.217405,106.828749,BCA
MENARA KUNINGAN MNRA KNINGN JL HR R SAID BLOKX-7KAV 5JAKSEL,-6.217454,106.828733,BCA
"MAL KENARI MAS CRM 1 MAL KENARI MAS, JL SALEMBA RAYA NO 101, JKT",-6.1919,106.8492,BCA
"MAL KENARI MAS CRM 2 MAL KENARI MAS, JL SALEMBA RAYA NO 101, JKT",-6.1919,106.8492,BCA
"APARTEMEN SOUTH HILLS JL DENPASAR RAYA, KARET KUNINGAN, SETIABUDI, JAKSEL 12950",-6.2163723,106.8322778,BCA
SEKOLAH SANTA URSULA JL. POS 2 TROMOL 1098  JAKARTA,-6.1672,106.8329,BCA
WISMA SLIPI CRM 2 JL LET JEND S PARMAN KAV 12 JAKARTA,-6.1865077,106.7967271,BCA
WISMA SLIPI CRM 3 JL LET JEND S PARMAN KAV 12 JAKARTA,-6.1865077,106.7967271,BCA
WISMA SLIPI CRM 4 JL LET JEND S PARMAN KAV 12 JAKARTA,-6.1865077,106.7967271,BCA
ALFAMART PALMERAH UTARA I 2 JL PAMERAH UTARA 1 NO 2 RT 01/13 KEL PALMERAH KEC PALMERAH JAKBAR,-6.2019,106.7982,BCA
ALFAMART PALMERAH UTARA I JL PAMERAH UTARA 1 NO 2 RT 01/13 KEL PALMERAH KEC PALMERAH JAKBAR,-6.2019,106.7982,BCA
"GUDANG LISTRIK CRM 1 JL SALEMBA RAYA NO 19, JAKARTA PUSAT",-6.1941,106.8494,BCA
INDOMARET PECENONGAN JL PECENONGAN NO48 KEL KEBON KELAPA KEC GAMBIR JAKPUS,-6.165142,106.826375,BCA
SLIPI JAYA CRM 1 JL LETJEND S PARMAN KAV 17-18 JAKBAR,-6.1895,106.7961,BCA
SLIPI JAYA CRM 2 JL LETJEND S PARMAN KAV 17-18 JAKBAR,-6.1895,106.7961,BCA
SLIPI JAYA CRM 3 JL LETJEND S PARMAN KAV 17-18 JAKBAR,-6.1895,106.7961,BCA
"ALFAMART SALEMBA TENGAH II JL SALEMBA TENGAH NO 2B, PASEBAN SENEN JAKPUS",-6.1938,106.8496,BCA
SPBU BENZINE 34-11405 PALMERAH CRM JL PALMERAH UTARA RAYA NO 56 JAKARTA BARAT,-6.202619,106.798082,BCA
RS JAKARTA JL GARNISUN DALAM NO 1 KARET SEMANGGI SETIABUDI JAKSEL,-6.218003,106.816452,BCA
CENTRAL PLAZA CRM 1 JL JEND SUDIRMAN KAV 47 - JAKARTA,-6.217917,106.815849,BCA
CENTRAL PLAZA CRM 2 JL JEND SUDIRMAN KAV 47 - JAKARTA,-6.217917,106.815849,BCA
CENTRAL PLAZA CRM 3 JL JEND SUDIRMAN KAV 47 - JAKARTA,-6.217917,106.815849,BCA
CENTRAL PLAZA CRM 4 JL JEND SUDIRMAN KAV 47 - JAKARTA,-6.217917,106.815849,BCA
ALFAMART KRAMAT PULO GUNDUL JL KRAMAT PULO GUNDUL K9 JOHAR BARU JAKPUS,-6.1827008,106.8483764,BCA
"BANK CCBI KC SLIPI JL. LETJEN S. PARMAN KAV. 92, JAKARTA BARAT",-6.182817,106.797181,BCA
ALFAMART KAJI JL KAJI NO 20C-22 KEC GAMBIR JAKPUS,-6.1658,106.8147,BCA
PRIMA FRESHMART KRAMAT SENTIONG CRM 1 JL KRAMAT SENTIONG 53A RT11 RW06 KEL KRAMAT KEC SENEN JAKARTA PUSAT,-6.186793,106.849486,BCA
"ALFAMART MENTENG WADAS TIMUR JL MENTENG WADAS TIMUR NO18B,SETIABUDI,JAKSEL",-6.210807,106.842104,BCA
HASYIM ASHARI CRM 1 JL KH H ASHARI 5AA JAKARTA,-6.16477249,106.8184335,BCA
HASYIM ASHARI CRM 2 JL KH H ASHARI 5AA JAKARTA,-6.16477249,106.8184335,BCA
LEMBAGA ALKITAB INDONESIA JL SALEMBA RAYA NO 12 JAKARTA PUSAT,-6.1963,106.8497,BCA
LAWSON BENDUNGAN WALAHAR JL BENDUNGAN WALAHAR NO 30 JAKARTA PUSAT,-6.2173,106.8129,BCA
"WISMA HAYAM WURUK JL. HAYAM WURUK, JAKARTA",-6.17035,106.84001,BCA
"AIA CENTRAL CRM 1 JL JENDRAL SUDIRMAN KAV 48A, JAKSEL",-6.2180414,106.8147953,BCA
"SEMANGGI CRM 1 EQUITY TOWER, JL JEND SUDIRMAN KAV 52-53, JKT",-6.217438,106.812883,BCA
"SEMANGGI CRM 2 EQUITY TOWER, JL JEND SUDIRMAN KAV 52-53, JKT",-6.217438,106.812883,BCA
"SEMANGGI CRM 3 EQUITY TOWER, JL JEND SUDIRMAN KAV 52-53, JKT",-6.217438,106.812883,BCA
"SEMANGGI CRM 4 EQUITY TOWER, JL JEND SUDIRMAN KAV 52-53, JKT",-6.217438,106.812883,BCA
"SEMANGGI CRM 5 EQUITY TOWER, JL JEND SUDIRMAN KAV 52-53, JKT",-6.217438,106.812883,BCA
"INDOMARET TAMBAK 1 JL RAYA TAMBAK RT 7 / RW 6 PEGANGSAAN, MENTENG JAKARTA PUSAT",-6.205653,106.8466159,BCA
"STASIUN KAI PASAR SENEN JL KRAMAT BUNDAR NO 1, JAKARTA PUSAT",-6.1748,106.8447,BCA
PLAZA SEMANGGI CRM 1 KWSN BISNISGRANADHA JL JEND SUDIRMAN KAV50JKT,-6.217475,106.812674,BCA
PLAZA SEMANGGI CRM 2 KWSN BISNISGRANADHA JL JEND SUDIRMAN KAV50JKT,-6.217475,106.812674,BCA
BIAK CRM 1 JL BIAK NO 44 A-B JAKARTA PUSAT,-6.168164,106.808178,BCA
BIAK CRM 2 JL BIAK NO 44 A-B JAKARTA PUSAT,-6.168164,106.808178,BCA
"ALFAMART ANGGREK NELLY MURNI II JL ANGGREK NELLY MURNI RAYA NO C 126, RT11/01, KEMANGGISAN, PALMERAH, JAKARTA BARAT",-6.1871,106.7954,BCA
ALFAMART KRAMAT SENTIONG II JL KRAMAT SENTIONG NO 45 RT 08/07 JAKPUS,-6.187,106.8502,BCA
JUANDA III CRM 1 JL IR JUANDA III/34 - JAKARTA,-6.163805,106.823638,BCA
JUANDA III CRM 2 JL IR JUANDA III/34 - JAKARTA,-6.163805,106.823638,BCA
"INDOMARET MENTENG WADAS 2 JAKSEL JL MENTENGWADASTIMUR GGXI NO01 PSRMANGGIS, SETIABUDI, JAKSEL",-6.2117,106.8423,BCA
"HARMONI EXCHANGE 1 JL HAYAM WURUK 6, JAKARTA PUSAT",-6.1641536,106.8181841,BCA
"PT KERTA GAYA PUSAKA JL. AM. SANGAJI NO. 15B, JAKARTA 10130",-6.1654,106.8133,BCA
PINTU AIR CRM 3 JL PINTU AIR 36 Q - JAKARTA - 10710,-6.1652516,106.8319061,BCA
INDOMARET FRESH MANDALA JL MANDALA RAYA NO 4 KEL TOMANG JAKARTA BARAT,-6.176344,106.799403,BCA
PINTU AIR CRM 1 JL PINTU AIR 36 Q - JAKARTA - 10710,-6.165307,106.832158,BCA
PINTU AIR CRM 2 JL PINTU AIR 36 Q - JAKARTA - 10710,-6.165307,106.832158,BCA
ALFAMART ANGGREK GARUDA JL. ANGGREK GARUDA BLOK H 105 SLIPI,-6.1951,106.795,BCA
INDOMARET POINT ROXY MAS CRM 1 JL KH HASYIM ASHARI BLOK D3 NO 15 JAKPUS,-6.1688,106.8063,BCA
INDOMARET POINT ROXY MAS CRM 2 JL KH HASYIM ASHARI BLOK D3 NO 15 JAKPUS,-6.1688,106.8063,BCA
ALAYDRUS CRM 1 JL ALAYDRUS 48 B - JAKARTA,-6.164228,106.816287,BCA
ALAYDRUS CRM 2 JL ALAYDRUS 48 B - JAKARTA,-6.164228,106.816287,BCA
INDOMARET BIAK JL BIAK NO 50 CIDENG GAMBIR JAKARTA PUSAT,-6.1673,106.8084,BCA
UNIVERSITAS ATMAJAYA UNIV ATMAJAYA JL JEND SUDIRMAN 51 JAKARTA,-6.219001,106.815082,BCA
INDOMARET PLUS KARET PEDURENAN CRM JL KARET PEDURENAN NO 684A RT 004/004 KARET KUNING,-6.21986,106.826502,BCA
"STIE JAYAKARTA JL SALEMBA I NO. 1,3,8,10 & 10A, JAKPUS",-6.1939,106.8511,BCA
"WISMA UIC WISMA UIC, JL JEND GATOT SUBROTO KAV. 6-7 JAK",-6.218986,106.814857,BCA
MANDALA RAYA CRM 1 JL MANDALA RAYA 14 JAKARTA,-6.17585,106.799245,BCA
MANDALA RAYA CRM 2 JL MANDALA RAYA 14 JAKARTA,-6.17585,106.799245,BCA
MANDALA RAYA CRM 3 JL MANDALA RAYA 14 JAKARTA,-6.17585,106.799245,BCA
MANDALA RAYA CRM 4 JL MANDALA RAYA 14 JAKARTA,-6.17585,106.799245,BCA
MANDALA RAYA CRM 5 JL MANDALA RAYA 14 JAKARTA,-6.17585,106.799245,BCA
MOR GAJAH MADA 1 JL GAJAH MADA NO 9 - 11 PETOJO UTARA GAMBIR JAKARTA PUSAT,-6.1634,106.8203,BCA
HOTEL RED TOP JL PECENONGAN NO 72 JAKARTA PUSAT,-6.163505,106.82697,BCA
"ALFAMART MINANGKABAU JAKSEL CRM JL MINANGKABAU NO 09 RT 06/08, KEL PASAR KEMIS, KEC SETIABUDI, JAKARTA SELATAN",-6.2125257,106.842329,BCA
"SPBU SHELL SATRIO JL PROF DR SATRIO NO 241, KARET KUNINGAN",-6.2199754,106.8182991,BCA
ALFAMART PECENONGAN JL PECENONGAN RAYA NO 37 A KEL. KEBON KELAPA,-6.163216,106.826557,BCA
INDOMARET BATU TULIS JL BATU TULIS RAYA NO 32 JAKARTA PUSAT,-6.163099,106.826058,BCA
INDOMARET MENTENG ATAS 2 JL MENTENG ATAS SELATAN NO39 RT001/06 KEL MENTENG ATAS KEC SETIABUDI JAKSEL,-6.214102,106.840925,BCA
INDOMARET MENTENG ATAS JL MENTENG ATAS SELATAN NO39 RT001/06 KEL MENTENG ATAS KEC SETIABUDI JAKSEL,-6.214117,106.840919,BCA
"RS SAINT CAROLUS JL. SALEMBA RAYA, JAKARTA",-6.196,106.8513,BCA
"ALFAMART KH HASYIM ASHARI JAKPUS JL KH HASYIM ASHARI NO 40B RT03/RW01, DURI PULO, GAMBIR, JAKARTA PUSAT",-6.166,106.8096,BCA
CIDENG TIMUR CRM 1 JL CIDENG TIMUR 11 F - JAKARTA,-6.165917,106.809539,BCA
CIDENG TIMUR CRM 2 JL CIDENG TIMUR 11 F - JAKARTA,-6.165917,106.809539,BCA
PASARAYA MANGGARAI CRM 5 JL SULTAN AGUNG NO 1 JAKARTA SELATAN,-6.2088,106.84635,BCA
PASARAYA MANGGARAI CRM 3 JL SULTAN AGUNG NO 1 JAKARTA SELATAN,-6.2088,106.84635,BCA
PASARAYA MANGGARAI CRM 4 JL SULTAN AGUNG NO 1 JAKARTA SELATAN,-6.2088,106.84635,BCA
"EPICENTRUM WALK CRM 1 EPICENTRUM WALK 2ND FL, UNIT W / 336A & 338A",-6.218109,106.835183,BCA
ALFAMART PEMBANGUNAN 2 JL PEMBANGUNAN II NO 6 JAKARTA PUSAT,-6.1629,106.8182,BCA
"BARATA PASAR BARU JL. PASAR BARU NO.65-67, JAKARTA",-6.1644,106.8336,BCA
"INDOMARET GELONG BARU JAKARTA BARAT 1 JL GELONG BARU RAYA NO 16 RT 011/02 TOMANG, KEMANGGISAN, JAKARTA BARAT",-6.1763,106.7977,BCA
PASARAYA MANGGARAI CRM 1 JL SULTAN AGUNG NO 1 JAKARTA SELATAN,-6.209445,106.846418,BCA
PASARAYA MANGGARAI CRM 2 JL SULTAN AGUNG NO 1 JAKARTA SELATAN,-6.209445,106.846418,BCA
"INDOMARET JALAN SULAIMAN JL SULAIMAN NO 50 PALMERAH, JAKBAR",-6.199832,106.794323,BCA
"ISTANA PASAR BARU JL. PASAR BARU NO.65-67, JAKARTA",-6.1639,106.8331,BCA
"INDOMARET PALMERAH UTARA 115 JL PALMERAH UTARA 115 A, GELORA TANAH ABANG, JAKARTA PUSAT",-6.2067,106.7972,BCA
"TOKOPEDIA TOWER 1 JL PROF DR SATRIO KAV 11, JAKARTA SELATAN",-6.2213,106.82,BCA
CRM PASAR BARU 6 JL KH SAMANHUDI 8 JAKARTA PUSAT,-6.1626,106.828941,BCA
PECENONGAN CRM 1 JL PECENONGAN NO 86 JAKARTA PUSAT,-6.162141,106.826926,BCA
PECENONGAN CRM 2 JL PECENONGAN NO 86 JAKARTA PUSAT,-6.162141,106.826926,BCA
PECENONGAN CRM 3 JL PECENONGAN NO 86 JAKARTA PUSAT,-6.162141,106.826926,BCA
PASAR BARU CRM 4 JL KH SAMANHUDI 8 JAKARTA PUSAT,-6.162447,106.828941,BCA
PASAR BARU CRM 5 JL KH SAMANHUDI 8 JAKARTA PUSAT,-6.162447,106.828941,BCA
PASAR BARU CRM 1 JL KH SAMANHUDI 8 JAKARTA PUSAT,-6.162447,106.828941,BCA
PASAR BARU CRM 2 JL KH SAMANHUDI 8 JAKARTA PUSAT,-6.162447,106.828941,BCA
PASAR BARU CRM 3 JL KH SAMANHUDI 8 JAKARTA PUSAT,-6.162447,106.828941,BCA
SAMANHUDI CRM 1 JL SAMANHUDI 57 B - JAKARTA,-6.162447,106.828941,BCA
BATU CEPER CRM 1 JL BATU CEPER RAYA 18 A-B - JAKARTA - 10210,-6.162447,106.828941,BCA
BATU CEPER CRM 2 JL BATU CEPER RAYA 18 A-B - JAKARTA - 10210,-6.162447,106.828941,BCA
HARCO PASAR BARU CRM 1 GEDUNG HARCO PASAR BARU LT II NO 258 JKT PST,-6.162447,106.828941,BCA
KARANG ANYAR CRM 2 JL KARANG ANYAR 55 BLOK A1/14 JKT,-6.162447,106.828941,BCA
KARANG ANYAR CRM 3 JL KARANG ANYAR 55 BLOK A1/14 JKT,-6.162447,106.828941,BCA
CIRCLE K CK0327 - KARET PEDURENAN JL KARET PEDURENAN NO 12 SETIA BUDI,-6.2216,106.8216,BCA
ROXY MAS CRM 1 PERTOKOAN ROXI MAS BLOK C 5/6-8 - JAKARTA,-6.16766558,106.8050068,BCA
ROXY MAS CRM 2 PERTOKOAN ROXI MAS BLOK C 5/6-8 - JAKARTA,-6.16766558,106.8050068,BCA
ROXY MAS CRM 3 PERTOKOAN ROXI MAS BLOK C 5/6-8 - JAKARTA,-6.16766558,106.8050068,BCA
ROXY MAS CRM 4 PERTOKOAN ROXI MAS BLOK C 5/6-8 - JAKARTA,-6.16766558,106.8050068,BCA
INDOMARET SAMANHUDI 27A JL HAJI SAMANHUDI NO 27 A PASAR BARU JAKPUS,-6.1625,106.8293,BCA
INDOMARET BATU CEPER JL BATU CEPER RAYA NO 79 JAKARTA PUSAT,-6.161878,106.825334,BCA
"ALFAMIDI MINANGKABAU II JL MINANGKABAU NO 44, RT01/01, PASAR MANGGIS, SETIABUDI, JAKARTA SELATAN",-6.2129442,106.8439046,BCA
BCA SYARIAH SAMANHUDI KOMPPRKNTRNMITRAKREKOT JLSAMANHUDI NO21JAKPUS,-6.1624,106.829,BCA
ALFAMART BUNGUR BESAR JL BUNGUR BESAR NO121 RT11/01 BUNGURJAKPUS,-6.1698,106.8435,BCA
"GEDUNG DPR/MPR 2 JL JEND GATOT SUBROTO, JAKARTA 10270",-6.2107,106.799382,BCA
"GEDUNG DPR/MPR CRM 1 JL JEND GATOT SUBROTO, JAKARTA 10270",-6.210713,106.799382,BCA
"CIRCLE K STASIUN PALMERAH JL ALTERI PEJOMPONGAN NO 113B RT3/RW1 GELORA, JAKPUS",-6.2075,106.7971,BCA
RS MMC JL. HR. RASUNA SAID KAV. C-21,-6.220333,106.832534,BCA
"ALFAMART SUKARJO WIRYOPRANOTO CRM 1 JL SUKARJO WIYOPRANOTO  NO101, JAKARTA",-6.161571,106.82631,BCA
"ALFAMIDI MINANGKABAU CRM 1 JL MINANGKABAU, JAKARTA SELATAN",-6.213978,106.843408,BCA
"ALFAMIDI MINANGKABAU CRM 2 JL MINANGKABAU, JAKARTA SELATAN",-6.213978,106.843408,BCA
ALFAMART HAYAM WURUK JAKARTA PUSAT JL HAYAM WURUK RT 004/RW 001 KBN KLAPA GAMBIR,-6.1614,106.8198,BCA
ALFAMIDI SAWAH BESAR JL. SUKARJO WIRYOPRANOTO NO. 75 JAK PUS,-6.1613,106.8251,BCA
ALFAMART KRAMAT JAYA JAKPUS JL KRAMAT JAYA BARU NO189 JOHAR BARU JAKPUS,-6.1842,106.8525,BCA
SAWAH BESAR CRM 1 JL SUKARJO WIRYOPRANOTO 28 C JAKARTA PUSAT,-6.160891,106.823321,BCA
SAWAH BESAR CRM 2 JL SUKARJO WIRYOPRANOTO 28 C JAKARTA PUSAT,-6.160891,106.823321,BCA
SAWAH BESAR CRM 3 JL SUKARJO WIRYOPRANOTO 28 C JAKARTA PUSAT,-6.160891,106.823321,BCA
MATRAMAN CRM 1 JL MATRAMAN RAYA 14-16 - JAKARTA,-6.20043,106.8523643,BCA
"PASAR PETOJO ILIR 1 JL AM SANGAJI, NO 16-18, 003/04 KEL PETOJO UTARA KEC GAMBIR JAKARTA PUSAT",-6.1625,106.8128,BCA
"ALFAMART ANGGREK ROSALINA CRM JL ANGGGREK ROSALIANA VII NO 7, PALMERAH",-6.1943,106.792,BCA
INDOMARET SAMANHUDI JL H SAMANHUDI NO32A PASAR BARU JAKPUS 10710,-6.162,106.8314,BCA
"ALFAMART PEMBANGUNAN JL. PEMBANGUNAN I, JAKARTA PUSAT",-6.1615,106.8161,BCA
PLAZA FESTIVAL JL HR RASUNA SAID KAB C NO 22 KARET KUNINGAN SETIABUDI JAKSEL,-6.221227,106.832126,BCA
"INDOMARET ANGGREK ROSLIANA JL ROSLIANA 7/32, SLIPI PALMERAH BARAT, PALMERAH JAKARTA BARAT",-6.1941,106.7919,BCA
EBC GAJAH MADA PLAZA CRM 4 GAJAH MADA PLAZA LANTAI G UNIT NO 110(GMP) JL GAJA,-6.1611,106.8177,BCA
EBC GAJAH MADA PLAZA CRM 5 GAJAH MADA PLAZA LANTAI G UNIT NO 110(GMP) JL GAJA,-6.1611,106.8177,BCA
EBC GAJAH MADA PLAZA CRM 6 GAJAH MADA PLAZA LANTAI G UNIT NO 110(GMP) JL GAJA,-6.1611,106.8177,BCA
EBC GAJAH MADA PLAZA CRM 7 GAJAH MADA PLAZA LANTAI G UNIT NO 110(GMP) JL GAJA,-6.1611,106.8177,BCA
EBC GAJAH MADA PLAZA CRM 8 GAJAH MADA PLAZA LANTAI G UNIT NO 110(GMP) JL GAJA,-6.1611,106.8177,BCA
EBC GAJAH MADA PLAZA CRM 1 GAJAH MADA PLAZA LANTAI G UNIT NO 110(GMP) JL GAJAH MADA NO 19-26 JAKARTA PUSAT,-6.1611,106.8177,BCA
EBC GAJAH MADA PLAZA CRM 2 GAJAH MADA PLAZA LANTAI G UNIT NO 110(GMP) JL GAJAH MADA NO 19-26 JAKARTA PUSAT,-6.1611,106.8177,BCA
EBC GAJAH MADA PLAZA CRM 3 GAJAH MADA PLAZA LANTAI G UNIT NO 110(GMP) JL GAJAH MADA NO 19-26 JAKARTA PUSAT,-6.1611,106.8177,BCA
GRAHA ROXY MAS CRM 1 KOMPLEK RUKO ROXY MAS BLOK D 1 NO 1-7 JL KH HASYIM,-6.167335,106.803585,BCA
"ALFAMART BALADEWA 1 JL BALADEWA NO 28, RT/RW 006/005, KEL TANAH TINGGI, KEC JOHAR BARU JAKPUS",-6.1773041,106.8504194,BCA
SPBU 34-10604 BUNGUR BESAR CRM 1 JL BUNGUR BESAR RAYA NO 103 KEMAYORAN JAKARTA,-6.1677,106.8428,BCA
"APARTEMEN TAMAN RASUNA JL. HR. RASUNA SAID, JAKARTA SELATAN 12960",-6.219391,106.83735,BCA
ITC KUNINGAN LANTAI 4 CRM 1 JL PROF DR SATRIO JAKARTA,-6.222946,106.825215,BCA
ITC KUNINGAN LANTAI 4 CRM 2 JL PROF DR SATRIO JAKARTA,-6.222946,106.825215,BCA
ITC KUNINGAN LANTAI 4 CRM 3 JL PROF DR SATRIO JAKARTA,-6.222946,106.825215,BCA
ITC KUNINGAN LANTAI 4 CRM 4 JL PROF DR SATRIO JAKARTA,-6.222946,106.825215,BCA
"HOTEL CLASSIC 2 JL. KH. SAMANHUDI NO. 43-45, JAKARTA 10710",-6.1612,106.83,BCA
"ELITE CLUB EPICENTRUM CRM 1 JL EPICENTRUM UTAMA RAYA, KUNINGAN",-6.220611,106.835167,BCA
CERIAMART BUNGUR ( RRPP ) JAKARTA PUSAT JL BUNGUR BESAR NO. 80A GUNUNG SAHARI SELATAN JAKARTA PUSAT,-6.1668,106.842,BCA
ALFAMART GEREJA AYAM JL GEREJA AYAM NO 8 KEL PASAR BARU KEC SAWAH BESAR JAKARTA PUSAT,-6.1624,106.8344,BCA
"PASAR PALMERAH CRM 1 JL PALMERAH BARAT, JAKARTA BARAT",-6.208149,106.795899,BCA
INDOMARET SALEMBA JL SALEMBA TENGAH NO 54A JAKARTA PUSAT,-6.1928,106.8543,BCA
CIRCLE K APARTEMEN PERMATA SENAYAN JAK0377 JL PALMERAH SELATAN KAV 20A-21 JAKARTA PUSAT,-6.210735,106.797483,BCA
"INDOMARET GEREJA AYAM CRM JL GEREJA AYAM NO 2B PASAR BARU, JAKPUS",-6.1624,106.8349,BCA
JEMBATAN LIMA CRM 1 JL KH MOCH MANSYUR 15 F - JAKARTA - 10140,-6.163784621,106.8077602,BCA
JEMBATAN LIMA CRM 2 JL KH MOCH MANSYUR 15 F - JAKARTA - 10140,-6.163784621,106.8077602,BCA
JEMBATAN LIMA CRM 3 JL KH MOCH MANSYUR 15 F - JAKARTA - 10140,-6.163784621,106.8077602,BCA
JEMBATAN LIMA CRM 4 JL KH MOCH MANSYUR 15 F - JAKARTA - 10140,-6.163784621,106.8077602,BCA
JEMBATAN LIMA CRM 5 JL KH MOCH MANSYUR 15 F - JAKARTA - 10140,-6.163784621,106.8077602,BCA
PASAR PASAR BARU CRM JL H SAMANHUDI KEL PPASAR BARU JAKARTA PUSAT,-6.1616,106.8328,BCA
ALFAMIDI TOMANG UTARA JL. TOMANG UTARA II NO. 47 JAKARTA BARAT,-6.1705429,106.7991351,BCA
KETAPANG CRM 1 KETAPANG INDAH BLOK A/3-4 JL KH ZAINAL ARIFIN,-6.160241,106.818005,BCA
KETAPANG CRM 2 KETAPANG INDAH BLOK A/3-4 JL KH ZAINAL ARIFIN,-6.160241,106.818005,BCA
KETAPANG CRM 3 KETAPANG INDAH BLOK A/3-4 JL KH ZAINAL ARIFIN,-6.160241,106.818005,BCA
KETAPANG CRM 4 KETAPANG INDAH BLOK A/3-4 JL KH ZAINAL ARIFIN,-6.160241,106.818005,BCA
"INDOMARET LETJEN SUPRAPTO 66 JL LETJEN SUPRAPTO NO 65 RT 1/RW 3, TANAH TINGGI, JOHAR BARU JAKA RTA PUSAT",-6.17503,106.8499,BCA
BURSA PONSEL CRM 1 ITC ROXY MAS LT DASAR NO 26 JAKARTA,-6.166734,106.803043,BCA
BURSA PONSEL CRM 2 ITC ROXY MAS LT DASAR NO 26 JAKARTA,-6.166734,106.803043,BCA
BURSA PONSEL CRM 3 ITC ROXY MAS LT DASAR NO 26 JAKARTA,-6.166734,106.803043,BCA
BURSA PONSEL CRM 4 ITC ROXY MAS LT DASAR NO 26 JAKARTA,-6.166734,106.803043,BCA
BURSA PONSEL CRM 5 ITC ROXY MAS LT DASAR NO 26 JAKARTA,-6.166734,106.803043,BCA
BURSA PONSEL CRM 6 ITC ROXY MAS LT DASAR NO 26 JAKARTA,-6.166734,106.803043,BCA
INDOMARET BALADEWA JL BALADEWA NO 394 JOHAR BARU JAKPUS,-6.1769,106.851,BCA
"GEDUNG TOTAL 1 JL LETJEN S PARMAN KAV 106-A, JAKBAR",-6.1765,106.7948,BCA
KEMANGGISAN CRM 1 JL KEMANGGISAN UTAMA RAYA NO 37 JAKARTA,-6.18975,106.79098,BCA
KEMANGGISAN CRM 2 JL KEMANGGISAN UTAMA RAYA NO 37 JAKARTA,-6.18975,106.79098,BCA
KEMANGGISAN CRM 3 JL KEMANGGISAN UTAMA RAYA NO 37 JAKARTA,-6.18975,106.79098,BCA
TELESINDO TOWER JL GAJAH MADA RAYA NO 27A JAKARTA BARAT,-6.16,106.8187,BCA
"ALFAMIDI PALMERAH UTARA CRM JL PALMERAH UTARA III NO 110 RT 09/06, PALMERAH, JAKARTA BARAT",-6.204,106.7933,BCA
"SPBU BENZINE 34-10101 ZAINUL ARIFIN CRM 1 JL.DURI RAYA, JAKARTA BARAT",-6.160582,106.815388,BCA
B FASHION JL ARANDA NO 1 RT 001/01 TANJUNG DUREN JAKARTA BARAT,-6.1823,106.7922,BCA
GRAMEDIA PALMERAH JL. PALMERAH SELATAN NO. 22 - JAKARTA,-6.2067,106.7945,BCA
POLDA METRO JAYA CRM 2 JL JENDERAL SUDIRMAN NO 55 JAKARTA SELATAN,-6.2225,106.8139,BCA
POLDA METRO JAYA CRM 1 JL JENDERAL SUDIRMAN NO 55 JAKARTA SELATAN,-6.2225,106.8139,BCA
EBC METRO PASAR BARU CRM 1 GEDUNG METRO PASAR BARU JL SAMANHUDI JAKPUS,-6.1613,106.8332,BCA
EBC METRO PASAR BARU CRM 2 GEDUNG METRO PASAR BARU JL SAMANHUDI JAKPUS,-6.1613,106.8332,BCA
EBC METRO PASAR BARU CRM 3 GEDUNG METRO PASAR BARU JL SAMANHUDI JAKPUS,-6.1613,106.8332,BCA
EBC METRO PASAR BARU CRM 4 GEDUNG METRO PASAR BARU JL SAMANHUDI JAKPUS,-6.1613,106.8332,BCA
EBC METRO PASAR BARU CRM 5 GEDUNG METRO PASAR BARU JL SAMANHUDI JAKPUS,-6.1613,106.8332,BCA
EBC METRO PASAR BARU CRM 6 GEDUNG METRO PASAR BARU JL SAMANHUDI JAKPUS,-6.1613,106.8332,BCA
"INDOMARET SAHARJO 88 JAKSEL CRM JL DRSAHARJONO88 MENTENGATAS,SETIABUDI JAKSEL",-6.2162,106.8439,BCA
ALFAMIDI MATRAMAN CRM 2 JL MATRAMAN RAYA NO 33 JAKARTA TIMUR,-6.2010032,106.8537922,BCA
AMBASADOR MALL CRM 1 JL. PROF. DR. SATRIO NO.D58 KUNINGAN JAKSEL,-6.22381,106.82715,BCA
AMBASADOR MALL CRM 2 JL. PROF. DR. SATRIO NO.D58 KUNINGAN JAKSEL,-6.22381,106.82715,BCA
AMBASADOR MALL CRM 3 JL. PROF. DR. SATRIO NO.D58 KUNINGAN JAKSEL,-6.22381,106.82715,BCA
AMBASADOR MALL CRM 4 JL. PROF. DR. SATRIO NO.D58 KUNINGAN JAKSEL,-6.22381,106.82715,BCA
INDOMARET SUKARJO JL SUKARJO WIRYOPRA NO 29B JAKARTA BARAT,-6.159449,106.819801,BCA
"INDOMARET MANGGA BESAR IX JAKBAR JL MANGGABESAR IX NO28A TENGKI,TMNSARI,JAKBAR",-6.1606,106.8321,BCA
"EBC LOTTE SHOPPING AVENUE CRM 1 LOTTE SHOPPING AVENUE LT 2, JL PROF DR SATRIO NO 8 JAKARTA",-6.2242,106.8232,BCA
"EBC LOTTE SHOPPING AVENUE CRM 2 LOTTE SHOPPING AVENUE LT 2, JL PROF DR SATRIO NO 8 JAKARTA",-6.2242,106.8232,BCA
"EBC LOTTE SHOPPING AVENUE CRM 3 LOTTE SHOPPING AVENUE LT 2, JL PROF DR SATRIO NO 8 JAKARTA",-6.2242,106.8232,BCA
"EBC LOTTE SHOPPING AVENUE CRM 4 LOTTE SHOPPING AVENUE LT 2, JL PROF DR SATRIO NO 8 JAKARTA",-6.2242,106.8232,BCA
"EBC LOTTE SHOPPING AVENUE CRM 5 LOTTE SHOPPING AVENUE LT 2, JL PROF DR SATRIO NO 8 JAKARTA",-6.2242,106.8232,BCA
"EBC LOTTE SHOPPING AVENUE CRM 6 LOTTE SHOPPING AVENUE LT 2, JL PROF DR SATRIO NO 8 JAKARTA",-6.2242,106.8232,BCA
"EBC LOTTE SHOPPING AVENUE CRM 7 LOTTE SHOPPING AVENUE LT 2, JL PROF DR SATRIO NO 8 JAKARTA",-6.2242,106.8232,BCA
"ALFAMART LONTAR MENTENG ATAS CRM JL LONTAR RAYA NO 7, RT 09/14, MENTENG ATAS, SETIABUDI, JAKARTA SELATAN",-6.218,106.8419,BCA
BANK CCBI KK. KETAPANG JL KH ZAINUL ARIFIN NO 20 TAMANSARI JAKARTA,-6.160182,106.814884,BCA
MENARA RAJAWALI JL. MEGA KUNINGAN LOT #5.1. - JAKARTA,-6.224213,106.825222,BCA
"INDOMARET KRAMAT JAYA BARU 247 CRM JL KRAMAT JAYA BARU BLOK E IX NO 247 RT008/RW010, KEL JOHAR BARU KEC JOHAR, JAKARTA PUSAT",-6.18253,106.85416,BCA
"EBC TAMAN ANGGREK CRM 4 JL LETJEN S PARMAN KAV 21, JAKARTA 11470",-6.180232,106.792164,BCA
"EBC TAMAN ANGGREK CRM 5 JL LETJEN S PARMAN KAV 21, JAKARTA 11470",-6.180232,106.792164,BCA
"EBC TAMAN ANGGREK CRM 6 JL LETJEN S PARMAN KAV 21, JAKARTA 11470",-6.180232,106.792164,BCA
"EBC TAMAN ANGGREK CRM 7 JL LETJEN S PARMAN KAV 21, JAKARTA 11470",-6.180232,106.792164,BCA
"EBC TAMAN ANGGREK CRM 8 JL LETJEN S PARMAN KAV 21, JAKARTA 11470",-6.180232,106.792164,BCA
"EBC TAMAN ANGGREK CRM 9 JL LETJEN S PARMAN KAV 21, JAKARTA 11470",-6.180232,106.792164,BCA
"EBC TAMAN ANGGREK CRM 10 JL LETJEN S PARMAN KAV 21, JAKARTA 11470",-6.180232,106.792164,BCA
"EBC TAMAN ANGGREK CRM 1 JL LETJEN S PARMAN KAV 21, JAKARTA 11470",-6.180232,106.792164,BCA
"EBC TAMAN ANGGREK CRM 2 JL LETJEN S PARMAN KAV 21, JAKARTA 11470",-6.180232,106.792164,BCA
"EBC TAMAN ANGGREK CRM 3 JL LETJEN S PARMAN KAV 21, JAKARTA 11470",-6.180232,106.792164,BCA
INDOMARET PALMERAH BARAT JL. PALMERAH BARAT 38 A - JAKARTA - 12210,-6.2078,106.7943,BCA
EBC KUNINGAN CITY CRM 1 JL PROF SATRIO KAV 18 SETIABUDI JAKSEL,-6.224215,106.82743,BCA
EBC KUNINGAN CITY CRM 2 JL PROF SATRIO KAV 18 SETIABUDI JAKSEL,-6.224215,106.82743,BCA
EBC KUNINGAN CITY CRM 3 JL PROF SATRIO KAV 18 SETIABUDI JAKSEL,-6.224215,106.82743,BCA
EBC KUNINGAN CITY CRM 4 JL PROF SATRIO KAV 18 SETIABUDI JAKSEL,-6.224215,106.82743,BCA
EBC KUNINGAN CITY CRM 5 JL PROF SATRIO KAV 18 SETIABUDI JAKSEL,-6.224215,106.82743,BCA
RDTX TOWER JALAN PROFESSOR DOKTOR SATRIO NO 6 JAKARTA SELATAN,-6.2245851,106.8232494,BCA
KENARI CRM 1 JL KENARI II/8 - JAKARTA - 10430,-6.200429,106.854553,BCA
KENARI CRM 2 JL KENARI II/8 - JAKARTA - 10430,-6.200429,106.854553,BCA
CIKINI GOLD CRM 1 JL PEGANGSAAN TIMUR MENTENG JAKARTA PUSAT,-6.20043,106.854553,BCA
CIKINI GOLD CRM 2 JL PEGANGSAAN TIMUR MENTENG JAKARTA PUSAT,-6.20043,106.854553,BCA
KENARI MAS CRM 1 PLAZA KENARI MAS JL KRAMAT RAYA 101 JAKPUS,-6.20043,106.854553,BCA
MATRAMAN CRM 2 JL MATRAMAN RAYA 14-16 - JAKARTA,-6.20043,106.854553,BCA
MATRAMAN CRM 3 JL MATRAMAN RAYA 14-16 - JAKARTA,-6.20043,106.854553,BCA
MATRAMAN CRM 4 JL MATRAMAN RAYA 14-16 - JAKARTA,-6.20043,106.854553,BCA
MATRAMAN CRM 5 JL MATRAMAN RAYA 14-16 - JAKARTA,-6.20043,106.854553,BCA
MATRAMAN CRM 6 JL MATRAMAN RAYA 14-16 - JAKARTA,-6.20043,106.854553,BCA
MATRAMAN CRM 7 JL MATRAMAN RAYA 14-16 - JAKARTA,-6.20043,106.854553,BCA
MATRAMAN CRM 8 JL MATRAMAN RAYA 14-16 - JAKARTA,-6.20043,106.854553,BCA
MATRAMAN CRM 9 JL MATRAMAN RAYA 14-16 - JAKARTA,-6.20043,106.854553,BCA
"CARREFOUR ITC KUNINGAN JL. PROF. DR. SATRIO, JAKARTA 12940",-6.224524,106.825921,BCA
PASAR SAWAH BESAR 1 JL SAWAH BESAR I/II KEL MAPHAR KEC TAMAN SARI JAKARTA BARAT,-6.1588,106.8207,BCA
"STASIUN KAI MANGGARAI JL MANGGARAI UTARA NO 1, JAKARTA SELATAN",-6.210161,106.850346,BCA
APARTEMEN TAMAN ANGGREK JL LET JEN S PARMAN KAV 21 TOWER  JAKBAR,-6.1792,106.7921,BCA
"GRAHA PARAMITA CRM 1 JL DENPASAR RAYA BLOK D2, KUNINGAN JKT",-6.2238875,106.8310727,BCA
"GRAHA PARAMITA CRM 2 JL DENPASAR RAYA BLOK D2, KUNINGAN JKT",-6.2238875,106.8310727,BCA
LOTTEMART KUNINGAN CITY JL PROF DR SATRIO KAV 18 UNIT LG -1 JAK SEL,-6.2246472,106.8280435,BCA
"MENARA MULIA CRM 1 GED MENARA MULIA, JL GATOT SUBROTO KAV 9-11",-6.224594,106.816808,BCA
"MENARA MULIA CRM 2 GED MENARA MULIA, JL GATOT SUBROTO KAV 9-11",-6.224594,106.816808,BCA
"MENARA MULIA CRM 3 GED MENARA MULIA, JL GATOT SUBROTO KAV 9-11",-6.224594,106.816808,BCA
"MENARA MULIA CRM 4 GED MENARA MULIA, JL GATOT SUBROTO KAV 9-11",-6.224594,106.816808,BCA
AMBASADOR CRM 1 RUKO MALL AMBASADOR NO 18 SETIABUDI JAKSEL,-6.2247056,106.8283663,BCA
AMBASADOR CRM 2 RUKO MALL AMBASADOR NO 18 SETIABUDI JAKSEL,-6.2247056,106.8283663,BCA
AMBASADOR CRM 3 RUKO MALL AMBASADOR NO 18 SETIABUDI JAKSEL,-6.2247056,106.8283663,BCA
AMBASADOR CRM 4 RUKO MALL AMBASADOR NO 18 SETIABUDI JAKSEL,-6.2247056,106.8283663,BCA
AMBASADOR CRM 5 RUKO MALL AMBASADOR NO 18 SETIABUDI JAKSEL,-6.2247056,106.8283663,BCA
AMBASADOR CRM 6 RUKO MALL AMBASADOR NO 18 SETIABUDI JAKSEL,-6.2247056,106.8283663,BCA
AMBASADOR CRM 7 RUKO MALL AMBASADOR NO 18 SETIABUDI JAKSEL,-6.2247056,106.8283663,BCA
AMBASADOR CRM 8 RUKO MALL AMBASADOR NO 18 SETIABUDI JAKSEL,-6.2247056,106.8283663,BCA
AMBASADOR CRM 9 RUKO MALL AMBASADOR NO 18 SETIABUDI JAKSEL,-6.2247056,106.8283663,BCA
AMBASADOR CRM 10 RUKO MALL AMBASADOR NO 18 SETIABUDI JAKSEL,-6.2247056,106.8283663,BCA
AMBASADOR CRM 11 RUKO MALL AMBASADOR NO 18 SETIABUDI JAKSEL,-6.2247056,106.8283663,BCA
"TAMAN ANGGREK 2 JL LETJEN S PARMAN KAV 21, JAKARTA 11470",-6.178476,106.792082,BCA
"JAKMART PASAR ASEM REGES JALAN TAMAN SARI RAYA NO 40, TAMANSARI JAKARTA BARAT",-6.1584,106.8269,BCA
"ROXY SQUARE 2 JL. KYAI TAPA NO. 1, JAKARTA 11440",-6.1666,106.8004,BCA
KREKOT BUNDER CRM 1 JL RAYA KREKOT BUNDER 58 - JAKARTA,-6.159331,106.832051,BCA
KREKOT BUNDER CRM 2 JL RAYA KREKOT BUNDER 58 - JAKARTA,-6.159331,106.832051,BCA
KREKOT BUNDER CRM 3 JL RAYA KREKOT BUNDER 58 - JAKARTA,-6.159331,106.832051,BCA
KREKOT BUNDER CRM 4 JL RAYA KREKOT BUNDER 58 - JAKARTA,-6.159331,106.832051,BCA
INDOMARET PLUS JOHAR BARU II JL PERCETAKAN NEGARA II BLOK B2 3 & 4 NO 9 KEL JOHAR BARU KEC JOHAR BARU JAKARTA PUSAT,-6.1846,106.8557,BCA
"SPBU COCO 34-10702 SAMANHUDI JL. SAMANHUDI NO.43-45, JAKARTA 10710",-6.1603,106.835,BCA
HAYAM WURUK CRM 1 JL HAYAM WURUK 54 - JAKARTA,-6.158148,106.819148,BCA
HAYAM WURUK CRM 2 JL HAYAM WURUK 54 - JAKARTA,-6.158148,106.819148,BCA
KRAMAT JAYA BARU CRM 1 JL PERCETAKAN NEGARA II NO 16 B-C JAK PUS 10560,-6.184875,106.855861,BCA
KRAMAT JAYA BARU CRM 2 JL PERCETAKAN NEGARA II NO 16 B-C JAK PUS 10560,-6.184875,106.855861,BCA
KRAMAT JAYA BARU CRM 3 JL PERCETAKAN NEGARA II NO 16 B-C JAK PUS 10560,-6.184875,106.855861,BCA
KRAMAT JAYA BARU CRM 4 JL PERCETAKAN NEGARA II NO 16 B-C JAK PUS 10560,-6.184875,106.855861,BCA
KRAMAT JAYA BARU CRM 5 JL PERCETAKAN NEGARA II NO 16 B-C JAK PUS 10560,-6.184875,106.855861,BCA
INDOMARET POINT SAMANHUDI JL SAMANHUDI NO 27 PASAR BARU JAKPUS,-6.1602,106.8351,BCA
"ALFAMART PERCETAKAN NEGARA II JL PERCETAKAN NEGARA II NO 5, JOHAR BARU, JAKARTA PUSAT",-6.1879,106.8564,BCA
DURI RAYA CRM 1 JL DURI RAYA NO 37B - JAKARTA,-6.161346,106.807803,BCA
DURI RAYA CRM 2 JL DURI RAYA NO 37B - JAKARTA,-6.161346,106.807803,BCA
ALFAMART KREKOT BUNDER JL. RAYA KREKOT BUNDER  - JAKARTA - 10710,-6.1591,106.832,BCA
"ALFAMART KALIBARU TIMUR V CRM JL RAYA KALIBARU TIMUR 5 NO 7 RT 11/8, BUNGUR, SENEN, JAKPUS",-6.171,106.8497,BCA
INDOMARET KEPU SELATAN JL KEPU SELATAN NO 45 KEMAYORAN JAKARTA PUSAT,-6.168114,106.847224,BCA
INDOMARET KREKOT BUNDER (FC14) JL KREKOT BUNDER NO 68 KEL PASAR BARU KEC SAWAH BESAR JAKARTA PUSAT,-6.1588,106.8315,BCA
INDOMARET PRAMUKA 129 JL PRAMUKA RAYA NO 55/129 KEC SENEN JAKPUS,-6.1972,106.8564,BCA
INDOMARET MOCH MANSYUR 133A JL KH MOCH MANSYUR NO 133A DURI UTARA TAMBORA JAKBAR,-6.160977,106.807976,BCA
"ALFAMIDI JOHAR BARU CRM 1 JL PERCETAKAN NEGARA II RT 01/03, JOHAR BARU, JAKA",-6.1845,106.8562,BCA
"ALFAMIDI JOHAR BARU CRM 2 JL PERCETAKAN NEGARA II RT 01/03, JOHAR BARU, JAKA",-6.1845,106.8562,BCA
TOMANG TOL CRM 1 JL ARJUNA KAV 8 A/1 - JAKARTA,-6.184351,106.789424,BCA
TOMANG TOL CRM 2 JL ARJUNA KAV 8 A/1 - JAKARTA,-6.184351,106.789424,BCA
"INDOMARET PERCETAKAN NEGARA J15 JL PERCETAKAN NEGARA II BLOK J NO 15, JOHAR BARU, JAKARTA PUSAT",-6.1831,106.8559,BCA
"KH MANSYUR II, JKT CRM 1 JL KH MANSYUR 69, JAKARTA",-6.166644,106.7993819,BCA
"KH MANSYUR II, JKT CRM 2 JL KH MANSYUR 69, JAKARTA",-6.166644,106.7993819,BCA
"KH MANSYUR II, JKT CRM 3 JL KH MANSYUR 69, JAKARTA",-6.166644,106.7993819,BCA
"KH MANSYUR II, JKT CRM 4 JL KH MANSYUR 69, JAKARTA",-6.166644,106.7993819,BCA
"KH MANSYUR I, JKT CRM 1 JL KHM MANYUR 246 A & B - JAKARTA",-6.166488,106.799377,BCA
"KH MANSYUR I, JKT CRM 2 JL KHM MANYUR 246 A & B - JAKARTA",-6.166488,106.799377,BCA
"KH MANSYUR I, JKT CRM 3 JL KHM MANYUR 246 A & B - JAKARTA",-6.166488,106.799377,BCA
"KH MANSYUR I, JKT CRM 4 JL KHM MANYUR 246 A & B - JAKARTA",-6.166488,106.799377,BCA
"KH MANSYUR I, JKT CRM 5 JL KHM MANYUR 246 A & B - JAKARTA",-6.166488,106.799377,BCA
"GARUDA INDONESIA GUNUNG SAHARI 1 JL GUNUNG SAHARI RAYA NO 52, JAKARTA PUSAT",-6.1603,106.8369,BCA
"ALFAMIDI LAUTZE JL. RAYA LAUTZE, PASAR BARU, JAKARTA PUSAT",-6.1583,106.8324,BCA
INDOMARET TOMANG TINGGI JL TOMANGTINGGI RY NO1 GROGOL PETAMBRNJAKBAR,-6.1725,106.7938,BCA
INDOMARET TOMANG TINGGI 2 JL TOMANGTINGGI RY NO1 GROGOL PETAMBRNJAKBAR,-6.1725,106.7938,BCA
ALFAMART PALMERAH BARAT II CRM 1 JL PALMERAH BARAT NO 52A RT 03/08 KEL PALMERAH KEC PALMERAH JAKARTA BARAT,-6.2077,106.7919,BCA
ALFAMART LAUTZE JL LAUTZE NO 64A RT 01/05 KEL PASAR BARU KEC SAWAH BESAR JAKARTA PUSAT,-6.1583,106.8327,BCA
"NOBLE HOUSE 1 JL DR IDE ANAK AGUNG GDE AGUNG KAV E.4.2 NO 2, KUNINGAN TIMUR, SETIABUDI, JAKSEL",-6.2266,106.8245,BCA
INDOMARET CENTRAL PARK 1 JL TANJUNG DUREN RAYA KAV 5-9 JAKBAR,-6.179379,106.790124,BCA
BUNGUR CRM 1 JL BUNGUR BESAR RAYA 32 & 32A - JAKARTA,-6.160921,106.839413,BCA
BUNGUR CRM 2 JL BUNGUR BESAR RAYA 32 & 32A - JAKARTA,-6.160921,106.839413,BCA
BUNGUR CRM 3 JL BUNGUR BESAR RAYA 32 & 32A - JAKARTA,-6.160921,106.839413,BCA
BUNGUR CRM 4 JL BUNGUR BESAR RAYA 32 & 32A - JAKARTA,-6.160921,106.839413,BCA
BUNGUR CRM 5 JL BUNGUR BESAR RAYA 32 & 32A - JAKARTA,-6.160921,106.839413,BCA
"BPJS KETENAGAKERJAAN 1 GEDUNG BPJS KETENAGAKERJAAN, JL JENDERAL GATOT SUBROTO KAV 79 JAKSEL",-6.2264,106.818,BCA
TAMAN SARI CRM 1 JL TAMAN SARI 47-47A - JAKARTA,-6.15695034,106.8270699,BCA
TAMAN SARI CRM 2 JL TAMAN SARI 47-47A - JAKARTA,-6.15695034,106.8270699,BCA
TAMAN SARI CRM 3 JL TAMAN SARI 47-47A - JAKARTA,-6.15695034,106.8270699,BCA
TAMAN SARI CRM 4 JL TAMAN SARI 47-47A - JAKARTA,-6.15695034,106.8270699,BCA
TAMAN SARI CRM 5 JL TAMAN SARI 47-47A - JAKARTA,-6.15695034,106.8270699,BCA
"INDOMARET GARUDA 20 ( TRLO ) JAKARTA PUSAT JL GARUDA NO 20 RT01/02, KEMAYORAN, JAKARTA PUSAT",-6.1626,106.8423,BCA
"GEDUNG TOTO JL S PARMAN KAV 81, JAK BAR",-6.188598,106.787861,BCA
HOTEL MULIA SENAYAN 1 JL ASIA AFRIKA JAKARTA,-6.2145,106.79606,BCA
"ALFAMIDI GURU MUGHNI CRM 1 JL GURU MUGHNI NO C4 KARET SEMANGGI, SETIABUDI",-6.22686,106.82173,BCA
ALFAMART GAJAH MADA II JL GAJAH MADA NO 67-68 JAKARTA BARAT,-6.156785,106.818622,BCA
PASAR  PRAMUKA 1 JL PRAMUKA RAYA KEL PAL MERIAM KEC MATRAMAN JAKARTA TIMUR,-6.1975,106.8575,BCA
PASAR  PRAMUKA 2 JL PRAMUKA RAYA KEL PAL MERIAM KEC MATRAMAN JAKARTA TIMUR,-6.1975,106.8575,BCA
"ALFAMIDI KEMANGGISAN CRM JL KEMANGGISAN UTAMA RAYA NO 7 RT 002/07, KEMANGGISAN, PALMERAH, JAKBAR",-6.1893,106.7877,BCA
INDOMARET GURU MUGHNI CRM JL. GURU MUGHNI NO.C4 - JAKARTA SELATAN,-6.2269,106.821552,BCA
GEDUNG ARTHA GRAHA JL JEND SUDIRMAN KAV52-53 SCBD LOT22 JAKSEL,-6.22502,106.81135,BCA
BURSA EFEK JKT CRM 1 JL JEND SUDIRMAN KAV 52-53 - JAKARTA,-6.224204704,106.8087067,BCA
BURSA EFEK JKT CRM 2 JL JEND SUDIRMAN KAV 52-53 - JAKARTA,-6.224204704,106.8087067,BCA
BURSA EFEK JKT CRM 3 JL JEND SUDIRMAN KAV 52-53 - JAKARTA,-6.224204704,106.8087067,BCA
BURSA EFEK JKT CRM 4 JL JEND SUDIRMAN KAV 52-53 - JAKARTA,-6.224204704,106.8087067,BCA
BURSA EFEK JKT CRM 5 JL JEND SUDIRMAN KAV 52-53 - JAKARTA,-6.224204704,106.8087067,BCA
"CARREFOUR CENTRAL PARK JL. S. PARMAN KOMP. PODOMORO, JAKARTA BARAT",-6.178511,106.789845,BCA
"UNIVERSITAS TRISAKTI KAMPUS B JL. KYAI TAPA, GROGOL, JAKARTA BARAT 11440",-6.1671,106.7972,BCA
LAWSON PERCETAKAN NEGARA JL PERCETAKAN NEGARA NO 76 JAKARTA PUSAT,-6.1901,106.8584,BCA
TAMAN PERMATA INDAH II CRM 4 JL KAMPUNG GUSTI RAYA TAMAN PERMATA INDAH II,-6.1417883,106.7919991,BCA
TAMAN PERMATA INDAH II CRM 5 JL KAMPUNG GUSTI RAYA TAMAN PERMATA INDAH II,-6.1417883,106.7919991,BCA
ALFAMART DANAU SUNTER III JL DANAU AGUNG JAYA 2 BLOK D1-A NO 8 JAKUT,-6.1461,106.8597,BCA
INDOMARET POINT FATAHILLAH JL TAMAN FATAHILLAH NO 19 PINANGSIA JAKBAR,-6.1341,106.8116,BCA
"ALFAMIDI TEBET TIMUR DALAM II CRM 1 JL TEBET TIMUR DALAM 135 RT 014/009, TEBET TIMUR, TEBET, JAKSEL",-6.2403,106.8557,BCA
INDOMARET KOPI DALAM JAKBAR CRM 1 JL KOPI NO2 RT06RW02 ROAMALAKA TAMBORA JAKBAR,-6.1343,106.8103,BCA
GEDONG PANJANG CRM 1 JL GEDONG PANJANG NO B4-B5 RT 001 RW 010 JAKARTA,-6.1353145,106.8063126,BCA
GEDONG PANJANG CRM 2 JL GEDONG PANJANG NO B4-B5 RT 001 RW 010 JAKARTA,-6.1353145,106.8063126,BCA
GEDONG PANJANG CRM 3 JL GEDONG PANJANG NO B4-B5 RT 001 RW 010 JAKARTA,-6.1353145,106.8063126,BCA
RS TEBET JL MT HARYONO KAV 13 JAKARTA,-6.2436,106.8504,BCA
"PASAR PADEMANGAN BARAT 1 JL WASPADA RAYA NO 1 RT 9/RW 10, PADEMANGAN BARAT JAKARTA UTARA",-6.1355,106.8401,BCA
ERAJAYA PLAZA JL BANDENGAN SELATAN NO 20 JAKARTA BARAT,-6.136,106.8039,BCA
APARTEMEN TANJUNG DUREN II KENANGA CRM 1 JL TANJUNG DUREN RAYA KAV 5-9 JAKARTA BARAT,-6.136,106.8039,BCA
APARTEMEN TANJUNG DUREN II JASMIN CRM 1 JL TANJUNG DUREN RAYA KAV 5-9 JAKARTA BARAT,-6.136,106.8039,BCA
ALFAMART KELAPA DUA KEBON JERUK 2 JL KELAPA DUA NO 3 JAKARTA BARAT,-6.2168,106.7696,BCA
ALFAMART KELAPA DUA KBN JERUK JL KELAPA DUA NO 3 JAKARTA BARAT,-6.2168,106.7696,BCA
SUNTER DANAU CRM 1 JL DANAU AGUNG 2 BLOK E2 NO 1A SUNTER PODOMORO,-6.145858,106.859697,BCA
SUNTER DANAU CRM 2 JL DANAU AGUNG 2 BLOK E2 NO 1A SUNTER PODOMORO,-6.145858,106.859697,BCA
SUNTER DANAU CRM 3 JL DANAU AGUNG 2 BLOK E2 NO 1A SUNTER PODOMORO,-6.145858,106.859697,BCA
SUNTER DANAU CRM 4 JL DANAU AGUNG 2 BLOK E2 NO 1A SUNTER PODOMORO,-6.145858,106.859697,BCA
SUNTER DANAU CRM 5 JL DANAU AGUNG 2 BLOK E2 NO 1A SUNTER PODOMORO,-6.145858,106.859697,BCA
ALFAMART PANJANG CIDODOL 2 JL PANJANG NO 6 JAKARTA BARAT,-6.2209,106.7717,BCA
ALFAMART PANJANG CIDODOL JL PANJANG NO 6 JAKARTA BARAT,-6.2209,106.7717,BCA
"INDOMARET PLUS RATU KEMUNING JAKARTA BARAT JL RATU KEMUNING NO 3, KEDOYA UTARA, KEBON JERUK, JAKARTA BARAT",-6.1697,106.7682,BCA
"RS GRAHA MEDIKA JL RAYA PERJUANGAN, KEBON JERUK, JAKARTA",-6.190285,106.763942,BCA
FOOD CENTRUM KOMPLEK RUKAN PURI MUTIARA BLOK BA-BB-BC JL GRIYA UTAMA SUNTER JAKARTA UTARA,-6.1417,106.854,BCA
INDOMARET HAJI TEN JL HAJI TEN RAYA NO 2 RT 006 RW 003 RAWAMANGUN PULO GADUNG JAKARTA TIMUR,-6.1889,106.8817,BCA
INDOMARET HAJI TEN 2 JL HAJI TEN RAYA NO 2 RT 006 RW 003 RAWAMANGUN PUL,-6.1889,106.8817,BCA
SPBU COCO 31.133.01 OTISTA JAKARTA JL OTISTA RAYA NO 69/71 JAKARTA TIMUR,-6.230877,106.866918,BCA
"MAYESTIK CRM 1 JL KIAI MAJA 77, KEBAYORAN BARU - JAKARTA",-6.241661,106.791324,BCA
"MAYESTIK CRM 2 JL KIAI MAJA 77, KEBAYORAN BARU - JAKARTA",-6.241661,106.791324,BCA
"MAYESTIK CRM 3 JL KIAI MAJA 77, KEBAYORAN BARU - JAKARTA",-6.241661,106.791324,BCA
"MAYESTIK CRM 4 JL KIAI MAJA 77, KEBAYORAN BARU - JAKARTA",-6.241661,106.791324,BCA
PASAR MAYESTIK CRM 1 JL TEBAH RAYA I LANTAI 2 NO 9 DAN 10 JAKSEL,-6.241661,106.791324,BCA
PASAR MAYESTIK CRM 2 JL TEBAH RAYA I LANTAI 2 NO 9 DAN 10 JAKSEL,-6.241661,106.791324,BCA
HOTEL 1001 JL KUNIR NO 7  KEL PINANGSIA KEC TAMAN SARI JAK BAR,-6.1332,106.814,BCA
APARTEMEN THE PAKUBUWONO SIGNATURE JL PAKUBUWONO VI NO 70 GUNUNG KEB BARU JAKARTA SELATAN,-6.238429,106.786479,BCA
"ALFAMART PONDOK JAYA VI JL PONDOK JAYA VI NO 31 RT 006/06, PELA MAMPANG, MAMPANG PRAPATAN, JAKSEL",-6.2509,106.8217,BCA
"ALFAMART SUDIRMAN GARUT JL SUDIRMAN GARUT NO 24, KOTA WETAN, KAB GARUT",-6.2429871,106.8525139,BCA
"ALFAMART CISANCA SAMARANG GARUT JL RAYA SAMARANG NO 207, GARUT",-6.2429871,106.8525139,BCA
INDOMARET BAYONGBONG GARUT JL RAYA BAYONGBONG GARUT,-6.2429871,106.8525139,BCA
GRIYA UTAMA CRM 1 KOMPLEK PERKANTORAN PURI MUTIARA BLOK BD NO 1 & 2 SUNTER JAKARTA UTARA,-6.1417209,106.8547755,BCA
GRIYA UTAMA CRM 2 KOMPLEK PERKANTORAN PURI MUTIARA BLOK BD NO 1 & 2 SUNTER JAKARTA UTARA,-6.1417209,106.8547755,BCA
GRIYA UTAMA CRM 3 KOMPLEK PERKANTORAN PURI MUTIARA BLOK BD NO 1 & 2 SUNTER JAKARTA UTARA,-6.1417209,106.8547755,BCA
GRIYA UTAMA CRM 4 KOMPLEK PERKANTORAN PURI MUTIARA BLOK BD NO 1 & 2 SUNTER JAKARTA UTARA,-6.1417209,106.8547755,BCA
"ALFAMART OTISTA RAYA III JL OTTO ISKANDARDINATA NO 151, JATINEGARA",-6.2116,106.8787,BCA
"ALFAMART PERJUANGAN KEBON JERUK JL PERJUANGAN NO 12, KEDOYA UTARA, KEBON JERUK, JAKARTA BARAT",-6.195,106.7635,BCA
INDOMARET DELTAMAS JL BANDENGAN SELATAN NO 43 RT 01 RW 02 PEJAGALAN PENJARINGAN JAKARTA UTARA,-6.1368,106.8,BCA
ALFAMIDI PANGLIMA POLIM CRM 1 JL. PANGLIMA POLIM 9 NO.20 JAKARTA SELATAN,-6.24571,106.797874,BCA
ALFAMIDI PANGLIMA POLIM CRM 2 JL. PANGLIMA POLIM 9 NO.20 JAKARTA SELATAN,-6.24571,106.797874,BCA
"INDOMARET PLUS TAMAN KEDOYA PT ANEKA ELOK BLK I NO 11&12 KEDOYA SELATAN, KEBON JERUK, JAKARTA BARAT",-6.1895,106.7634,BCA
SPBU 34-13209 PEMUDA JL PEMUDA NO 40-41 RAWAMANGUN JAKTIM,-6.1922,106.8823,BCA
"D""COST SUNTER 1 JL DANAU SUNTER BARAT BLOK A3 NO 2, JAKARTA UTARA",-6.1433,106.8575,BCA
GEDUNG GOZCO 1 JALAN RAYA PASAR MINGGU KAV 32 PANCORAN - JAKARTA SELATAN,-6.2478,106.8429,BCA
"GRAHA KAS KEBAYORAN 1 JL KEBAYORAN BARU KOMPLEKS RUKO PERKANTORAN KEBAYORAN BARU MALL NO 88, KELURAHAN GUNUNG, KECAMATAN KEBAYORAN BARU, JAKARTA SELATAN",-6.2384,106.7858,BCA
ALFAMART AMPERA RAYA III JL BUDI MULIA NO 8 B-C JAKARTA UTARA,-6.134014,106.837705,BCA
ALFAMART AMPERA RAYA III 2 JL BUDI MULIA NO 8 B-C JAKARTA UTARA,-6.134014,106.837705,BCA
"ALFAMART ASEM BARIS III JL ASEM BARIS NO 146, RT11/12, KEBON BARU, TEBET, JAKARTA SELATAN",-6.2381,106.8602,BCA
PURI DELTA MAS CRM 1 RUKO PURI DELTA MAS BLOK J-5 JL BANDENGAN SEL,-6.13694,106.799283,BCA
PURI DELTA MAS CRM 2 RUKO PURI DELTA MAS BLOK J-5 JL BANDENGAN SEL,-6.13694,106.799283,BCA
"INDOMARET JELAMBAR CRM JL JELAMBAR BARAT II NO 2 , JELAMBAR BARU, JAKARTA BARAT",-6.145782,106.784772,BCA
"INDOMARET GRIYA SUNTER A25-26 1 JL GRIYA SUNTER A NO 25-26, SUNTER AGUNG, TANJUNG PRIOK",-6.1411,106.8544,BCA
"ALFAMIDI BACANG RAYA (AHMAD DAHLAN) JL BACANG NO 1 RT 1/1, KRAMAT PELA, KEBAYORAN BARU, JAKSEL",-6.2426,106.7916,BCA
"SUPERINDO SUNRISE JL. ARTERI KEDOYA BLOK XX NO. 6, JAKARTA",-6.1743,106.7657,BCA
"CARREFOUR EXPRESS MERUYA JL. MERUYA ILIR NO. 29, JAKARTA",-6.1743,106.7657,BCA
"ALFAMIDI RATU KEMUNING JL SURYA WIJAYA NO 32 A-B, RT15/17, KEDOYA UTARA, KEBON JERUK, JAKARTA BARAT",-6.1702,106.7671,BCA
"ALFAMART PANCORAN BARAT JL PANCORAN BARAT VII NO 22 PANCORAN, JAKSEL",-6.24993,106.83635,BCA
ALFAMART JELAMBAR BARAT JL JELAMBAR BARAT III NO 5 & 5A JAKARTA BARAT,-6.14555,106.784783,BCA
"INDOMARET GRIYA SUNTER A25-26 2 JL GRIYA SUNTER A NO 25-26, SUNTER AGUNG, TANJUNG PRIOK",-6.1405,106.8537,BCA
"ALFAMIDI PERJUANGAN CRM 1 JL PERJUANGAN RT 9/10, KEBON JERUK, KEBON JERUK JA",-6.193761,106.762972,BCA
BANK CCBI KK SUNTER RUKO PURI MUTIARA SUNTER JL GRIYA UTAMA JKT,-6.1426,106.8571,BCA
"INDOMARET TAMAN RATU 22 1 JL TAMAN RATU INDAH BLOK D1/22 RT6/8, DURI KEPA,KEBON JERUK, JAKARTA BARAT",-6.1686978,106.767487,BCA
"INDOMARET DANAU AGUNG SUNTER JL DANAU AGUNG BLOK D NO 24, SUNTER AGUNG JAKARTA UTARA",-6.1453,106.8608,BCA
"BLOK M CRM 1 JL MELAWAI RAYA NO 165 BLOK C 1-3, JAKSEL",-6.245919,106.796992,BCA
"BLOK M CRM 2 JL MELAWAI RAYA NO 165 BLOK C 1-3, JAKSEL",-6.245919,106.796992,BCA
"BLOK M CRM 3 JL MELAWAI RAYA NO 165 BLOK C 1-3, JAKSEL",-6.245919,106.796992,BCA
"BLOK M CRM 4 JL MELAWAI RAYA NO 165 BLOK C 1-3, JAKSEL",-6.245919,106.796992,BCA
"BLOK M CRM 5 JL MELAWAI RAYA NO 165 BLOK C 1-3, JAKSEL",-6.245919,106.796992,BCA
"BLOK M CRM 6 JL MELAWAI RAYA NO 165 BLOK C 1-3, JAKSEL",-6.245919,106.796992,BCA
"BLOK M CRM 7 JL MELAWAI RAYA NO 165 BLOK C 1-3, JAKSEL",-6.245919,106.796992,BCA
"BLOK M CRM 8 JL MELAWAI RAYA NO 165 BLOK C 1-3, JAKSEL",-6.245919,106.796992,BCA
"BLOK M CRM 9 JL MELAWAI RAYA NO 165 BLOK C 1-3, JAKSEL",-6.245919,106.796992,BCA
"INDOMARET KEBAYORAN LAMA III JAKARTA BARAT JL KEBAYORAN LAM ( EX MM CANDI) RT11/01 NO 227, JAKARTA BARAT",-6.234,106.7802,BCA
"SPBU 34-14305 SUNTER CRM 1 JL SUNTER KEMAYORAN NO 45 RT001/RW009 SUNTER JAYA, TANJUNG PRIOK JAKARTA",-6.162123,106.875095,BCA
INDOMARET ARWANA 2 JL ARWANA 5 NO 1 JAKARTA UTARA,-6.137072,106.797623,BCA
INDOMARET ARWANA JL ARWANA 5 NO 1 JAKARTA UTARA,-6.137072,106.797623,BCA
"KEBAYORAN BARU CRM 1 JL MELAWAI RY BLOK B III RT 007/ RW 005, KEBAYORAN BARU",-6.245924,106.796635,BCA
"KEBAYORAN BARU CRM 2 JL MELAWAI RY BLOK B III RT 007/ RW 005, KEBAYORAN BARU",-6.245924,106.796635,BCA
"KEBAYORAN BARU CRM 3 JL MELAWAI RY BLOK B III RT 007/ RW 005, KEBAYORAN BARU",-6.245924,106.796635,BCA
ALFAMART PANJANG CIDODOL X CRM JL PANJANG NO 10 KEL SUKABUMI SELATAN KEC KEBON JERUK JAKARTA BAR AT,-6.2255,106.773,BCA
"INDOMARET PENDAWA CRM JL BEKASI TIMUR VI NO 4 RT9/RW9, CIPINANG BESAR UTARA, JATINEGARA JAKARTA TIMUR",-6.2193,106.87631,BCA
"ALFAMART PERJUANGAN KEBON JERUK II JL PERJUANGAN NO 31, RT07/07, KEBON JERUK, JAKARTA BARAT",-6.1923,106.7626,BCA
CENGKEH CRM 1 JL CENGKEH NO 21-21 A JAKARTA BARAT,-6.132281,106.812373,BCA
CENGKEH CRM 2 JL CENGKEH NO 21-21 A JAKARTA BARAT,-6.132281,106.812373,BCA
CENGKEH CRM 3 JL CENGKEH NO 21-21 A JAKARTA BARAT,-6.132281,106.812373,BCA
CENGKEH CRM 4 JL CENGKEH NO 21-21 A JAKARTA BARAT,-6.132281,106.812373,BCA
"CIRCLE K GANDARIA I JL GANDARIA TENGAH II, KEBAYORAN BARU, JAKSEL",-6.243573,106.791794,BCA
"INDOMARET KEDOYA DURI JL KEDOYA AZALEA XII BLOK A2 NO12, RT1/RW4, KEDOYA SEL, KB. JERUK, JAKBAR",-6.1818,106.7631,BCA
"LODAN CENTER CRM 1 RUKO LODAN CENTER ANCOL, BLOK O NO 6-7, JAKUT",-6.131194,106.818996,BCA
"LODAN CENTER CRM 2 RUKO LODAN CENTER ANCOL, BLOK O NO 6-7, JAKUT",-6.131194,106.818996,BCA
CARREFOUR CEMPAKA MAS JL LETJENDSUPRAPTORY KOMP NIAGACMPKAMASJKT,-6.164487,106.877069,BCA
ALFAMART BENTENGAN II 2 JL BENTENGAN 2 JAKARTA UTARA,-6.1503,106.8673,BCA
ALFAMART BENTENGAN II JL BENTENGAN 2 JAKARTA UTARA,-6.1502943,106.8673157,BCA
ALFAMART M SAARI SUNTER JL M SAARI NO 17 RT 04/09 SUNTER JAYA JAKUT,-6.161,106.8754,BCA
"BUSINESS PARK CRM 1 RUKAN BUSINESS PARK, JL MERUYA ILIR NO 88 JKT",-6.198311,106.762251,BCA
"BUSINESS PARK CRM 2 RUKAN BUSINESS PARK, JL MERUYA ILIR NO 88 JKT",-6.198311,106.762251,BCA
"BUSINESS PARK CRM 3 RUKAN BUSINESS PARK, JL MERUYA ILIR NO 88 JKT",-6.198311,106.762251,BCA
ALFAMART GADING RAYA JL GADING RAYA NO 4 JAKARTA TIMUR,-6.207532,106.881639,BCA
ALFAMART PAUS RAWAMANGUN JL PAUS RAWAMANGUN NO 10C KEL RAWAMANGUN KEC PULO GADUNG JAKARTA TIMUR,-6.211081,106.880656,BCA
"ALFAMART RICH PALACE MERUYA ILIR RUKO RICH PALACE BELMOND, SRENGSENG, KEMBANGAN, JAKARTA BARAT",-6.1995,106.7622,BCA
RS JAKARTA EYE CENTER KEDOYA JL ARJUNA UTARA NO 1 JAKARTA BARAT,-6.1895,106.7617,BCA
APOTIK RINI BALAI PUSTAKA JL. BALAI PUSTAKA TIMUR II JAKARTA 13220,-6.199963,106.8834677,BCA
"ALFAMART BANDENGAN UTARA GG LANGGAR 45 RT05/12, PEKOJAN, TAMBORA, JAKARTA BARAT",-6.1336,106.8033,BCA
"PEJAGALAN CRM 1 JL PEJAGALAN I NO 3 RT 010/ RW 04, PEKOJAN, TAMBORA, JAKARTA BARAT",-6.13233,106.807584,BCA
"PEJAGALAN CRM 2 JL PEJAGALAN I NO 3 RT 010/ RW 04, PEKOJAN, TAMBORA, JAKARTA BARAT",-6.13233,106.807584,BCA
"INDOMARET KAYU JATI VIII CRM JL KAYU JATI RAYA, RAWAMANGUN, JAKARTA TIMUR",-6.1914,106.8841,BCA
JEMBATAN DUA CRM 1 JL JEMBATAN DUA 82 BB-BC JAKARTA UTARA,-6.13782,106.793331,BCA
JEMBATAN DUA CRM 2 JL JEMBATAN DUA 82 BB-BC JAKARTA UTARA,-6.13782,106.793331,BCA
JEMBATAN DUA CRM 3 JL JEMBATAN DUA 82 BB-BC JAKARTA UTARA,-6.13782,106.793331,BCA
JEMBATAN DUA CRM 4 JL JEMBATAN DUA 82 BB-BC JAKARTA UTARA,-6.13782,106.793331,BCA
"BUNDA MULIA LODAN JL. LODAN, ANCOL",-6.1304,106.8187,BCA
PASAR KABAYORAN LAMA CRM 1 JL KEBAYORAN LAMA 174 JAKARTA SELATAN,-6.2361284,106.7803662,BCA
PASAR KABAYORAN LAMA CRM 2 JL KEBAYORAN LAMA 174 JAKARTA SELATAN,-6.2361284,106.7803662,BCA
PASAR KABAYORAN LAMA CRM 3 JL KEBAYORAN LAMA 174 JAKARTA SELATAN,-6.2361284,106.7803662,BCA
PASAR KABAYORAN LAMA CRM 4 JL KEBAYORAN LAMA 174 JAKARTA SELATAN,-6.2361284,106.7803662,BCA
PASAR KABAYORAN LAMA CRM 5 JL KEBAYORAN LAMA 174 JAKARTA SELATAN,-6.2361284,106.7803662,BCA
HOTEL LEISURE INN ARION LAND CRM 1 JL PEMUDA KAV 17 RT2/RW7 RAWAMANGUN JAKARTA TIMUR,-6.1936629,106.8842371,BCA
CIRCLE K KAYU JATI JL. KAYU JATI RAYA NO. 14. RAWAMANGUN,-6.1904,106.8843,BCA
OTISTA CRM 1 JL OTTO ISKANDAR DINATA NO 109 JAKARTA TIMUR,-6.2339322,106.8676152,BCA
OTISTA CRM 2 JL OTTO ISKANDAR DINATA NO 109 JAKARTA TIMUR,-6.2339322,106.8676152,BCA
OTISTA CRM 3 JL OTTO ISKANDAR DINATA NO 109 JAKARTA TIMUR,-6.2339322,106.8676152,BCA
OTISTA CRM 4 JL OTTO ISKANDAR DINATA NO 109 JAKARTA TIMUR,-6.2339322,106.8676152,BCA
OTISTA CRM 5 JL OTTO ISKANDAR DINATA NO 109 JAKARTA TIMUR,-6.2339322,106.8676152,BCA
TIANG BENDERA CRM 3 JL TIANG BENDERA V NO 42 L-M TAMBORA JAKBAR,-6.132102,106.80709,BCA
TIANG BENDERA CRM 1 JL TIANG BENDERA V NO 42 L-M TAMBORA JAKBAR,-6.132102,106.80709,BCA
TIANG BENDERA CRM 2 JL TIANG BENDERA V NO 42 L-M TAMBORA JAKBAR,-6.132102,106.80709,BCA
INDOMARET PONDASI JL PONDASI RAYA BLOK M KAV NO 368 KAYU PUTIH PULO GADUNG JAKARTA TIMUR,-6.1846,106.884,BCA
LAWSON BUNDA MULIA JL LODAN RAYA NO 2 KEL ANCOL JAKARTA UTARA,-6.130184,106.818098,BCA
PASAR KABAYORAN LAMA CRM 6 JL KEBAYORAN LAMA 174 JAKARTA SELATAN,-6.2306963,106.7749378,BCA
RSB GRAHA KEDOYA JL. PANJANG NO. 26 ARTERI KEDOYA,-6.169096,106.765373,BCA
"SOHO MARKET RAWAMANGUN JL SUNAN DRAJAT NO 21, RAWAMANGUN, JAKARTA TIMUR",-6.1956684,106.8844333,BCA
"ALFAMART PADEMANGAN VI JL PADEMANGAN VI RAYA RT 015 / RW 001, JAKUT",-6.13356,106.843848,BCA
"ALFAMART KRAMAT ASEM II JL KRAMAT ASEM, UTAN KAYU SELATAN, MATRAMAN",-6.2318,106.87,BCA
ALFAMART OTISTA 3 - II JAKTIM JL OTISA III NO 27 RT 02/07 CIPINANG CEMPEDAK JATINEGARA JAKTIM,-6.2318,106.87,BCA
"ALFAMART ASEM BARIS II JL ASEM BARIS NO 12, RT06/14, KEBON BARU, TEBET, JAKARTA SELATAN",-6.241,106.8604,BCA
ANCOL I CRM 1 JL PARANG TRITIS BLOK A VI NO3B-3C - JAKARTA,-6.129692,106.821597,BCA
ANCOL I CRM 2 JL PARANG TRITIS BLOK A VI NO3B-3C - JAKARTA,-6.129692,106.821597,BCA
ANCOL I CRM 3 JL PARANG TRITIS BLOK A VI NO3B-3C - JAKARTA,-6.129692,106.821597,BCA
INDOMARET SUNRISE GARDEN ( T3L4 ) JAKBAR KOMP SUNRISE GARDEN BLK A IV NO 11 JAKBAR,-6.1692,106.7649,BCA
ALFAMART J553 PULO MAS JL PULO MAS BARAT VI NO 81 RT 012/011 JAKTIM,-6.1805,106.8839,BCA
"INDOMARET KEBON MANGGA JAKSEL JL KEBON MANGGA 1, CIPULIR, KEB LAMA, JAKSEL",-6.2344,106.7775,BCA
"RS OMNI MEDICAL CENTER JL. PULOMAS BARAT VI NO. 20, JAKARTA 13210",-6.1803,106.8841,BCA
INDOMARET KH AHMAD DAHLAN CRM 1 JL KH ACHMAD DAHLAN KRAMAT PELA BARU JAKSEL,-6.245942,106.791924,BCA
INDOMARET KH AHMAD DAHLAN CRM 2 JL KH ACHMAD DAHLAN KRAMAT PELA BARU JAKSEL,-6.245942,106.791924,BCA
"ALFAMIDI DUREN TIGA RAYA JL DUREN TIGA RAYA NO 38 B, DUREN TIGA, PANCORAN, JAKSEL",-6.254,106.8284,BCA
PASAR KEBAYORAN LAMA 1 JL RAYA KEBAYORAN LAMA KEL GROGOL UTARA KEC KEBAYORAN LAMA JAKARTA SELATAN,-6.2373,106.78,BCA
"INDOMARET SUNTER HIJAU 2 JL SUNTER HIJAU BLOKT 1 NO 4 SUNTER JAYA, JAKARTA UTARA",-6.15672,106.874678,BCA
"INDOMARET SUNTER HIJAU JL SUNTER HIJAU BLOKT 1 NO 4 SUNTER JAYA, JAKARTA UTARA",-6.15672,106.874678,BCA
INDOMARET DANAU AGUNG 10 DANAU AGUNG 2 NO 50 BLOK E-10 KAV NO 1 KEL SUNTER AGUNG KEC TANJUNG PRIOK JAKARTA UTARA,-6.1445,106.8639,BCA
"SUPERINDO KELAPA DUA 1 JL. VILA KELAPA DUA, JOGLO, JAKARTA",-6.2168,106.7654,BCA
"SUPERINDO KELAPA DUA 2 JL. VILA KELAPA DUA, JOGLO, JAKARTA",-6.216517,106.76527,BCA
"INDOMARET KEMANG UTARA IX JAKSEL JL KEMANG UTARA IX RT4RW1 DURENTIGA, PANCORAN, JAKSEL",-6.2543,106.827,BCA
SUPERINDO DUREN TIGA JL PASAR MINGGU PANCORAN JAKARTA SELATAN,-6.251275,106.842719,BCA
"ILP PASAR MINGGU JL.RAYA PASAR MINGGU NO. 39A, JAKARTA 12780",-6.251285,106.842763,BCA
"TAMAN IMPIAN JAYA ANCOL CRM 1 JL LODAN RAYA, ANCOL, PADEMANGAN",-6.1294097,106.8310439,BCA
ALFAMART LAPANGAN BOLA JL LAPANGAN BOLA NO 56 RT 01/01 KEL SRENGSENG KEC KEMBANGAN JAKARTA BARAT,-6.2004,106.7606,BCA
"ALFAMART JELAMBAR FAJAR 2 JL FAJAR NO 79, KEC PENJARINGAN, JAKUT",-6.143561,106.782372,BCA
"ALFAMART JELAMBAR FAJAR JL FAJAR NO. 79, KEC PENJARINGAN, JAKUT",-6.143561,106.782372,BCA
APARTEMEN MEDITERANIA MARINA RESIDENCE JL. LODAN RAYA 2 JAKARTA,-6.1291,106.829,BCA
INDOMARET PADEMANGAN TIMUR JL. RAYA PADEMANGAN IV NO. 69 - JAKARTA,-6.132767,106.844801,BCA
"INDOMARET DANAU SUNTER UTARA RAYA 36 A JL DANAU SUNTER UTARA RAYA BLOK A 36 A NO 2, SUNTER AGUNG, TANJUNG PRIOK, JAKARTA UTARA",-6.1398,106.8585,BCA
INDOMARET KEBAYORAN LAMA 1 JL RAYA KEBAYORAN LAMA JAKARTA SELATAN,-6.238274,106.78033,BCA
SPBU COCO 3412114 GANDARIA JAKSEL CRM JL GANDARIA 1 KAV 27-28 JAKARTA SELATAN,-6.2442678,106.7879949,BCA
"ALFAMART TERUSAN BANDENGAN UTARA CRM 1 JLTERUSAN BANDENGAN UTARA NO3,KEC PENJARINGAN",-6.137641,106.790173,BCA
"MENARA HIJAU JL. MT. HARYONO KAV. 33, JAKARTA 12770",-6.244363,106.857795,BCA
INDOMARET PLUS TERUSAN BANDENGAN JL TERUSAN BANDENGAN UTARA NO A7 PEJAGALAN PEJAGALAN JAKARTA UTARA,-6.13712,106.79082,BCA
INDOMARET TAMAN PERMATA INDAH II PERUM TPI 1. JL KEBON PALA NO 12A PENJARINGAN,-6.1434,106.7819,BCA
HS HOUSE 2 JL PANCORAN TIMUR RAYA NO 35 PERDATAM JAKSEL,-6.249445,106.848789,BCA
HS HOUSE JL PANCORAN TIMUR RAYA NO 35 PERDATAM JAKSEL,-6.249445,106.848789,BCA
HS HOUSE 3 JL PANCORAN TIMUR RAYA NO 35 PERDATAM JAKSEL,-6.249445,106.848789,BCA
TAMAN DUTA MAS CRM 1 JL TUBAGUS ANGKE NO 10 ABC & 11 H JAK BAR,-6.1442563,106.7808652,BCA
TAMAN DUTA MAS CRM 2 JL TUBAGUS ANGKE NO 10 ABC & 11 H JAK BAR,-6.1442563,106.7808652,BCA
TAMAN DUTA MAS CRM 3 JL TUBAGUS ANGKE NO 10 ABC & 11 H JAK BAR,-6.1442563,106.7808652,BCA
TAMAN DUTA MAS CRM 4 JL TUBAGUS ANGKE NO 10 ABC & 11 H JAK BAR,-6.1442563,106.7808652,BCA
TAMAN DUTA MAS CRM 5 JL TUBAGUS ANGKE NO 10 ABC & 11 H JAK BAR,-6.1442563,106.7808652,BCA
TAMAN DUTA MAS CRM 6 JL TUBAGUS ANGKE NO 10 ABC & 11 H JAK BAR,-6.1442563,106.7808652,BCA
TAMAN DUTA MAS CRM 7 JL TUBAGUS ANGKE NO 10 ABC & 11 H JAK BAR,-6.1442563,106.7808652,BCA
"THE RESIDENCES AT DARMAWANGSA 1 JL DARMAWANGSA VIII NO 26 KEBAYORAN BARU, JAKARTA SELATAN",-6.252385,106.8044452,BCA
"ISKANDAR MUDA, JKT CRM 2 JL ARTERI PONDOK INDAH KAV 80/1-2 - JAKARTA",-6.240759,106.782661,BCA
"ISKANDAR MUDA, JKT CRM 1 JL ARTERI PONDOK INDAH KAV 80/1-2 - JAKARTA",-6.240759,106.782661,BCA
"ISKANDAR MUDA, JKT CRM 3 JL ARTERI PONDOK INDAH KAV 80/1-2 - JAKARTA",-6.240759,106.782661,BCA
"ALFAMART MERUYA ILIR IV JL MERUYA ILIR NO 33 RT 002/001, SRENGSENG, KEMBANGAN",-6.1984522,106.7598024,BCA
INDOMARET PLUS SUNRISE GARDEN ( TJJE ) JAKBAR 2 KOMP SUNRISE GARDEN SURYA SARANAJAKBAR,-6.1753,106.7616,BCA
INDOMARET PLUS SUNRISE GARDEN ( TJJE ) JAKBAR KOMP SUNRISE GARDEN SURYA SARANAJAKBAR,-6.1753,106.7616,BCA
ALFAMART BALAI PUSTAKA BARU JL BALAI PUSTAKA BARU NO 17 RT 04/15 RAWAMANGUN JAKTIM,-6.195,106.8861,BCA
INDOMARET TELUK GONG 2 JL RAYA TELUK GONG NO12 JAKARTA UTARA,-6.1377,106.7894,BCA
INDOMARET TELUK GONG JL RAYA TELUK GONG NO12 JAKARTA UTARA,-6.1377,106.7894,BCA
"INDOMARET KAYU JATI JL. KAYU JATI V NO. 46, RT.11 RW.05 JAKTIM",-6.1911,106.8863,BCA
INDOMARET OTISTA III 2 JL OTISTA II NO 30A JATINEGARA JAKTIM,-6.2009,106.8857,BCA
INDOMARET PENGADEGAN UTARA CRM JL PENGADEGAN UTARA NO08 KELPENGADEGAN KECPANCORAN,-6.2466,106.855,BCA
INDOMARET HYBRID BANGKA 5B JAKSEL JL BANGKARAYA NO5 RT13 RW01 KEL BANGKA KEC MAMPANGPRAPATAN - JAKSEL,-6.2549,106.8147,BCA
SUNRISE GARDEN CRM 3 JL SURYA UTAMA BLOK V/31 - JAKARTA,-6.171334,106.762478,BCA
SUNRISE GARDEN CRM 1 JL SURYA UTAMA BLOK V/31 - JAKARTA,-6.171334,106.762478,BCA
SUNRISE GARDEN CRM 2 JL SURYA UTAMA BLOK V/31 - JAKARTA,-6.171334,106.762478,BCA
APARTEMEN 1 PARK RESIDENCE JL KI HAJI SYAFEI HAZAMI,-6.2452,106.7881,BCA
BALAI PUSTAKA CRM 1 JL BALAI PUSTAKA TIMUR BLOK J NO 225-C/3 JAKARTA,-6.201508,106.885775,BCA
BALAI PUSTAKA CRM 2 JL BALAI PUSTAKA TIMUR BLOK J NO 225-C/3 JAKARTA,-6.201508,106.885775,BCA
INDOMARET PANJANG CIDODOL JL PANJANG CIDODOL RT005RW13 KEBLAMA JAKSEL,-6.230145,106.771928,BCA
"INDOMARET PANJANG CIDODOL 2 JAKSEL JL PANJANGCIDODOL NO6 RT014 RW006 GROGOLSELATAN, KEBAYORAN LAMA, JAKSEL",-6.230145,106.771928,BCA
"CIRCLE K BALAI PUSTAKA JL PINANG NO18 RT001 RW09, RAWAMANGUN,PULO GADUNG,JAKTIM",-6.1979,106.8863,BCA
ALFAMIDI KEBON KELAPA CRM 1 JL KBONKLPA RYNO3RT001/011KELU KAYUSLTNJAKTIM,-6.1979,106.8863,BCA
ALFAMART PENGADEGAN UTARA 2 JL PENGADEGAN UTARA RAYA NO 6 JAKARTA SELATAN,-6.2467,106.8553,BCA
ALFAMART PENGADEGAN UTARA JL PENGADEGAN UTARA RAYA NO 6 JAKARTA SELATAN,-6.2467,106.8553,BCA
INDOFOOD ANCOL JL ANCOL I NO 4-5 ANCOL BARAT JAKARTA UTARA,-6.1279,106.8187,BCA
INDOMARET DUREN TIGA RAYA (TU0I) JL RAYA DUREN TIGA NO12A KEL DUREN TIGA KEC PANCORAN JAKSEL,-6.2532,106.8404,BCA
"ALFAMART AMPERA RAYA II JL. BUDI MULIA 15 RT. 006, RW. 11, PADEMANGAN BARAT, PADEMANGAN, JAKARTA UTARA",-6.130749,106.842174,BCA
INDOMARET BUDI MULIA 75 JL BUDI MULIA NO 75 RT006 RW011 JAKUT,-6.1306,106.8419,BCA
"TIP-TOP RAWAMANGUN JL RY BALAI PUSTAKA TIMUR 31-35, RAWAMANGUN",-6.200867,106.886202,BCA
"ALFAMART TERUSAN BANDENGAN UTARA BIDARA JL TERUSAN BANDENGAN UTARA NO 3-4 RT 005/016, PEJAGALAN, PENJARINGAN",-6.1378,106.788,BCA
SUNTER CRM 1 JL AGUNG UTARA RAYA BA 360D/50-51SUNTERAGUNG,-6.139354,106.859983,BCA
SUNTER CRM 2 JL AGUNG UTARA RAYA BA 360D/50-51SUNTERAGUNG,-6.139354,106.859983,BCA
"SUNTER CRM 5 JL DANAU SUNTER UTARA BLOK A KAV NO 3, SUNTER AGUNG, JAKARTA",-6.139354,106.859983,BCA
"SUNTER CRM 6 JL DANAU SUNTER UTARA BLOK A KAV NO 3, SUNTER AGUNG, JAKARTA",-6.139354,106.859983,BCA
"ALFAMART DUREN TIGA II JL DUREN TIGA NO 88 RT 1/1, PANCORAN, PANCORAN, JAKSEL",-6.2536,106.84,BCA
"MALL @ BASSURA CRM 1 JL JEND BASUKI RACHMAT NO 1A, JAKARTA",-6.2249,106.8778,BCA
"MALL @ BASSURA CRM 2 JL JEND BASUKI RACHMAT NO 1A, JAKARTA",-6.2249,106.8778,BCA
"MALL @ BASSURA CRM 5 JL JEND BASUKI RACHMAT NO 1A, JAKARTA",-6.2249,106.8778,BCA
"ALFAMART GANDARIA III JL GANDARIA 1/41 RT 2/3, KRAMAT PELA, KEBAYORAN BARU, JAKSEL",-6.2469,106.7898,BCA
"KEDOYA PERMAI CRM 2 RUKO TAMAN KEDOYA PERMAI, BLOK A 1A NO 4-5",-6.191017,106.758536,BCA
"KEDOYA PERMAI CRM 3 RUKO TAMAN KEDOYA PERMAI, BLOK A 1A NO 4-5",-6.191017,106.758536,BCA
"KEDOYA PERMAI CRM 4 RUKO TAMAN KEDOYA PERMAI, BLOK A 1A NO 4-5",-6.191017,106.758536,BCA
"KEDOYA PERMAI CRM 5 RUKO TAMAN KEDOYA PERMAI, BLOK A 1A NO 4-5",-6.191017,106.758536,BCA
"KEDOYA PERMAI CRM 1 RUKO TAMAN KEDOYA PERMAI, BLOK A 1A NO 4-5",-6.191017,106.758536,BCA
"METRO PERMATA CRM 4 KOMP METRO PERMATA, JL RADEN SALEH BLOK A2/1",-6.191017,106.758536,BCA
ALFAMART TELUK GONG III 2 JL V NO 3B RT 03/06 KEL PEJAGALAN KEC PENJARINGAN JAKARTA UTARA,-6.138818,106.78612,BCA
ALFAMART TELUK GONG III JL V NO 3B RT 03/06 KEL PEJAGALAN KEC PENJARINGAN JAKARTA UTARA,-6.138818,106.78612,BCA
"ALFAMART SUNTER KIRANA JL SUNTER KIRANA BLOK NB2 NO 01, SUNTER JAYA, TANJUNG PRIOK, JAKARTA UTARA",-6.1586,106.878,BCA
"ALFAMART H KELIK II JL H KELIK RT 01/06, SRENGSENG, KEMBANGAN, JAKBAR",-6.2093,106.7608,BCA
MEDIA INDONESIA CRM JL PILAR MAS RYKAVAD KEDOYAKEBJERUK JAKBAR,-6.185,106.7586,BCA
"KEMANG MANSION CRM 1 JL KEMANG RAYA NO 3-5, JAKSEL",-6.255055,106.810022,BCA
"KEMANG MANSION CRM 2 JL KEMANG RAYA NO 3-5, JAKSEL",-6.255055,106.810022,BCA
"KEMANG MANSION CRM 3 JL KEMANG RAYA NO 3-5, JAKSEL",-6.255055,106.810022,BCA
RS SATYA NEGARA JL AGUNG UTARA RY BLOK A NO 1 SUNTER JKT UTR,-6.139552,106.860922,BCA
GREEN GARDEN CRM 1 PERUM GREEN GARDEN BLOK A 14 NO 33-34 JAKARTA,-6.16512,106.76388,BCA
GREEN GARDEN CRM 2 PERUM GREEN GARDEN BLOK A 14 NO 33-34 JAKARTA,-6.16512,106.76388,BCA
GREEN GARDEN CRM 3 PERUM GREEN GARDEN BLOK A 14 NO 33-34 JAKARTA,-6.16512,106.76388,BCA
GREEN GARDEN CRM 4 PERUM GREEN GARDEN BLOK A 14 NO 33-34 JAKARTA,-6.16512,106.76388,BCA
"CITY RESORT CRM 1 JL CITY RESORT RESIDENCE BOULEVARD, BLOK A NO 1A, CENGKARENG, JAK ARTA BARAT",-6.16512,106.76388,BCA
INDOMARET ANGKE WIJAYA KUSUMA JL TUBAGUS ANGKE NO 19A-B KEL WIJAYA KUSUMA KEC GROGOL PETAMBURAN JAKARTA BARAT,-6.152767,106.771179,BCA
INDOMARET DANAU SUNTER UTARA 33 JL AGUNG UTARA RAYA BLOK A-36 D NO 33-34 KEL SUNTER AGUNG KEC TANJUNG PRIOK JAKARTA UTARA,-6.139166,106.860684,BCA
"INDOMARET SUNTER ICON JL GRIYA SEJAHTERA RAYA, KEL SUNTER AGUNG, TANJUNG PRIOK, JAKUT",-6.1351,106.8545,BCA
"WISMA INDOMOBIL MT HARYONO JL. MT. HARYONO KAV. 8, JAKARTA",-6.24271,106.862941,BCA
INDOMARET ANGKUR JL ANKUR RAYA NO 31 RT 03 / 02 KAYU PUTIH,-6.1867,106.8875,BCA
INDOMARET ANGKUR 2 JL ANKUR RAYA NO 31 RT 03 / 02 KAYU PUTIH,-6.1867,106.8875,BCA
INDOMARET KEMANG MAMPANG CRM JL KEMANG NO 15B JAKARTA SELATAN,-6.2558,106.81227,BCA
INDOMARET GANDARIA JL GANDARIA I NO 55 JAKARTA SELATAN,-6.24775,106.78995,BCA
"ALFAMART PANJANG GREEN GARDEN JL PANJANG GREEN GARDEN BLOK GG E7 NO 8-9, KEDOYA UTARA, KEBON JERUK, JAKARTA BARAT",-6.1661,106.7631,BCA
"RSIA FAMILY JL PLUIT MAS I BLOK A NO. 2A - 5A, JAKUT",-6.134132,106.792492,BCA
CARREFOUR EXPRESS KEBAYORAN JL. CILEDUG RAYA NO. 37 - JAKARTA SELATAN,-6.238433,106.77737,BCA
ALFAMART GANDARIA II JL GANDARIA I NO 04 JAKARTA SELATAN,-6.248194,106.790187,BCA
"INDOMARET CIPINANG BARU BUNDER JL CIPINANGBARUBUNDER NO7 RT2 RW6, CIPINANG, PULO GADUNG, JAKTIM",-6.207,106.8862,BCA
ALFAMIDI TEBET CRM 1 JL TEBET RAYA NO64 RT002 RW04 TEBET TMR JAKSEL,-6.207,106.8862,BCA
INDOMARET TANAH PASIR III PLUIT JAKARTA UTARA JL TANAH PASIR NO 2 KAV 8 & 9 PENJARINGAN JAKARTA UTARA,-6.1299,106.8018,BCA
ALFAMART SUNTER HIJAU JL SUNTER HIJAU RAYA BLOK E2 NO 22 JAKUT,-6.1563,106.8777,BCA
INDOMARET TELUK GONG V CRM 1 JL BOULEVARD RAYA BLOK LB1 / 17 JAKARTA UTARA,-6.1383,106.7851,BCA
WISMA INDOVISION JL RAYA PANJANG Z / III GREEN GARDEN JAKBAR,-6.1642,106.7634,BCA
"ALFAMART PETOGOGAN JL PETOGOGAN I RT 3/11, PETOGOGAN, KEBAYORAN BARU, JAKSEL",-6.2506,106.7941,BCA
INDOMARET PINANG RAYA XXIII JL. PINANG NO. 23 RT.002 / 08 KAV. NO. 119/E; RAWAMANGUN; PULO GADUNG; JAKARTA TIMUR,-6.1981,106.888,BCA
INDOMARET MAMPANG 17 JL MAMPANG PRAPATAN RAYA NO302-DRTIGA JAKSEL,-6.2571,106.8282,BCA
CLUB HOUSE PERMATA MEDITERANIA JL POS PENGUMBEN RAYA NO40 PRMTA HIJAU JAKBAR,-6.2225,106.7649,BCA
CERIAMART PASAR IKAN JL PAKIN (KAKAP) NO40 KEL PENJARINGAN KEC PENJARINGAN JAKARTA UTARA 14440,-6.1276,106.8087,BCA
DHARMAWANGSA SQUARE 2 JL DHARMAWANGSA VI & XI JAKARTA SELATAN,-6.25365,106.801061,BCA
DHARMAWANGSA SQUARE 3 JL DHARMAWANGSA VI & XI JAKARTA SELATAN,-6.25365,106.801061,BCA
INDOMARET GRAND WIJAYA CENTER JL KOMP GRAND WIJAYA CENTER B11/12 A-B JAKSEL,-6.253686,106.800953,BCA
"ALFAMIDI GANDARIA JL. SULTAN ISKANDAR MUDA, JAKARTA SELATAN",-6.249111,106.790676,BCA
ALFAMART DHARMAWANGSA VI JL DHARMAWANGSA VI NO 45 JAKARTA SELATAN,-6.254004,106.801575,BCA
INDOMARET PENGADEGAN JL PENGADEGANSELATAN 8 RT 09 RW 05 KEL PENGADEGAN KEC PANCORAN JAKSEL,-6.2517,106.8499,BCA
"LA CODEFIN JL. KEMANG RAYA NO. 8, JAKARTA SELATAN",-6.2564589,106.810745,BCA
SPBU BENZINE 34-14407 JEMBATAN TIGA CRM 1 JL JEMBATAN TIGA BLOKF4-5 KECPENJARINGANJAKUT,-6.133712,106.79157,BCA
ALFAMART TANAH PASIR II JL TANAH PASIR NO 41 JAKARTA UTARA,-6.130015,106.79963,BCA
ALFAMART TANAH PASIR II 2 JL TANAH PASIR NO 41 JAKARTA UTARA,-6.130015,106.79963,BCA
"ALFAMART PENGADEGAN 2 JL PENGADEGAN SELATAN NO 8, PANCORAN, JAKARTA",-6.251664,106.850205,BCA
"ALFAMART PENGADEGAN JL PENGADEGAN SELATAN NO 8, PANCORAN, JAKARTA",-6.251664,106.850205,BCA
INDOMARET CIPULIR 1 JAKSEL JL CIPULIR RAYA NO09 RT013 RW04 KEL CIPULIR KEC KEBAYORAN LAMA - JAKSEL,-6.2354,106.7734,BCA
"PASAR CIDODOL 1 JL CIDODOL RAYA, GROGOL SELATAN, KEBAYORAN LAMA JAKARTA",-6.2334,106.7717,BCA
"ALFAMIDI TANAH PASIR JL TANAH PASIR NO 87-88, PENJARINGAN, JAKUT",-6.130103,106.79917,BCA
"ALFAMIDI TANAH PASIR 2 JL TANAH PASIR NO 87-88, PENJARINGAN, JAKUT",-6.130103,106.79917,BCA
ALFAMIDI PETOGOGAN JL PETOGOGAN I KEBAYORAN BARU JAKSEL,-6.2513,106.7944,BCA
PANGLIMA POLIM RAYA CRM 3 JL PANGLIMA POLIM RAYA 85 B KBY BARU - JKT,-6.2507194,106.7931767,BCA
PANGLIMA POLIM RAYA CRM 4 JL PANGLIMA POLIM RAYA 85 B KBY BARU - JKT,-6.2507194,106.7931767,BCA
INDOMARET ANCOL 2 JL ANCOL I NO 9-10 ANCOL BARAT JAKUT,-6.1262,106.8143,BCA
INDOMARET ANCOL JL ANCOL I NO 9-10 ANCOL BARAT JAKUT,-6.1262,106.8143,BCA
"INDOMARET GREEN GARDEN II KOMPLEK GREEN GARDEN A/13/1, KEBON JERUK JAKB",-6.16571,106.762084,BCA
"INDOMARET GREEN GARDEN II 2 KOMPLEK GREEN GARDEN A/13/1, KEBON JERUK JAKB",-6.16571,106.762084,BCA
"ALFAMART KEDOYA RAYA II JL KEDOYA RAYA 2, RT08/02, KEDOYA SELATAN, KEBON JERUK, JAKARTA BARAT",-6.1792,106.7579,BCA
ALFAMIDI KEDOYA RAYA JL KEDOYA RAYA NO 69 RT 03/06 KEL KEDOYA UTARA KEC KEBUN JERUK JAKBAR,-6.1755,106.7587,BCA
"ALFAMIDI SRENGSENG RAYA CRM 2 JL SRENGSENG RAYA NO 80 RT 10/5, SRENGSENG, KEMBAN",-6.20751,106.7585,BCA
"GRAND WIJAYA CENTER 1 WIJAYA GRAHA PURI BLOK E NO 20, KEBAYORAN BR",-6.253848,106.79967,BCA
"GRAND WIJAYA CENTER 2 WIJAYA GRAHA PURI BLOK E NO 20, KEBAYORAN BR",-6.253848,106.79967,BCA
"INDOMARET KEDOYA RAYA 16 JAKARTA BARAT JL KEDOYA RAYA NO 16, KEDOYA RAYA, KEBON JERUK, JAKARTA BARAT",-6.1749,106.7587,BCA
"INDOMARET KELAPA HYBRIDA JAKARTA UTARA CRM 1 JL RAYA KELAPA HYBRIDA BLOK QG - 10 KAV NO 1, KELA",-6.146603,106.871384,BCA
"TEMATIK HOTEL JL. JEMBATAN TIGA RAYA NO. 35, JAKARTA 14440",-6.1321,106.7936,BCA
"INDOMARET PLUIT MAS17EE JAKUT JL PLUITMASRAYA BLOKEE KAVNO17 PEJAGALAN, PENJARINGAN, JAKUT",-6.1334,106.7908,BCA
RUMAH SAKIT DUTA INDAH MEDIKA JL TELUK GONG RAYA NO 12 JKT UTARA,-6.1379,106.7837,BCA
"ALFAMIDI SRENGSENG RAYA CRM 1 JL SRENGSENG RAYA NO 80 RT 10/5, SRENGSENG, KEMBAN",-6.2075,106.7582,BCA
INDOMARET GEDONG PANJANG 70 JAKARTA UTARA JL GEDONG PANJANG NO 7 B &C RT 001/RW06 PENJARINGAN PENJARINGAN JAKARTA UTARA,-6.1276,106.8049,BCA
APARTEMEN MITRA BAHARI JL PAKIN NO 1 PENJARINGAN JAKARTA,-6.1277,106.8045,BCA
"INDOMARET MERUYA ILLIR 40 JAKARTA BARAT JL MERUYA ILLIR NO. 40, SREGSENG, KEMBANGAN, JAKARTA BARAT",-6.1965,106.7564,BCA
"INSTITUT BISNIS DAN MULTIMEDIA ASMI CRM 1 JL PACUAN KUDA NO 1-5, PULOMAS, JAKARTA TIMUR",-6.1724056,106.8865239,BCA
"ALFAMIDI SUNTER AGUNG II CRM JL SUNTER AGUNG TENGAH 4 BLOK H2 NO 2, KEL SUNTER AGUNG, KEC TANJ UNG PRIOK, JAKARTA UTARA",-6.1438,106.8692,BCA
INDOMARET PANJANG KEDOYA UTARA JL PANJANG BLOK Z2 PERSIL NO 44-45 JAK BAR,-6.1626,106.7628,BCA
"ALFAMART TANAH PASIR IV JL. TANAH PASIR NO. 3, PENJARINGAN, JAKUT",-6.1298,106.7979,BCA
INDOMARET OTISTA 5 CRM 1 JL RAYA OTISTA BIDARA CINA JATINEGARA JAKTIM,-6.239907,106.868985,BCA
INDOMARET OTISTA 5 CRM 2 JL RAYA OTISTA BIDARA CINA JATINEGARA JAKTIM,-6.239907,106.868985,BCA
INDOMARET TANAH PASIR II PLUIT CRM 1 JL RAYA TANAH PASIR NO 4 PENJARINGAN JAKARTA UTARA,-6.1298,106.7971,BCA
ALFAMIDI PANJANG CIPULIR CRM 1 JL PANJANG CIPULIR NO 04 JAKSEL,-6.235557,106.772072,BCA
RANCH MARKET PESANGGRAHAN CRM 1 JL. PESANGGRAHAN RAYA NO. 2 KEMBANGAN,-6.18828,106.755792,BCA
INDOMARET TAMAN SUNTER INDAH JAKUT JL TAMAN SUNTER INDAH BLOK HJ2 NO 10 SUNTER JAYA TANJUNG PRIOK JAKARTA UTARA,-6.151,106.8763,BCA
ALFAMART SRENGSENG IV JL SRENGSENG RAYA NO 01 RT 10/03 JAKBAR,-6.216,106.7601,BCA
ALFAMART SRENGSENG IV 2 JL SRENGSENG RAYA NO 01 RT 10/03 JAKBAR,-6.216,106.7601,BCA
INDOMARET PESANGGRAHAN I ( TKO3 ) JAKBAR 2 JL PESANGGRAHAN NO 23 RT01/03 MERUYA UTARA JAKARTA BARAT,-6.1946,106.7556,BCA
INDOMARET PESANGGRAHAN I ( TKO3 ) JAKBAR JL PESANGGRAHAN NO 23 RT01/03 MERUYA UTARA JAKARTA BARAT,-6.1946,106.7556,BCA
ALFAMART RADIO MUARA 2 JL CIPINANG BARU TIMUR NO 15 JAKARTA TIMUR,-6.20208,106.889268,BCA
PANGLIMA POLIM RAYA CRM 1 JL PANGLIMA POLIM RAYA 85 B KBY BARU - JKT,-6.254112,106.797514,BCA
PANGLIMA POLIM RAYA CRM 2 JL PANGLIMA POLIM RAYA 85 B KBY BARU - JKT,-6.254112,106.797514,BCA
"TELUK MAS CRM 1 JL TELUK GONG RAYA NO 9 & 9A, JAKARTA",-6.137672,106.78243,BCA
"TELUK MAS CRM 2 JL TELUK GONG RAYA NO 9 & 9A, JAKARTA",-6.137672,106.78243,BCA
"TELUK MAS CRM 3 JL TELUK GONG RAYA NO 9 & 9A, JAKARTA",-6.137672,106.78243,BCA
"TELUK MAS CRM 4 JL TELUK GONG RAYA NO 9 & 9A, JAKARTA",-6.137672,106.78243,BCA
"PASAR TELUK GONG 1 JL TELUK GONG RAYA, 009/08 KEL PENJAGALAN KEC PENJARINGAN JAKARTA UTARA",-6.1379,106.7821,BCA
INDOMARET GREEN GARDEN KOMP RUKO GREEN GARDEN NO 55-56 JAKBAR,-6.1616,106.7623,BCA
INDOMARET GREEN GARDEN 2 KOMP RUKO GREEN GARDEN NO 55-56 JAKBAR,-6.1616,106.7623,BCA
INDOMARET PLUS MERUYA ILIR 38 ( T1M8 ) JAKBAR JL MERUYA ILIR NO38 SREGSENG KEMBANGANJAKBAR,-6.1967,106.7554,BCA
RS MEDIKA GRIA JL DANAU SUNTER UTARA NIRWANA SUNTER ASRI JKT,-6.139467,106.86573,BCA
"TOTAL BUAH WARUNG BUNCIT JL WARUNG BUNCIT RAYA, MAMPANG PRAPATAN",-6.259261,106.828546,BCA
SUPERINDO MAMPANG JL. MAMPANG PRAPATAN RAYA JAK SEL,-6.259261,106.828546,BCA
"ALFAMIDI SUNTER AGUNG JL AGUNG TENGAH IV BLOK 1-7 NO. 40A, RT 12/16, SUNTER AGUNG, TANJUNG PRIUK, JAKARTA UTARA 14350",-6.143676,106.870761,BCA
INDOMARET PELABUHAN SUNDA KELAPA (FE27) JL RAYA MARITIM NO8 KEL ANCOL KEC PADEMANGAN JAKARTA UTARA,-6.1253217,106.8083494,BCA
RAWAMANGUN CRM 4 JL PAUS 81 - JAKARTA,-6.193909,106.890827,BCA
RAWAMANGUN CRM 5 JL PAUS 81 - JAKARTA,-6.193909,106.890827,BCA
RAWAMANGUN CRM 6 JL PAUS 81 - JAKARTA,-6.193909,106.890827,BCA
RAWAMANGUN CRM 7 JL PAUS 81 - JAKARTA,-6.193909,106.890827,BCA
PEGAMBIRAN CRM 1 JL PEGAMBIRAN NO 2B JAKARTA TIMUR,-6.193909,106.890827,BCA
PEGAMBIRAN CRM 2 JL PEGAMBIRAN NO 2B JAKARTA TIMUR,-6.193909,106.890827,BCA
ALFAMART PONDOK RANDU JL PONDOK RANDU RAYA NO 85-87 JAKBAR,-6.173993,106.725718,BCA
INDOMARET ALUR LAUT II JL ALUR LAUT NO 32 KOJA JAKARTA UTARA,-6.1289,106.8991,BCA
ALFAMART KAPUK RAYA III JL KAMAL MUARA RAYA NO 88-88A RT02/03 KAMAL MUARA PENJARINGAN JAKARTA UTARA,-6.13017,106.745397,BCA
GEDUNG ELNUSA JL TB SIMATUPANG KAV 1B JAKARTA,-6.289684,106.808975,BCA
JAKARTA INTERNATIONAL SCHOOL CILANDAK JL TEROGONG RAYA NO 33 CILANDAK JAKARTA,-6.284681,106.788673,BCA
ALFAMART ALUR LAUT JL ALUR LAUT NO 3 RT 009/04 JAKARTA UTARA,-6.128712,106.899267,BCA
DAN DAN LARANGAN INDAH JL SWADAYA RAYA NO 26 RT 02/07 KEL LARANGAN INDAH LARANGAN TANGERANG,-6.2277,106.7305,BCA
OMAH PAWON CRM JL AMPERA RAYA NO 2,-6.2905907,106.8150401,BCA
ALFAMIDI SWADAYA RAYA JL SWADAYA RAYA NO 22 TANGERANG,-6.2281,106.7304,BCA
KELAPA GADING RIVIERA CRM 1 JL RYKLPAHIBRIDAR GDGRIVIERABLOKPF 21/10JAKUT,-6.1503999,106.9131881,BCA
KELAPA GADING RIVIERA CRM 2 JL RYKLPAHIBRIDAR GDGRIVIERABLOKPF 21/10JAKUT,-6.1503999,106.9131881,BCA
KELAPA GADING RIVIERA CRM 3 JL RYKLPAHIBRIDAR GDGRIVIERABLOKPF 21/10JAKUT,-6.1503999,106.9131881,BCA
"ALFAMIDI KERJA BAKTI CRM JL KERJA BAKTI RT 008/02, JAKTIM",-6.2751,106.8771,BCA
"INDOMARET KERJA BAKTI JAKARTA TIMUR CRM JL KERJA BAKTI NO 12 RT 01/04, KP MAKASSAR JAKARTA",-6.2761,106.8756,BCA
INDOMARET CIPADU JAYA II TANGERANG JL KH WAHIDHASYIMNO13 CIPADUJAYA LARANGAN TGR,-6.2459,106.7393,BCA
"INDOMARET RADJIMAN 11A 1 JL DR KRT RADJIMAN WIDYODININGRAT NO 113 RT 10 RW 14, JATINEGARA, CAKUNG JAKARTA",-6.19862,106.922165,BCA
INDOMARET DAAN MOGOT II JL RAYA DAAN MOGOT KM 13 JAKARTA BARAT,-6.154742,106.730293,BCA
"INDOMARET SWADAYA JL SWADAYA RAYA A4/12 LARANGAN- CILEDUG, TGR",-6.2289,106.7303,BCA
PASAR BERSIH CENGKARENG CRM 2 PERUM BUMI CITRA IDAMAN BLOK A5 CENGKARENG,-6.137291,106.739229,BCA
"INDOMARET BOULEVARD II CRM 1 JL BOULEVARD RAYA BLOK RA 27 KELAPA GADING, JAKART",-6.1433,106.91,BCA
"INDOMARET BOULEVARD II CRM 2 JL BOULEVARD RAYA BLOK RA 27 KELAPA GADING, JAKART",-6.1433,106.91,BCA
PASAR BERSIH CENGKARENG CRM 1 PERUM BUMI CITRA IDAMAN BLOK A5 CENGKARENG,-6.137245,106.739207,BCA
"ALFAMIDI RSUD CENGKARENG CRM JL KO PERUMNAS IIID 16/21 RT 012/010, CENGKARENG BARAT, JAKBAR",-6.1428,106.7357,BCA
INDOMARET RSUD CENGKARENG 2 JL PERUMNAS CENGKARENG PANGRANGO D6 23 JAKBAR,-6.142734,106.735714,BCA
INDOMARET RSUD CENGKARENG JL PERUMNAS CENGKARENG PANGRANGO D6 23 JAKBAR,-6.142734,106.735714,BCA
MANHATTAN CRM 1 JL TB SIMATUPANG KAV 15 CILANDAK TIMUR,-6.2906828,106.8086564,BCA
MANHATTAN CRM 2 JL TB SIMATUPANG KAV 15 CILANDAK TIMUR,-6.2906828,106.8086564,BCA
FRESTIVE OTISTA JL OTISTA RAYA NO 399 JAKARTA TIMUR,-6.1934,106.9227,BCA
INDOMARET RADJIMAN III JL RADJIMAN NO. 5-6 RT013/RW06 KEL RAWA TERATE JAKARTA TIMUR,-6.1934,106.9227,BCA
ALFAMART KRT RADJIMAN II JL KRT RADJIMAN NO 114 JAKARTA TIMUR,-6.2000307,106.9224294,BCA
