address,latitude,longitude,Bank
BANDARA SEPINGGAN 2 BANDARA SEPINGGAN AREA INTERNASIONAL JL MARSMA R ISWAHYUDI BALIKPAPAN,-1.261800000,116.897300000,BCA
INDOMARET SYARIFUDIN YOES BALIKPAPAN JL SYARIFUDIN YOES BALIKPAPAN,-1.231500000,116.888300000,BCA
BALIKPAPAN REGENCY JL KOL SYARIFUDDIN RING ROAD II BALIKPAPAN,-1.229600000,116.891200000,BCA
ALFAMIDI SEPINGGAN BARU CRM 1 JL SEPINGGAN BARU BALIKPAPAN,-1.252550000,116.904865000,BCA
ALFAMIDI SOEKARNO HATTA BALIKPAPAN CRM 1 JL SOEKARNO HATTA KM 8 TR 61,-1.200200000,116.883800000,BCA
MAXI MINI MARKET JL MULAWARMAN(RKAT : JL SEPINGGAN BALIKPAPAN,-1.259000000,116.914000000,BCA
PT EKA DHARMA JAYA SAKTI II JL PENDEKAT PULAU BALANG KM 13 KEL KARANG JOANG,-1.163100000,116.874300000,BCA
INDOMARET MULAWARMAN BALIKPAPAN JL MULAWARMAN RT23 SEPINGGAN BALIKPAPAN,-1.253700000,116.928100000,BCA
"PT SUMBER KALIMANTAN ABADI CRM 1 JL MULAWARMAN NO 99 MANGGAR, BALIKPAPAN",-1.233505000,116.955784000,BCA
MAXI SWALAYAN MANGGAR JL MULAWARWAN NO 8 (MANGGAR) BALIKPAPAN,-1.224000000,116.964400000,BCA
INDOMARET AHMAD YANI TANJUNG BALAI CRM 1 JL JEND A YANI NO 73 ASAHAN SUMATERA UTARA,2.905812000,99.805519000,BCA
INDOMARET BALIGE TOBA SAMOSIR JL SISINGAMANGARAJA KEL BALIGE 1 KEC BALIGE,2.333951300,99.066865500,BCA
TANJUNG BALAI CRM 1 JL SISINGAMANGARAJA12-16 - TANJUNG BALAI,2.960337072,99.802569250,BCA
TANJUNG BALAI CRM 2 JL SISINGAMANGARAJA12-16 - TANJUNG BALAI,2.960337072,99.802569250,BCA
TANJUNG BALAI CRM 3 JL SISINGAMANGARAJA12-16 - TANJUNG BALAI,2.960337072,99.802569250,BCA
"BANDARA SILANGIT 1 SIBORONG BORONG, SILANDO, TAPANULI UTARA",2.263060600,98.984099600,BCA
KISARAN CRM 1 JL COKROAMINOTO NO 28 KISARAN,2.965110000,99.803759000,BCA
KISARAN CRM 2 JL COKROAMINOTO NO 28 KISARAN,2.965110000,99.803759000,BCA
KISARAN CRM 3 JL COKROAMINOTO NO 28 KISARAN,2.965110000,99.803759000,BCA
KISARAN CRM 4 JL COKROAMINOTO NO 28 KISARAN,2.965110000,99.803759000,BCA
"PT SINTONG ABADI DS I HESSA AIR GENTING KEC AIR BATU, KISARAN, KAB ASAHAN",2.963682200,99.633992400,BCA
SPBU 14212293 PT TANINDO ABADI NUGRAHA UTAMA JL IMAM BONJOL NO 317 KISARAN,2.977710000,99.630152300,BCA
RS SETIO HUSODO JL SISINGAMANGARAJA 67 KISARAN,2.985415000,99.630244200,BCA
ALFAMIDI PESUT JL PESUT TENGGARONG KUTAI KARTANEGARA,-0.438500000,116.988300000,BCA
"TENGGARONG CRM 1 JL WOLTER MONGINSIDI NO 52A, TENGGARONG",-0.460664000,117.006858000,BCA
"TENGGARONG CRM 2 JL WOLTER MONGINSIDI NO 52A, TENGGARONG",-0.460664000,117.006858000,BCA
"TENGGARONG CRM 3 JL WOLTER MONGINSIDI NO 52A, TENGGARONG",-0.460664000,117.006858000,BCA
"TENGGARONG CRM 4 JL WOLTER MONGINSIDI NO 52A, TENGGARONG",-0.460664000,117.006858000,BCA
ALFAMIDI JAKARTA SMD JL JAKARTA KEC SUNGAI KUNJANG SAMARINDA,-0.528800000,117.091900000,BCA
"ALFAMIDI JAKARTA II SAMARINDA JL JAKARTA RT 72, LOA BAKUNG, SUNGAI KUNJANG, SAMARINDA",-0.517300000,117.092300000,BCA
INDOMARET CIPTO MANGUNKUSUMO SMD CRM 1 JL CIPTO MANGUNKUSUMO LOA JANAN ILIR SMD,-0.539890000,117.106097000,BCA
ALFAMIDI IR SUTAMI SMD JL IR SUTAMI KEC SUNGAI KUNJANG SAMARINDA,-0.522300000,117.113800000,BCA
INDOMARET SUTAMI SAMARINDA JL IR SUTAMI KEC SUNGAI KUNJANG SAMARINDA,-0.522100000,117.115900000,BCA
SLAMET RIYADI CRM 1 JL SLAMET RIYADI KEL KARANG ASEM ULU,-0.515977800,117.116513900,BCA
SLAMET RIYADI CRM 2 JL SLAMET RIYADI KEL KARANG ASEM ULU,-0.515977800,117.116513900,BCA
SLAMET RIYADI CRM 3 JL SLAMET RIYADI KEL KARANG ASEM ULU,-0.515977800,117.116513900,BCA
INDOMARET SLAMET RIYADI SMD JL SLAMET RIYADI SUNGAI KUNJANG,-0.510300000,117.117900000,BCA
INDOMARET ULIN SMD CRM 1 JL ULIN KEC SUNGAI KUNJANG SAMARINDA,-0.506470000,117.116071000,BCA
"ALFAMIDI BUNG TOMO SAMARINDA JL BUNG TOMO, SAMARINDA SEBRANG, SAMARINDA",-0.515400000,117.127100000,BCA
"SPBU COCO SLAMET RIYADI SAMARINDA JL.SLAMET RIYADI, SAMARINDA",-0.501300000,117.124100000,BCA
INDOMARET CENDANA SMD JL CENDANA NO 8 KEC SUNGAI KUNJANG SAMARINDA,-0.497500000,117.124000000,BCA
ANTASARI CRM 1 JL P ANTASARI NO 21 KEC SUNGAI KUNJANG SAMARINDA,-0.492180000,117.127231000,BCA
ANTASARI CRM 2 JL P ANTASARI NO 21 KEC SUNGAI KUNJANG SAMARINDA,-0.492180000,117.127231000,BCA
ANTASARI CRM 3 JL P ANTASARI NO 21 KEC SUNGAI KUNJANG SAMARINDA,-0.492180000,117.127231000,BCA
ANTASARI CRM 4 JL P ANTASARI NO 21 KEC SUNGAI KUNJANG SAMARINDA,-0.492180000,117.127231000,BCA
ANTASARI CRM 5 JL P ANTASARI NO 21 KEC SUNGAI KUNJANG SAMARINDA,-0.492180000,117.127231000,BCA
INDOMARET P ANTASARI 59 SMD JL P ANTASARI NO 59 SAMARINDA,-0.491000000,117.127000000,BCA
"SWALAYAN ERA 5000 JL. SULTAN ALIMUDIN, SAMARINDA",-0.511000000,117.138800000,BCA
INDOMARET SIRAD SALMAN SMD JL SIRAD SALMAN KEL AIR PUTIH SAMARINDA ULU,-0.490700000,117.129200000,BCA
ALFAMIDI PATTIMURA SAMARINDA JL PATTIMURA SAMARINDA SEBRANG SAMARINDA,-0.526100000,117.149800000,BCA
INDOMARET P SURYANATA SMD JL P SURYANATA KEC SAMARINDA ULU SAMARINDA,-0.478900000,117.124400000,BCA
INDOMARET MERBABU SAMARINDA CRM 1 JL MERBABU SAMARINDA,-0.498846000,117.136443000,BCA
"SAMARINDA SEBERANG CRM 4 JL BUNG TOMO RT 11, SAMARINDA",-0.508470000,117.143160000,BCA
SAMARINDA CRM 1 JL JEND SUDIRMAN 30 - SAMARINDA,-0.501738334,117.144706200,BCA
SAMARINDA CRM 2 JL JEND SUDIRMAN 30 - SAMARINDA,-0.501738334,117.144706200,BCA
SAMARINDA CRM 3 JL JEND SUDIRMAN 30 - SAMARINDA,-0.501738334,117.144706200,BCA
SAMARINDA CRM 4 JL JEND SUDIRMAN 30 - SAMARINDA,-0.501738334,117.144706200,BCA
SAMARINDA CRM 5 JL JEND SUDIRMAN 30 - SAMARINDA,-0.501738334,117.144706200,BCA
SAMARINDA CRM 6 JL JEND SUDIRMAN 30 - SAMARINDA,-0.501738334,117.144706200,BCA
SAMARINDA CRM 7 JL JEND SUDIRMAN 30 - SAMARINDA,-0.501738334,117.144706200,BCA
SEGIRI CRM 1 JL PAHLAWAN NO 29 SAMARINDA,-0.501738334,117.144706200,BCA
SEGIRI CRM 2 JL PAHLAWAN NO 29 SAMARINDA,-0.501738334,117.144706200,BCA
SANGATTA CRM 4 JL YB SUDARSO III NO 32 SANGATTA SAMARINDA,-0.501738334,117.144706200,BCA
"HERO SAMARINDA CRM 1 JL. KHALIB, MESRA INDAH MALL SAMARINDA",-0.501200000,117.147000000,BCA
CITRA NIAGA CRM 1 JL. KH ABUL HASAN 8-9 - SAMARINDA - 75111,-0.501847000,117.148919000,BCA
INDOMARET DIPONEGORO SAMARINDA JL DIPONEGORO KEL PASAR PAGI SAMARINDA,-0.500100000,117.149300000,BCA
ABUL HASAN CRM 1 JL KH ABUL HASAN 8-9 - SAMARINDA,-0.497160900,117.149220700,BCA
ABUL HASAN CRM 2 JL KH ABUL HASAN 8-9 - SAMARINDA,-0.497160900,117.149220700,BCA
ABUL HASAN CRM 3 JL KH ABUL HASAN 8-9 - SAMARINDA,-0.497160900,117.149220700,BCA
ABUL HASAN CRM 4 JL KH ABUL HASAN 8-9 - SAMARINDA,-0.497160900,117.149220700,BCA
INDOMARET RAYA JUANDA SAMARINDA JL IR H JUANDA SAMARINDA,-0.475500000,117.137800000,BCA
PLAZA MULIA SAMARINDA CRM 1 JL. BHAYANGKARA SAMARINDA,-0.491088000,117.146713000,BCA
"SPBU COCO KUSUMABANGSA SAMARINDA JL. KUSUMA BANGSA, SAMARINDA",-0.489700000,117.146400000,BCA
"SAMARINDA CENTRAL PLAZA CRM 1 JL P IRIAN, SAMARINDA",-0.504226000,117.154558000,BCA
ALFAMIDI SULTAN ALIMUDIN CRM 1 JL SULTAN ALIMUDIN KEL.SAMBUTAN ILIR,-0.518995000,117.163011000,BCA
INDOMARET HIDAYATULLAH SMD JL HIDAYATULLAH KEL PELABUHAN SAMARINDA,-0.501500000,117.153700000,BCA
"INDOMARET IMAM BONJOL SAMARINDA JL IMAM BONJOL KEC SAMARINDA ILIR, SAMARINDA",-0.498400000,117.153400000,BCA
HIDAYATULLAH CRM 1 JL HIDAYATULLAH NO 20 RT 13 KEL KARANG MUMUS,-0.502819400,117.157444400,BCA
HIDAYATULLAH CRM 2 JL HIDAYATULLAH NO 20 RT 13 KEL KARANG MUMUS,-0.502819400,117.157444400,BCA
HIDAYATULLAH CRM 3 JL HIDAYATULLAH NO 20 RT 13 KEL KARANG MUMUS,-0.502819400,117.157444400,BCA
HIDAYATULLAH CRM 4 JL HIDAYATULLAH NO 20 RT 13 KEL KARANG MUMUS,-0.502819400,117.157444400,BCA
ALFAMIDI AHMAD DAHLAN SAMARINDA JL AHMAD DAHLAN KEC SAMARINDA ILIR SAMARINDA,-0.493700000,117.155200000,BCA
INDOMARET JELAWAT SAMARINDA JL JELAWAT KEC SAMARINDA ILIR SAMARINDA,-0.499500000,117.160100000,BCA
INDOMARET AW SYAHRANI SMD JL AW SYAHRANI KEL AIR HITAM SAMARINDA,-0.461400000,117.139700000,BCA
GAJAH MADA DEPT. STORE MALL LEMBUSWANA JL M YAMIN SAMARINDA,-0.475300000,117.147900000,BCA
"INDOMARET PLUS M YAMIN SMD CRM 1 JL M YAMIN NO 1A SAMARINDA ULU, SAMARINDA",-0.472204000,117.146376000,BCA
INDOMARET LAMBUNG MANGKURAT SMD CRM 1 JL LAMBUNG MANGKURAT KEL PELITA SAMARINDA,-0.490813000,117.157716000,BCA
SPBU SAMBUTAN SAMARINDA CRM 1 JL SULTAN SULAIMAN 15 RT 08 KEL SAMBUTAN,-0.507050500,117.166723500,BCA
SUBUR MAKMUR BANGUNAN JL GATOT SUBROTO NO 62-68 SAMARINDA UTARA,-0.485200000,117.155400000,BCA
RAMAYANA SAMARINDA SQUARE JL. M. YAMIN SAMARINDA,-0.470100000,117.147300000,BCA
INDOMARET HASAN BASRI SMD JL HASAN BASRI KEC SUNGAI PINANG SAMARINDA,-0.479800000,117.153900000,BCA
INDOMARET PLUS URIP SUMOHARJO SAMARINDA JL URIP SUMOHARJO - SAMARINDA,-0.492900000,117.162000000,BCA
SPBU SUBUR MAKMUR SEJATI JL. URIP SUMOHARJO NO. 111 SAMARINDA,-0.490700000,117.162500000,BCA
"A YANI, SAMARINDA CRM 1 JL A YANI NO 23, SAMARINDA",-0.478532711,117.156411400,BCA
"A YANI, SAMARINDA CRM 2 JL A YANI NO 23, SAMARINDA",-0.478532711,117.156411400,BCA
"A YANI, SAMARINDA CRM 3 JL A YANI NO 23, SAMARINDA",-0.478532711,117.156411400,BCA
"A YANI, SAMARINDA CRM 4 JL A YANI NO 23, SAMARINDA",-0.478532711,117.156411400,BCA
"A YANI, SAMARINDA CRM 5 JL A YANI NO 23, SAMARINDA",-0.478532711,117.156411400,BCA
"A YANI, SAMARINDA CRM 6 JL A YANI NO 23, SAMARINDA",-0.478532711,117.156411400,BCA
"A YANI, SAMARINDA CRM 7 JL A YANI NO 23, SAMARINDA",-0.478532711,117.156411400,BCA
ALFAMIDI LAMBUNG MANGKURAT SAMARINDA CRM 1 JL LAMBUNG MANGKURAT NO 169 SAMARINDA,-0.487000000,117.163600000,BCA
INDOMARET M YAMIN 82 SMD JL M YAMIN NO 82 SAMARINDA,-0.462700000,117.150500000,BCA
WAHID HASYIM SAMARINDA CRM 1 JL WAHID HASYIM NO 29 SAMARINDA,-0.459416700,117.150327800,BCA
WAHID HASYIM SAMARINDA CRM 2 JL WAHID HASYIM NO 29 SAMARINDA,-0.459416700,117.150327800,BCA
WAHID HASYIM SAMARINDA CRM 3 JL WAHID HASYIM NO 29 SAMARINDA,-0.459416700,117.150327800,BCA
WAHID HASYIM SAMARINDA CRM 4 JL WAHID HASYIM NO 29 SAMARINDA,-0.459416700,117.150327800,BCA
"INDOMARET SAMBUTAN SAMARINDA JL SULTAN SULAIMAN, SAMARINDA ILIR, SAMARINDA",-0.509900000,117.180100000,BCA
INDOGROSIR SAMARINDA CRM 1 JL A W SYAHRANIE NO 51 SAMARINDA,-0.450808000,117.149226000,BCA
"INDOMARET GERILYA SMD CRM 1 JL GERILIYA RT 50, SUNGAI PINANG, SAMARINDA",-0.484552000,117.168063000,BCA
INDOMARET AHMAD YANI SMD JL AHMAD YANI NO 51 SAMARINDA,-0.471700000,117.167400000,BCA
INDOMARET SENTOSA SMD JL SENTOSA KEC SUNGAI PINANG SAMARINDA,-0.474900000,117.169400000,BCA
INDOMARET WAHID HASYIM SAMARINDA JL WAHID HASYIM - SAMARINDA,-0.443300000,117.155600000,BCA
"SAMARINDA SEBERANG CRM 1 JL BUNG TOMO RT 11, SAMARINDA",-0.304379000,117.080645000,BCA
"SAMARINDA SEBERANG CRM 2 JL BUNG TOMO RT 11, SAMARINDA",-0.304379000,117.080645000,BCA
"SAMARINDA SEBERANG CRM 3 JL BUNG TOMO RT 11, SAMARINDA",-0.304379000,117.080645000,BCA
GIANT ALAYA CRM 1 JL BUKIT ALAYA KEC SAMARINDA UTARA SAMARINDA,-0.462700000,117.177200000,BCA
GIANT ALAYA 1 JL BUKIT ALAYA KEC SAMARINDA UTARA SAMARINDA,-0.462700000,117.177200000,BCA
INDOMARET BENGKURING SMD JL BENGKURING RAYA NO 131 SAMARINDA,-0.427900000,117.161700000,BCA
"INDOMARET CITRALAND SAMARINDA JL DI PANJAITAN, SAMARINDA",-0.457355000,117.185456000,BCA
PARAPAT CRM 1 JL SM RAJA 52 PARAPAT KEC GIRSANG SIPANGANBOLON KA,2.667036000,98.939242000,BCA
MEGA LAND CRM 1 JL SANGNAWALUH ASAHAN  NO2-3 PEMATANG SIANTAR,2.961887882,99.081546660,BCA
MEGA LAND CRM 2 JL SANGNAWALUH ASAHAN  NO2-3 PEMATANG SIANTAR,2.961887882,99.081546660,BCA
MEGA LAND CRM 3 JL SANGNAWALUH ASAHAN  NO2-3 PEMATANG SIANTAR,2.961887882,99.081546660,BCA
"RAMAYANA PEMATANG SIANTAR JL DR SUTOMO, PEMATANG SIANTAR",2.960070000,99.073540000,BCA
"INDOMARET SUTOMO PTS JALAN SUTOMO KOMPLEK SBC, PEMATANG SIANTAR",2.959740300,99.070155000,BCA
PEMATANG SIANTAR CRM 1 JL MERDEKA NO 39 PEMATANG SIANTAR,2.957319302,99.062449210,BCA
PEMATANG SIANTAR CRM 2 JL MERDEKA NO 39 PEMATANG SIANTAR,2.957319302,99.062449210,BCA
PEMATANG SIANTAR CRM 3 JL MERDEKA NO 39 PEMATANG SIANTAR,2.957319302,99.062449210,BCA
PEMATANG SIANTAR CRM 4 JL MERDEKA NO 39 PEMATANG SIANTAR,2.957319302,99.062449210,BCA
PEMATANG SIANTAR CRM 5 JL MERDEKA NO 39 PEMATANG SIANTAR,2.957319302,99.062449210,BCA
PEMATANG SIANTAR CRM 6 JL MERDEKA NO 39 PEMATANG SIANTAR,2.957319302,99.062449210,BCA
INDOMARET KARTINI SIANTAR CRM 2 JL KARTINI NO 10 TIMBANG PEMATANG SIANTAR,2.957329000,99.057107000,BCA
INDOMARET PATUAN NAGARI PTS CRM 1 JL PATUAN NAGARI SUKADAME PEMATANG SIANTAR,2.970073000,99.067241000,BCA
INDOMARET RAJA SIMPANG RINDAM PTS CRM 1 JL SM RAJA KEL BUKIT SOFA - PEMATANGSIANTAR,2.952999000,99.045250000,BCA
"INDOMARET SIANTAR TEBING TINGGI KM 8,5 JL SIANTAR TEBING TINGGI KM 8,5 KEC TAPIAN DOLOK",2.958479100,99.051203200,BCA
"INDRAPURA, TEBING TINGGI CRM 1 JL JENDSUDIRMAN NO242 KEL INDRAPURASUMUT",3.303880000,99.422826000,BCA
"INDRAPURA, TEBING TINGGI CRM 2 JL JENDSUDIRMAN NO242 KEL INDRAPURASUMUT",3.303880000,99.422826000,BCA
ALFAMART STT TELKOM JL SIKABIRUS DAYEUH KOLOT KAB BANDUNG,6.002617000,107.552615000,BCA
"ALFAMART SM RAJA TBT JL SM RAJA LINGVI, BANDAR SONO, TEBING TINGGI",3.320491400,99.154412400,BCA
"ALFAMART IMAM BONJOL TBT JL IMAM BONJOL NO 19,19 A, PADANG HILIR,  TBT",3.331495100,99.167288900,BCA
ISTANA MOBIL CRM 1 JL SM RAJA 40 BANDARSONO TEBING TINGGI,3.319958300,99.151216700,BCA
TEBING TINGGI CRM 1 JL JEND SUDIRMAN 225-227-229  - TEBING TINGGI,3.332272734,99.160434420,BCA
TEBING TINGGI CRM 2 JL JEND SUDIRMAN 225-227-229  - TEBING TINGGI,3.332272734,99.160434420,BCA
TEBING TINGGI CRM 3 JL JEND SUDIRMAN 225-227-229  - TEBING TINGGI,3.332272734,99.160434420,BCA
TEBING TINGGI CRM 4 JL JEND SUDIRMAN 225-227-229  - TEBING TINGGI,3.332272734,99.160434420,BCA
SEI RAMPAH CRM 1 KOMP RUKO RAMPAH INDAH NO A3 SERDANG BEDAGAI,3.332272734,99.160434420,BCA
SPBU 14.212.261 JL AKSES ROAD KM 10 KUALA TANJANG BATU BARA,3.322188000,99.146791000,BCA
ARIA BARITO HOTEL JL HARYONO MT BANJARMASIN,3.321935000,114.589286000,BCA
RADIO DALAM CRM 4 JL RADIO DALAM RAYA 5 B-C JAKARTA SELATAN,6.115863000,106.906956800,BCA
ALFAMART TANJUNG DUREN JL TANJUNG DUREN RAYA NO 06 JAKARTA BARAT,6.121408900,106.726298000,BCA
"PLUIT CRM 4 KOMPLEK PERKANTORAN LANDMARK PLUIT BLOK A/8, JL PLUIT SELATAN RAYA JAKARTA UTARA",6.124461000,106.799499000,BCA
"PLUIT CRM 5 KOMPLEK PERKANTORAN LANDMARK PLUIT BLOK A/8, JL PLUIT SELATAN RAYA JAKARTA UTARA",6.124461000,106.799499000,BCA
ALFAMART SERDANG JAK PUS JL SERDANG BARU RAYA SERDANG KEMAYORAN JAKPUS,6.160641000,106.864340000,BCA
ALFAMART KAMPUNG PON JL PROTOKOL DSN I DESA SEI BAMBAN KEC SEI BAMBAN SERDANG BEDAGAI,3.456325200,99.145872300,BCA
"INDOMARET TOMANG RAYA 41 1 JL TOMANG RAYA NO 41 KEL TOMANG KEC GROGOL PETAMBURAN, JAKARTA BARAT",6.175953000,106.801077100,BCA
"BUMI PERMATA INDAH CRM 3 JL RADEN SALEH NO 39B, KEL KARANG MULYA, TGR",6.192340600,106.722041300,BCA
INDOMARET KEBON KACANG 30 JL KEBON KACANG 30 NO 19 JAKARTA PUSAT,6.193700000,106.820600000,BCA
GRAHA PAS CIPONDOH GRAHA PAS RUKO BUANA GARDEN BLOK A-36 JL KH HASYIM AHARI CIPONDOH TANGERANG,6.218767900,106.684757300,BCA
"ALFAMART PONDOK KELAPA JL RAYA PONDOK KELAPA B1 1/14, JAKARTA",6.237115100,106.934278800,BCA
TK KAWAN KITA DUA BONTANG JL JEND SUDIRMAN NO 36 BONTANG SELATAN,0.122105000,117.480699300,BCA
"BONTANG CRM 1 RUKO BONTANG TRADE CENTER A16, JL BHAYANGKARA",0.133176922,117.477549900,BCA
"BONTANG CRM 2 RUKO BONTANG TRADE CENTER A16, JL BHAYANGKARA",0.133176922,117.477549900,BCA
"BONTANG CRM 3 RUKO BONTANG TRADE CENTER A16, JL BHAYANGKARA",0.133176922,117.477549900,BCA
"BONTANG CRM 4 RUKO BONTANG TRADE CENTER A16, JL BHAYANGKARA",0.133176922,117.477549900,BCA
"SUPERINDO KALIMALANG CRM JL RAYA KALIMALANG, BEKASI",6.249104000,106.969161000,BCA
TOKO BANJARMAS BONTANG JL RE MARTADINATA NO 03 BONTANG,0.168211300,117.480727600,BCA
"IRIAN SUPERMARKET JL. THAMRIN, TEBING TINGGI",3.563504000,99.007083000,BCA
HOTEL SAGITA JL MAYJEN SUTOYO NO 69 BALIKPAPAN,1.269900000,116.845300000,BCA
INDOMARET PERINTIS KEMERDEKAAN JL. RAYA PUDAK PAYUNG NO. 24  SEMARANG,6.368053800,106.919569300,BCA
"INDOMARET PERBAUNGAN MDN JL. SERDANG 37-39, SERDANG BEDAGAI, MEDAN",3.567300000,98.955200000,BCA
ALFAMART GALANG JL GALANG KEL DESA PAGAR MERBAU DELI SERDANG,3.545200000,98.879800000,BCA
PERBAUNGAN CRM 1 JL SERDANG SERDANG BEDAGAI,3.554546000,98.880464000,BCA
PERBAUNGAN CRM 2 JL SERDANG SERDANG BEDAGAI,3.554546000,98.880464000,BCA
INDOMARET IMAM BONJOL LUBUK PAKAM JL IMAM BONJOL 5 LINGKUNGAN I-II DELI SERDANG,3.555400000,98.879800000,BCA
"DELIMAS LUBUK PAKAM CRM 1 LUBUK PAKAM, MEDAN",3.559670300,98.875547000,BCA
ALFAMART DC TANJUNG MORAWA CRM 1 JL INDUSTRI NO 99 TANJUNG MORAWA DELI SERDANG,3.518600000,98.800100000,BCA
ALFAMART DC TANJUNG MORAWA CRM 1 JL INDUSTRI NO 99 TANJUNG MORAWA DELI SERDANG,3.518600000,98.800100000,BCA
"INDOMARET TANJUNG MORAWA MDN JL. KRAKATAU, MEDAN",3.523900000,98.804000000,BCA
"HOSANA KERAMIK CRM 1 JL MEDAN TANJUNG MORAWA KM 14,5 NO 16 KEC TJ MORAW",3.518288500,98.789723700,BCA
"INDOMARET METRO TANJUNG BUNGA MAKASSAR CRM 1 JL METRO TANJUNG BUNGA BLOK A22, MAKASSAR",-5.174681000,119.390656000,BCA
"TANJUNG BUNGA CRM 1 MALL GTC UA 9-10, JL METRO TANJUNG BUNGA, MAKASSAR",-5.175369000,119.390852000,BCA
INDOMARET TANJUNG BUNGA CRM 2 JL. METRO TANJUNG BUNGA MAKASSAR,-5.175269000,119.390887000,BCA
INDOMARET TANJUNG BUNGA CRM JL. METRO TANJUNG BUNGA MAKASSAR,-5.175269000,119.390887000,BCA
INDOMARET DAHLAN TANJUNG JL DAHLAN TANJUNG NO 37 TG MORAWA,3.519700000,98.787700000,BCA
ALFAMART TAMORA II JL MEDAN LUBUK PAKAM DSN I TJ MORAWA DELI SERDANG,3.531000000,98.799200000,BCA
ALFAMART MONGINSIDI CRM 1 JL MONGINSIDI NO 43 MAKASSAR,-5.162588000,119.393093000,BCA
ALFAMART RATULANGI II CRM 1 JL RATULANGI NO 62 MAKASSAR,-5.162588000,119.393093000,BCA
ALFAMIDI RAPOCINI RAYA II CRM 1 JL RAPOCINI RAYA 87 MAKASSAR,-5.162588000,119.393093000,BCA
"STIE MAKASSAR CRM 1 JL. LETJEN MAPPA ODANG, MAKASSAR",-5.162588000,119.393093000,BCA
INDOMARET LANTO DAENG PASEWANG CRM 1 JL LANTO DAENG PASEWANG NO 15 MAKASSAR,-5.162588000,119.393093000,BCA
INDOMARET ARIF RATE 6 CRM 1 JL ARIF NO 6 KEC UJUNG PANDANG MAKASSAR,-5.162542000,119.393132000,BCA
INDOMARET LAMADUKELLENG MAKASSAR CRM 1 JL LAMADUKELLENG NO46 LOSARI UJUNG PDG MKS,-5.162542000,119.393132000,BCA
BAJI PAMAI SWALAYAN CRM 1 RANGGONG NO 8 KEL BULO GADING,-5.162542000,119.393132000,BCA
ALFAMART CENDRAWASIH II CRM 1 JL CENDRAWASIH NO 388 MAKASSAR,-5.162542000,119.393132000,BCA
ALFAMART CENDRAWASIH III CRM 1 JL CENDRAWASIH NO 204 A-B MAKASSAR,-5.162542000,119.393132000,BCA
"ALFAMIDI KAKATUA CRM 1 JL. KAKATUA, MAKASSAR",-5.162542000,119.393132000,BCA
"ALFAMIDI CENDRAWASIH CRM 1 JL. CENDRAWASIH NO. 289, MAKASAR",-5.162542000,119.393132000,BCA
ALFAMIDI BAROMBONG CRM 1 JL PERMANDIAN ALAM NO 30 BAROMBONG MAKASSAR,-5.162718000,119.393220000,BCA
"INDOMARET METRO TANJUNG BUNGA II MKS CRM 1 JL METRO TANJUNG BUNGA I 6, MAKASSAR",-5.162718000,119.393220000,BCA
"INDOMARET MALOMBASSI MAKASSAR CRM 1 JL MALOMBASSI NO 10, MAKASSAR",-5.162718000,119.393220000,BCA
"ALFAMART TAMORA JL MEDAN MORAWA KM 14,5 NO 128A DELI SERDANG",3.524700000,98.774700000,BCA
"HOTEL GAMMARA 1 JL HM DAENG PATOMPO,METRO TANJUNG BUNGA,MARISO,KAMPUNG BUYANG,MAKASSAR",-5.157500000,119.404500000,BCA
"MALL PHINISI POINT CRM 1 JL METRO TANJUNG BUNGA NO 2, MAKASSAR",-5.152127000,119.404187000,BCA
SOMBA OPU CRM 1 JL PASAR IKAN NO 5-7 MAKASAR,-5.136680000,119.405060000,BCA
SOMBA OPU CRM 2 JL PASAR IKAN NO 5-7 MAKASAR,-5.136680000,119.405060000,BCA
SOMBA OPU CRM 3 JL PASAR IKAN NO 5-7 MAKASAR,-5.136680000,119.405060000,BCA
ALFAMART TANJUNG ALANG CRM 1 JL TANJUNG ALANG NO B3 MAKASSAR,-5.173958000,119.409319000,BCA
"FIREFLIES COFFEE PATTIMURA CRM 1 JL. PATTIMURA, MAKASAR",-5.136035000,119.406543000,BCA
"INDOMARET ABDUL KADIR 1 JL ABDUL KADIR NO 61 BALANGBARU TAMALATE, MAKASSAR",-5.185457900,119.411821500,BCA
ALFAMART DAENG NGEPPE CRM 1 JL DAENG NGEPPE NO 59 MAKASSAR,-5.144939000,119.408480000,BCA
ALFAMIDI MAPPAODANG CRM 1 JL MAPPAODANG NO 64 KEL BUNGAYA MAKASSAR,-5.144939000,119.408480000,BCA
ALFAMART BATANG KUIS IV JL BATANG KUIS PASAR 8 BUNTU BEDIMBAR TANJUNG MORAWA DELI SERDANG,3.542100000,98.783100000,BCA
ALFAMART SULAWESI II CRM 1 JL SULAWESI NO 80 KEL PATTUNUANG KEC WAJO MAKASSAR,-5.129652000,119.407398000,BCA
"ALFAMART HATI MULIA CRM 1 JL KS TUBUN, KEC MARISO, MAKASSAR",-5.162486000,119.411410000,BCA
SULAWESI CRM 1 JL SULAWESI NO 34 KEC WAJO MAKASSAR,-5.127266000,119.408810000,BCA
SULAWESI CRM 2 JL SULAWESI NO 34 KEC WAJO MAKASSAR,-5.127266000,119.408810000,BCA
SULAWESI CRM 3 JL SULAWESI NO 34 KEC WAJO MAKASSAR,-5.127266000,119.408810000,BCA
SULAWESI CRM 4 JL SULAWESI NO 34 KEC WAJO MAKASSAR,-5.127266000,119.408810000,BCA
CIRCLE K CK0102 - CK HASANUDDIN CRM 1 JL SULTAN HASANUDDIN NO 34  MAKASSAR,-5.140174000,119.410144000,BCA
ALFAMART NUSANTARA CRM 1 JL NUSANTARA NO 278 MAKASSAR,-5.124825000,119.409503000,BCA
BONE CRM 1 JL AHMAD YANI NO 169 WATAMPONE KAB BONE,-5.132979000,119.410614000,BCA
BONE CRM 2 JL AHMAD YANI NO 169 WATAMPONE KAB BONE,-5.132979000,119.410614000,BCA
BONE CRM 3 JL AHMAD YANI NO 169 WATAMPONE KAB BONE,-5.132979000,119.410614000,BCA
BONE CRM 4 JL AHMAD YANI NO 169 WATAMPONE KAB BONE,-5.132979000,119.410614000,BCA
INDOMARET SULTAN HASANUDDIN MAKASSAR CRM 1 JL. SULTAN HASANUDDIN NO. 1 MAKASSAR,-5.143433000,119.411658000,BCA
"SANGIR CRM 1 JL SANGIR NO 55, MAKASSAR",-5.125744000,119.410152000,BCA
UJUNG PANDANG CRM 4 JL JEND A YANI 31 - MAKASSAR - 90174,-5.132554000,119.410832000,BCA
UJUNG PANDANG CRM 1 JL JEND A YANI 31 - MAKASSAR - 90174,-5.132893540,119.410870400,BCA
UJUNG PANDANG CRM 3 JL JEND A YANI 31 - MAKASSAR - 90174,-5.132893540,119.410870400,BCA
"CENDRAWASIH CRM 1 JL CENDRAWASIH SQUARE BLOK A/8, MAKASSAR",-5.132893540,119.410870400,BCA
"LATIMOJONG CRM 1 JL GUNUNG LATIMOJONG NO 143, MAKASSAR",-5.132893540,119.410870400,BCA
"LATIMOJONG CRM 2 JL GUNUNG LATIMOJONG NO 143, MAKASSAR",-5.132893540,119.410870400,BCA
ANDALAS CRM 2 JL ANDALAS 75,-5.132893540,119.410870400,BCA
ANDALAS CRM 3 JL ANDALAS 75,-5.132893540,119.410870400,BCA
INDOMARET SANGIR CRM 1 JL. SANGIR NO 76-78 MELAYU WAJO MAKASSAR,-5.126000000,119.410600000,BCA
"PT INDOJAYA AGRINUSA (JAPFA) CRM 1 JL RAYA MEDAN -TJ MORAWA KM 12,8 DELI SERDANG",3.526027400,98.756384100,BCA
HASAMITRA CRM 1 JL DR WAHIDIN SUDIROHUSODO WAJO MAKASSAR,-5.129863000,119.412127000,BCA
CIRCLE K MAPPANYUKI CRM 1 JL MAPPANYUKI NO 14 B MAKASSAR,-5.152231000,119.414569000,BCA
MOBILE ATM MAKASSAR CRM 1 JL JEND A YANI 31 MAKASSAR,-5.133050000,119.413168000,BCA
MOBILE ATM MAKASSAR CRM 2 JL JEND A YANI 31 MAKASSAR,-5.133050000,119.413168000,BCA
"WHIZ PRIME HOTEL JL JEND SUDIRMAN NO 30, MAKASSAR",-5.142300000,119.414400000,BCA
RS SENTOSA JL. JENDRAL SUDIRMAN NO. 44 - MAKASSAR,-5.144500000,119.414900000,BCA
TOKO SATU SAMA MAKASSAR CRM 1 JL LANDAK LAMA NO17 LABUANG BAJI MAMAJANG MAKASSAR,-5.162095700,119.416737400,BCA
JAMENSON'S JL DR W.S HUSODO NO 147-149 MAKASSAR,-5.122873000,119.413202000,BCA
RATULANGI CRM 1 JL RATULANGI NO 7 MAKASSAR,-5.147356000,119.416357000,BCA
RATULANGI CRM 2 JL RATULANGI NO 7 MAKASSAR,-5.147356000,119.416357000,BCA
RATULANGI CRM 3 JL RATULANGI NO 7 MAKASSAR,-5.147356000,119.416357000,BCA
RATULANGI CRM 4 JL RATULANGI NO 7 MAKASSAR,-5.147356000,119.416357000,BCA
"TENTARA PELAJAR CRM 1 JL TENTARA PELAJAR NO 95, MAKASSAR",-5.122310000,119.414046000,BCA
ALFAMART TENTARA PELAJAR MAKASSAR CRM 1 JL TENTARA PELAJAR NO 58 MAKASSAR,-5.122493000,119.414478000,BCA
INDOMARET RATULANGI MAKASSAR CRM 1 JL DR RATULANGI 200 PARANG MAKASSAR,-5.163900000,119.418500000,BCA
"RS JAURY JUSUF PUTRA CRM 1 JL GUNUNG BULU SARAUNG NO 57 A, MAKASSAR",-5.131843000,119.415601000,BCA
"ALFAMART BULUSARAUNG CRM 1 JL.BULUSARAUNG, MAKASSAR",-5.132166300,119.416594700,BCA
ALFAMART GUNUNG MERAPI CRM 1 JL GUNUNG BERAPI KEC UJUNG PANDANG MAKASSAR,-5.139695000,119.417383000,BCA
"ALFAMART SUNGAI SADDANG LAMA CRM 1 JL SUNGAI SADDANG LAMA, MARICAYA, MAKASSAR",-5.146032000,119.418789000,BCA
BANDARA KUALANAMU 1 BANDARA KUALA NAMU DESA BERINGIN KAB DELI SERDANG,3.635000000,98.879400000,BCA
BANDARA KUALANAMU 2 BANDARA KUALA NAMU DESA BERINGIN KAB DELI SERDANG,3.635000000,98.879400000,BCA
ALFAMART VETERAN SELATAN II CRM 1 JL VETERAN SELATAN NO 181 MAKASSAR,-5.162488000,119.421640000,BCA
"INDOMARET DAENG TATA 22, MAKASSAR CRM 1 JL DAENG TATA RAYA NO 22, MAKASSAR",-5.185609000,119.423795000,BCA
ANDALAS CRM 1 JL ANDALAS 75,-5.127065000,119.418529000,BCA
VETERAN CRM 1 JL VETERAN SELATAN NO 369 MAKASSAR,-5.161734000,119.421913000,BCA
"ALFAMART CAKALANG CRM 1 JL. CAKALANG, MAKASAR",-5.117568000,119.417799000,BCA
INDOMARET GUNUNG LATIMOJONG II CRM 1 JL GUNUNG LATIMOJONG LARIANGBANGI MAKASSAR,-5.136621000,119.419997000,BCA
"TOKO HALIM CRM 2 JL G LATIMOJONG NO 141, MAKASSAR",-5.144490000,119.421083000,BCA
"TOKO HALIM CRM 1 JL G LATIMOJONG NO 141, MAKASSAR",-5.144490000,119.421083000,BCA
"PARE-PARE CRM 1 JL A MAKKASAU NO 43, PARE-PARE, SULSEL",-5.140693000,119.420871000,BCA
"PARE-PARE CRM 2 JL A MAKKASAU NO 43, PARE-PARE, SULSEL",-5.140693000,119.420871000,BCA
"PARE-PARE CRM 3 JL A MAKKASAU NO 43, PARE-PARE, SULSEL",-5.140693000,119.420871000,BCA
"PARE-PARE CRM 4 JL A MAKKASAU NO 43, PARE-PARE, SULSEL",-5.140693000,119.420871000,BCA
"PARE-PARE CRM 5 JL A MAKKASAU NO 43, PARE-PARE, SULSEL",-5.140693000,119.420871000,BCA
"ALFAMART LANDAK MAKASAR CRM 1 JL. LANDAK BARAT NO. 54, MAKASAR",-5.163661000,119.423337000,BCA
ALFAMART BANDANG CRM 1 JL BANDANG NO 64 MAKASSAR,-5.128627000,119.420078000,BCA
MARICAYA CRM 1 JL VETERAN SELATAN NO 86 MAKASSAR,-5.158312000,119.423010000,BCA
MARICAYA CRM 2 JL VETERAN SELATAN NO 86 MAKASSAR,-5.158312000,119.423010000,BCA
MARICAYA CRM 3 JL VETERAN SELATAN NO 86 MAKASSAR,-5.158312000,119.423010000,BCA
MARICAYA CRM 4 JL VETERAN SELATAN NO 86 MAKASSAR,-5.158312000,119.423010000,BCA
MARICAYA CRM 5 JL VETERAN SELATAN NO 86 MAKASSAR,-5.158312000,119.423010000,BCA
MARICAYA CRM 6 JL VETERAN SELATAN NO 86 MAKASSAR,-5.158312000,119.423010000,BCA
ALFAMIDI VETERAN SELATAN CRM 1 JL VETERAN SELATAN NO 73 MAKASSAR,-5.155869000,119.424038000,BCA
BAMBINI CRM 1 JLN MESJID RAYA NO. 68 MAKASAR,-5.131023100,119.421988200,BCA
ALFAMIDI SUNGAI SA'DANG JL SUNGAI SA'DANG LAMA NO 102 MAKASSAR,-5.146695000,119.423795000,BCA
"VETERAN, UPG CRM 1 JL VETERAN UTARA KOMP RUKO LATIMOJONG SQUARE BLOK F NO 8-9 MAKASSAR",-5.139589000,119.423462000,BCA
"VETERAN, UPG CRM 2 JL VETERAN UTARA KOMP RUKO LATIMOJONG SQUARE BLOK F NO 8-9 MAKASSAR",-5.139589000,119.423462000,BCA
"VETERAN, UPG CRM 3 JL VETERAN UTARA KOMP RUKO LATIMOJONG SQUARE BLOK F NO 8-9 MAKASSAR",-5.139589000,119.423462000,BCA
"VETERAN, UPG CRM 4 JL VETERAN UTARA KOMP RUKO LATIMOJONG SQUARE BLOK F NO 8-9 MAKASSAR",-5.139589000,119.423462000,BCA
"VETERAN, UPG CRM 5 JL VETERAN UTARA KOMP RUKO LATIMOJONG SQUARE BLOK F NO 8-9 MAKASSAR",-5.139589000,119.423462000,BCA
"VETERAN, UPG CRM 6 JL VETERAN UTARA KOMP RUKO LATIMOJONG SQUARE BLOK F NO 8-9 MAKASSAR",-5.139589000,119.423462000,BCA
"VETERAN, UPG CRM 7 JL VETERAN UTARA KOMP RUKO LATIMOJONG SQUARE BLOK F NO 8-9 MAKASSAR",-5.139589000,119.423462000,BCA
"INDOMARET SABUTUNG MAKASSAR CRM 1 JL SABUTUNG PAOTERENO 122 GUSUNG, UJUNG TENGAH MAK",-5.111986000,119.421378000,BCA
"INDOMARET VETERAN UTARA 82 CRM 1 JL SUNGAI LIMBOTO NO 82, MAKASSAR",-5.142600000,119.424300000,BCA
ALFAMIDI MANURUKI CRM 1 JL MANURUKI RAYA NO 22 MAKASSAR,-5.175451000,119.429867000,BCA
INDOMARET PANAMPU CRM 1 JL PANAMPU TALLO MAKASSAR,-5.117282000,119.424463000,BCA
INDOMARET SULTAN ALAUDIN JL SULTAN ALAUDIN PA'BAENG BAENG MAKASSAR,-5.173854000,119.430195000,BCA
INDOMARET GUNUNG BAWAKARENG 206 CRM 1 JL GUNUNG BAWAKARAENG NO 206 MAKASSAR,-5.135239000,119.427044000,BCA
ALFAMIDI MALENGKERI CRM 1 JL MALENGKERI RAYA NO 146 MAKASSAR,-5.187654000,119.432844000,BCA
"ALFAMIDI KERUNG-KERUNG CRM 1 JL. KERUNG-KERUNG NO. 70 ABC, MAKASSAR",-5.140458000,119.428587000,BCA
INDOMARET BONTO SUNGGU 31 CRM 1 JL BONTO SUNGGU NO 31 MANURUKI TAMALATE MKS,-5.168097000,119.431889000,BCA
"HOTEL CLARION JL. A.P PETTARANI NO.3, MAKASSAR",-5.169428000,119.433427000,BCA
"INDOMARET PONG TIKU CRM 1 JL. BOULEVARD, MAKASSAR",-5.132225000,119.430195000,BCA
"TOSERBA MASLIM MAKASSAR CRM JL. PERINTIS KEMERDEKAAN, MAKASSAR",-5.125300000,119.429600000,BCA
"INDOMARET SUNU 174 MAKASSAR CRM 1 JL SUNU LR 1 A, SUWANGGA, TALLO MAKASSAR",-5.121405000,119.430405000,BCA
ALFAMART URIP SUMOHARJO MAKASSAR CRM 1 JL URIP SUMOHARJO NO 244-246 KARUWISI UTARA,-5.135238000,119.432395000,BCA
INDOMARET PELITA RAYA CRM 1 JL PELITA RAYA NO 7 MAKASSAR,-5.154137000,119.435264000,BCA
BENTENG MART MAKASSAR CRM 1 JL GALANGAN KAPAL NO 1 MAKASSAR,-5.109988000,119.431333000,BCA
"SPBU PETARANI CRM 1 JL. PETARNI NO.31, MAKASSAR",-5.156647000,119.436317000,BCA
"FAJAR GRAHA PENA CRM 1 JL. URIP SUMOHARJO 20, MAKASSAR",-5.156696000,119.436331000,BCA
"ALAUDDIN CRM 1 JL SULTAN ALAUDDIN NO 219, KEL GUNUNG SARI, KEC RA",-5.177565800,119.438802300,BCA
ALFAMIDI URIP MAKASSAR CRM 1 JL URIP SUMOHARJO NO 54 MAKASSAR,-5.135710000,119.435483000,BCA
INDOMARET ALAUDIN PLAZA OFFICE CRM 1 JL SULTAN ALAUDIN KEL GUNUNG SARI MAKASSAR,-5.179903000,119.440195000,BCA
"GRAHA PETTARANI MAKASSAR CRM 1 JL AP PETTARANI NO 47, MAKASSAR",-5.151721000,119.437759000,BCA
HOTEL ASIA JL. PENGAYOMAN NO. 5 MAKASAR,-5.157853000,119.438490000,BCA
"GIANT SULTAN ALAUDDIN CRM 1 JL. SULTAN ALAUDDIN NO. 267, MAKASSAR",-5.183609000,119.440870000,BCA
"SPBU 74.902.95 TALASALAPANG CRM 1 JL SULTAN ALAUDDIN NO 258, MAKASSAR",-5.181658000,119.440742000,BCA
"SPBU COCO 7190202 GATOT SUBROTO MKS CRM 1 JL GATOT SUBROTO,UJUNG PANDANG BARU TALLO MKS",-5.118697000,119.434960000,BCA
SANGATTA CRM 1 JL YB SUDARSO III NO 32 SANGATTA SAMARINDA,0.510046441,117.535530600,BCA
SANGATTA CRM 2 JL YB SUDARSO III NO 32 SANGATTA SAMARINDA,0.510046441,117.535530600,BCA
SANGATTA CRM 3 JL YB SUDARSO III NO 32 SANGATTA SAMARINDA,0.510046441,117.535530600,BCA
INDOMARET PETTARANI CRM 1 JL ANDI PANGERAN PETTARANI NO 27 MAKASSAR,-5.146394000,119.438208000,BCA
"INDOMARET DELI TUA MDN CRM 1 JL BESAR DELI TUA LINGK DELI TUA , MEDAN",3.495453000,98.681834000,BCA
"PANAKUKANG CRM 4 JL BOULEVARD BLOK F5 NO 5, MAKASSAR",-5.155697400,119.439466950,BCA
"PANAKUKANG CRM 6 JL BOULEVARD BLOK F5 NO 5, MAKASSAR",-5.155697400,119.439466950,BCA
"PANAKUKANG CRM 1 JL BOULEVARD BLOK F5 NO 5, MAKASSAR",-5.155697400,119.439466950,BCA
"PANAKUKANG CRM 2 JL BOULEVARD BLOK F5 NO 5, MAKASSAR",-5.155697400,119.439466950,BCA
"PANAKUKANG CRM 3 JL BOULEVARD BLOK F5 NO 5, MAKASSAR",-5.155697400,119.439466950,BCA
HERTASNING CRM 2 JL TUN ABDUL RAZAK KOMP CITRALAND MAKASSAR,-5.155697400,119.439467000,BCA
"ALFAMIDI DC AMPLAS MEDAN JL MG MANURUNG NO 8A, MEDAN AMPLAS, MEDAN",3.537300000,98.730800000,BCA
"PETARANI CRM 1 JL AP A-B, PETARANI NO 18, MAKASSAR",-5.144710930,119.438599100,BCA
"PETARANI CRM 2 JL AP A-B, PETARANI NO 18, MAKASSAR",-5.144710930,119.438599100,BCA
ALFAMIDI KORBAN 40 RIBU JIWA CRM 1 JL KORBAN 40 RIBU JIWA NO 177 MAKASSAR,-5.122760000,119.436730000,BCA
"ALFAMIDI EMY SAELAN CRM 1 JL MONUMEN EMY SAELAN, MAKASSAR",-5.173908000,119.442112000,BCA
SPBU 71.902.02 PETTARANI UTARA CRM 2 JL A P PETTARANI NO 19,-5.141454000,119.439372000,BCA
SPBU 71.902.02 PETTARANI UTARA CRM 1 JL A P PETTARANI NO 19,-5.141454000,119.439372000,BCA
INDOMARET PALANGGA GOWA JL PALLANGGA KEL ROMANG LOMPOA GOWA,-5.218212000,119.446927000,BCA
"INDOMARET PETTARANI 51 MAKASSAR CRM 1 JL AP PETTARANI NO 53, MAKASSAR",-5.144692000,119.440361000,BCA
SUNGGUMINASA CRM 1 JL SULTAN HASANUDIN NO 167-169 GOWA MAKASSAR,-5.197018000,119.445532000,BCA
SUNGGUMINASA CRM 2 JL SULTAN HASANUDIN NO 167-169 GOWA MAKASSAR,-5.197018000,119.445532000,BCA
SUNGGUMINASA CRM 3 JL SULTAN HASANUDIN NO 167-169 GOWA MAKASSAR,-5.197018000,119.445532000,BCA
SUNGGUMINASA CRM 4 JL SULTAN HASANUDIN NO 167-169 GOWA MAKASSAR,-5.197018000,119.445532000,BCA
INDOMARET YOS SUDARSO III SANGATTA JL YOS SUDARSO III KABKUTAI TIMUR,0.531782000,117.526006300,BCA
"PANAKUKANG CRM 5 JL BOULEVARD BLOK F5 NO 5, MAKASSAR",-5.115861000,119.439162000,BCA
"ALFAMIDI PALLANGGA JL POROS PALLANGGA NO 8, KEL MANGALLI, KEC PALLANGGA, GOWA",-5.216354000,119.448666000,BCA
ALFAMIDI TAMALATE CRM 1 JL TAMALATE 1 NO 1 MAKASSAR,-5.172825000,119.445230000,BCA
INDOMARET ABDUL DAENG SIRUA CRM 1 JL ABDUL DAENG SIRUA KEL MASALE MAKASSAR,-5.150404000,119.443329000,BCA
ALFAMIDI HERTASNING CRM 1 JL HERTASNING RAYA NO 57 MAKASSAR,-5.162908000,119.444642000,BCA
"PLANET BECKHAM 18 JL POROS PALLANGGA, GOWA",-5.215294000,119.449730000,BCA
"RS GRESTELINA JL. HERTASNING, MAKASSAR",-5.163431000,119.445246000,BCA
CIRCLE K PENGAYOMAN MKS0301 CRM 1 JL PENGAYOMAN NO 39 KEL MASLE KEC PANAKUKANG MAKAS,-5.158657000,119.444848000,BCA
ALFAMART BOULEVARD CRM 1 JL BOULEVARD JASPER II NO 36-37 MAKASSAR,-5.139676000,119.443432000,BCA
"INDOMARET TAMALATE RAYA CRM 1 JL TAMALATE, KASSI-KASSI, RAPPOCINI, MAKASSAR",-5.169378000,119.446379000,BCA
MALL PANAKKUKANG CRM 1 JL BOULEVARD MASALE PANAKKUKANG MAKASSAR,-5.158081000,119.446331000,BCA
MALL PANAKKUKANG CRM 2 JL BOULEVARD MASALE PANAKKUKANG MAKASSAR,-5.158081000,119.446331000,BCA
ALFAMART MARENDAL JL STASIUN NO 38 MARENDAL PATUMBAK DELI SERDANG,3.518500000,98.698100000,BCA
MALL PANAKKUKANG CRM 3 JL BOULEVARD MASALE PANAKKUKANG MAKASSAR,-5.158667000,119.446725000,BCA
MALL PANAKKUKANG CRM 4 JL BOULEVARD MASALE PANAKKUKANG MAKASSAR,-5.158667000,119.446725000,BCA
ALFAMART MESJID RAYA GOWA JL MESJID RAYA GOWA RT 02/07 S MINASA GOWA,-5.203120000,119.450893000,BCA
"INDOMARET PENGAYOMAN BOUGENVILLE CRM 1 JL PENGAYOMAN, MAKASSAR - SULAWESI SELATAN",-5.159703000,119.447048000,BCA
INDOMARET TALASALAPANG 105 CRM 1 JL TALASALAPANG NO 105-107 MAKASSAR,-5.184396000,119.450732000,BCA
SWISS BELINN JL ADHYAKSA BARU NO 55 MAKASSAR,-5.156789000,119.448409000,BCA
BPR HASAMITRA GOWA CRM 1 JL KH WAHID HASYIM NO 169 MAKASSAR,-5.208037000,119.453188000,BCA
"EBC PANAKUKANG CRM 1 JL ADIYAKSA, KOMPLEK PANAKUKANG MAS, MAKASSAR",-5.159436000,119.448806000,BCA
"EBC PANAKUKANG CRM 2 JL ADIYAKSA, KOMPLEK PANAKUKANG MAS, MAKASSAR",-5.159436000,119.448806000,BCA
INDOMARET TODDOPULI RAYA MKS CRM 1 JL TODDOPULI RAYA NO 36 MAKASSAR,-5.165333000,119.450336000,BCA
"PENGAYOMAN CRM 1 JL PENGAYOMAN RUKO ALFA NO 11, MAKASSAR",-5.160799000,119.450202000,BCA
CARREFOUR MAKASSAR PANAKKUKANG CRM 1 JL. PENGAYOMAN PANAKUKANG MAS UJUNG PANDANG,-5.160972000,119.450702000,BCA
ALFAMIDI URIP III CRM 1 JL URIP SUMOHARJO NO 25 A-B-C MAKASSAR,-5.139517000,119.448989000,BCA
ALFAMIDI HERTASNING II CRM 1 JL HERTASNING BARU NO 10 MAKASSAR,-5.170829000,119.452151000,BCA
ALFAMART TODDOPULI RAYA II CRM 1 JL TODDOPULI RAYA NO 59 MAKASSAR,-5.163908000,119.452017000,BCA
TOKO AZA CARLOS JL. BAU MASSEPE NO. 175 / 417 PAREPARE,-5.162021267,119.451946200,BCA
ALFAMIDI AMPLAS JL PANGLIMA DENAL KEL AMPLAS MEDAN,3.541100000,98.716900000,BCA
"ALFAMIDI POROS MALINO CRM 1 JL POROS MALINO NO 28, GOWA",-5.210246000,119.456816000,BCA
INDOMARET DIDI SUKARDI SUKABUMI JL DIDI SUKARDI NO 170 SUKABUMI,6.932820000,106.932020000,BCA
ALFAMART BABAKAN CIPARAY JL BABAKAN CIPARAY NO 146 BANDUNG,6.936218200,107.584268100,BCA
ALFAMART RIUNG BANDUNG JL RIUNG ARUM NO 45 BANDUNG,6.943754500,107.681567600,BCA
ALFAMART ADHYAKSA BUAH BATU JL ADHYAKSA RUKO APARTEMEN BUAH BATU BANDUNG,6.965102400,107.537999600,BCA
ALFAMIDI SE 58 A YANI SIDRAP JL AHMAD YANI NO 62 SIDRAP,-3.924305798,119.797085400,BCA
"SPBU DODO 74.918.02 TORAJA UTARA 1 JL POROS MAKALE-RANTEPAO, TORAJA UTARA",-3.003489000,119.874126000,BCA
SPBU BUJANGGA TANJUNG REDEB JL. BUJANGGA NO. 4 TANJUNG REDEB - BERAU,2.152564825,117.483846300,BCA
BERAU COAL JL PULAU DERAWAN KEC TANJUNG REDEB BERAU TARAKAN,2.153994900,117.489423800,BCA
CV SUMBER JAYA ABADI JL H ISA II RT 018 KEC TANJUNG REDEB,2.153089300,117.499706100,BCA
"ALFAMIDI VETERAN BONE JL VETERAN, WATAMPONE, TANETTE RIATTANG, BONE",-4.529932400,120.319344600,BCA
"ALFAMIDI BESSE KAJUARA JL BESSE KAJUARA, JEPEE, TANTTER RIATTANG BARAT, BONE",-4.540928900,120.321848400,BCA
"TOKO BARU JL. DR. RATULANGI NO. 32, PALOPO",-2.991861300,120.188441500,BCA
"ALFAMIDI SE86 RATULANGI PALOPO JL RATULANGI RT 01/03, BALANDAI, BARA, PALOPO",-2.962582700,120.182624800,BCA
PALOPO CRM 1 JL DURIAN II BLOK B 1-3 - PALOPO,-3.002871446,120.194544261,BCA
PALOPO CRM 2 JL DURIAN II BLOK B 1-3 - PALOPO,-3.002871446,120.194544300,BCA
PALOPO CRM 3 JL DURIAN II BLOK B 1-3 - PALOPO,-3.002871446,120.194544300,BCA
ALFAMIDI SE93 JEND SUDIRMAN II PALOPO JL JEND SUDIRMAN BENTENG WAARA TIMUR PALOPO,-2.996125200,120.193904800,BCA
"TELKOM PALOPO JL. ANDI DJEMMA, PALOPO",-2.994679568,120.195017700,BCA
"TOKO SINAR BANGUNGAN JL. JENDRAL SUDIRMAN NO. 54, PALOPO",-3.010316000,120.203186000,BCA
ORION CRM 1 JL EMI SAELAN NO 17 PALU,-0.913607800,119.841934200,BCA
"SILAE BEACH JL. MALONDA, PALU",-0.876915068,119.836397400,BCA
PALU GRAND MALL 1 JL CUMI-CUMI PALU,-0.883223000,119.843361000,BCA
SMART KITCHEN JL IG NGURAH RAI PALU,-0.922647000,119.862358000,BCA
ALFAMIDI SIS AL JUFRI PALU 1 JL SIS AL JUFRI PALU,-0.903652000,119.859410000,BCA
SWALAYAN HOKKY JL KIMAJA NO 58A PALU,-0.892104000,119.864226000,BCA
ALFAMIDI TOWUA PALU JL TOWUA PALU,-0.925890000,119.880534000,BCA
GATSUMAYA JL MASJID RAYA PALU,-0.900765100,119.872570400,BCA
GATSUMAYA 2 JL MASJID RAYA PALU,-0.898568200,119.871875400,BCA
"PALU CRM 1 JL MOH HATTA 29, PALU",-0.896691000,119.875709000,BCA
"PALU CRM 2 JL MOH HATTA 29, PALU",-0.896691000,119.875709000,BCA
"PALU CRM 3 JL MOH HATTA 29, PALU",-0.896691000,119.875709000,BCA
"PALU CRM 4 JL MOH HATTA 29, PALU",-0.896691000,119.875709000,BCA
"PALU CRM 5 JL MOH HATTA 29, PALU",-0.896691000,119.875709000,BCA
PALU SELATAN CRM 1 JL BASUKI RAHMAT 14 PALU,-0.896691000,119.875709000,BCA
PALU SELATAN CRM 2 JL BASUKI RAHMAT 14 PALU,-0.896691000,119.875709000,BCA
PALU SELATAN CRM 3 JL BASUKI RAHMAT 14 PALU,-0.896691000,119.875709000,BCA
PALU BARAT CRM 1 JL SUNGAI MALEI 35 PALU,-0.919258000,119.885141000,BCA
PALU BARAT CRM 2 JL SUNGAI MALEI 35 PALU,-0.919258000,119.885141000,BCA
PALU BARAT CRM 3 JL SUNGAI MALEI 35 PALU,-0.919258000,119.885141000,BCA
ATM CENTER SAMSAT PALU 1 JL RA KARTINI PALU,-0.901114000,119.878794000,BCA
SUPERMARKET BUMI NYIUR JL. S. PARMAN - PALU,-0.888955689,119.877147700,BCA
"GRAND HERO SWALAYAN JL. BASUKI RAHMAT NO. 31, PALU",-0.916185000,119.889056000,BCA
ALFAMIDI HANG TUAH PALU 1 JL HANG TUAH PALU,-0.877756100,119.874643500,BCA
SWALAYAN FITRA JL DEWI SARTIKA NO 84C PALU,-0.929990000,119.897039000,BCA
ALFAMIDI VETERAN I PALU 1 JL VETERAN PALU,-0.899544800,119.897229000,BCA
"BANDARA MUTIARA PALU BANDARA MUTIARA, PALU",-0.917711000,119.906963000,BCA
"ALFAMIDI TONDO JL TRANS SULAWESI, TONDO, PALU TIMUR, PALU",-0.853469500,119.881528400,BCA
"ALFAMIDI SISINGAMANGARAJA II JL SISINGAMANGARAJA, PALU",-0.847903000,119.891681000,BCA
ALFAMIDI MAMBORO II 1 JL TRANS SULAWESI PALU,-0.787931000,119.872642000,BCA
HARTONO MALL YOGYAKARTA 3 JL RINGROAD UTARA CONGDONGCATUR DEPOK SLEMAN,7.604175400,110.135250000,BCA
CIRCLE K CK0102 PARANGTRITIS JL PARANGTRITIS NO 98 YOGYAKARTA,7.604175400,110.135250000,BCA
CIRCLE K CK0104 SUDIRMAN JL JENDRAL SUDIRMAN NO 40 YOGYAKARTA,7.604175400,110.135250000,BCA
"SUPERINDO GUMPANG SUKOHARJO JL SLAMET RIYADI, NGADIREJO, KARTASURA, SUKOHARJO",7.558696000,110.748562000,BCA
HOTEL NANO JL AHMAD YANI NO 288 SURAKARTA,7.549828000,110.816094000,BCA
ATIA NEW HOTEL 1 JL YOS SUDARSO 11 RT 13 KEL SELUMIT KEC TARAKAN TENGAH,3.297512500,117.584499900,BCA
"TANJUNG REDEB CRM 1 JL MANGGA 2 RT 10 TJ REDEB, BERAU",3.295983000,117.587348000,BCA
"TANJUNG REDEB CRM 2 JL MANGGA 2 RT 10 TJ REDEB, BERAU",3.295983000,117.587348000,BCA
"TANJUNG REDEB CRM 3 JL MANGGA 2 RT 10 TJ REDEB, BERAU",3.295983000,117.587348000,BCA
"TANJUNG REDEB CRM 4 JL MANGGA 2 RT 10 TJ REDEB, BERAU",3.295983000,117.587348000,BCA
TARAKAN CRM 1 JL YOS SUDARSO NO 8 TARAKAN KALIMANTAN TIMUR,3.295983000,117.587348000,BCA
TARAKAN CRM 2 JL YOS SUDARSO NO 8 TARAKAN KALIMANTAN TIMUR,3.295983000,117.587348000,BCA
TARAKAN CRM 3 JL YOS SUDARSO NO 8 TARAKAN KALIMANTAN TIMUR,3.295983000,117.587348000,BCA
TARAKAN CRM 4 JL YOS SUDARSO NO 8 TARAKAN KALIMANTAN TIMUR,3.295983000,117.587348000,BCA
TARAKAN CRM 5 JL YOS SUDARSO NO 8 TARAKAN KALIMANTAN TIMUR,3.295983000,117.587348000,BCA
TARAKAN CRM 6 JL YOS SUDARSO NO 8 TARAKAN KALIMANTAN TIMUR,3.295983000,117.587348000,BCA
IT PLAZA TARAKAN CRM 1 JL GAJAH MADA NO 2 RT 2 KEL KR ANYAR TARAKAN,3.304001000,117.585297000,BCA
PARADISE HOTEL JL MULAWARMAN NO 21 TARAKAN BARAT TARAKAN,3.310895974,117.581572700,BCA
S-MART CRM 1 JL MULAWARMAN TARAKAN BARAT TARAKAN,3.314812000,117.579653000,BCA
"NU STORE CRM 1 JL JEND SUDIRMAN, TARAKAN",3.310959000,117.590430000,BCA
"SINAR TERANG BERSAUDARA CRM 1 JL KUSUMA BANGSA NO31 TARAKAN, KALTARA",3.305065300,117.606593000,BCA
"SINAR TERANG BERSAUDARA CRM 1 JL KUSUMA BANGSA NO31 TARAKAN, KALTARA",3.310082000,117.607031000,BCA
"INTRA CAWOOD JL. AKI PINKA KEL. JUANTA PERMAI, KEC TARAKAN UTARA, KALTARA",3.300466000,117.631081300,BCA
"JUWATA LAUT CRM 1 JL PANGERAN AJI ISKANDAR, JUWATA LAUT, TARAKAN UTARA",3.430326100,117.541056900,BCA
"INDOMARET SUNAN DRAJAD LAMONGAN JL. KH HASYIM ASHARI, LAMONGAN",7.123600000,112.415000000,BCA
TANJUNG BUMI 1 BANGKALAN CRM 1 JL RAYA PASESEH KEC TANJUNG BUMI KAB BANGKALAN,6.891320000,113.083345000,BCA
INDOMARET TIDAR SBY CRM 2 JL TIDAR NO 99 KEL PETEMON SURABAYA,7.257000000,112.723700000,BCA
SPBU TUAH CITRA 13.243.401 ALUE AWE 1 JL MEDAN - BANDA ACEH ALUE AWE LHOKSEUMAWE,5.133715200,97.148947000,BCA
SPBU SOFYAN HASAN 14.243.490 CRM 1 JL MERDEKA SIMPANG EMPAT KOTA LHOKSEUMAWE,5.179294000,97.146621000,BCA
LHOKSEUMAWE CRM 1 JL MERDEKA 13-14 - LHOKSEUMAWE,5.181340000,97.143074000,BCA
LHOKSEUMAWE CRM 2 JL MERDEKA 13-14 - LHOKSEUMAWE,5.181340000,97.143074000,BCA
LHOKSEUMAWE CRM 3 JL MERDEKA 13-14 - LHOKSEUMAWE,5.181340000,97.143074000,BCA
ARIFA MART CRM 1 JL BANDA ACEH - MDN DSN ARONGAN GP BLANG PULO KEC,5.210806000,97.070301000,BCA
"SUPERINDO SINGOSARI MALANG JL. RAYA PANGLIMA SUDIRMAN, MALANG",7.901017000,112.662513000,BCA
BLIMBING CRM 2 JL A YANI 183 - MALANG - 65125,7.938184000,112.643566000,BCA
BLIMBING CRM 3 JL A YANI 183 - MALANG - 65125,7.938184000,112.643566000,BCA
BLIMBING CRM 4 JL A YANI 183 - MALANG - 65125,7.938184000,112.643566000,BCA
KAWI CRM 4 JL KAWI ( ATAS ) 36 - MALANG - 65116,7.957233000,112.619835000,BCA
"GALUNGGUNG, MLG CRM 1 JL GALUNGGUNG NO 65/11 & 65/A1, MALANG",7.967335000,112.613391000,BCA
"GALUNGGUNG, MLG CRM 2 JL GALUNGGUNG NO 65/11 & 65/A1, MALANG",7.967335000,112.613391000,BCA
"GALUNGGUNG, MLG CRM 3 JL GALUNGGUNG NO 65/11 & 65/A1, MALANG",7.967335000,112.613391000,BCA
KAWI CRM 1 JL KAWI ( ATAS ) 36 - MALANG - 65116,7.975233000,112.619835000,BCA
KAWI CRM 2 JL KAWI ( ATAS ) 36 - MALANG - 65116,7.975233000,112.619835000,BCA
KAWI CRM 3 JL KAWI ( ATAS ) 36 - MALANG - 65116,7.975233000,112.619835000,BCA
MOBILE ATM MALANG 1 JL JEND BASUKI RACHMAD NO 70-74 MALANG,7.954650000,112.699181000,BCA
MOBILE ATM MALANG 2 JL JEND BASUKI RACHMAD NO 70-74 MALANG,7.954650000,112.699181000,BCA
"BANDARA HALUOLEO JL. BANDARA HALUOLEO, KENDARI",-4.077245820,122.417221100,BCA
BAUBAU CRM 1 JL BETOAMBARI NO 68 BAUBAU,-5.469009000,122.590411000,BCA
BAUBAU CRM 2 JL BETOAMBARI NO 68 BAUBAU,-5.469009000,122.590411000,BCA
"SPBU HJ NURMIATY JL PROF M YAMIN NO 1, PUWATU, KENDARI",-3.968378700,122.441420900,BCA
"INTAN BUILDING CENTER ( IBC ) CRM 1 JL BUDI UTOMO NO 90 BATARAGURU WOLIO, KENDARI",-5.466025000,122.605108300,BCA
"HOTEL CALISTA BAU BAU 1 JL YOS SUDARSO NO 21, BAU BAU",-5.455225200,122.605564400,BCA
"SPBU H BAA JL SULTAN HASANUDDIN, RT 02 RW 03, KEL BATULO, KEC WOLIO, BAU BAU",-5.460089000,122.616991000,BCA
PLAZA KUBRA KENDARI JL SUPU YUSUF 19 KENDARI,-4.052796000,122.483934000,BCA
SUPERMARKET MGM CRM 1 JL POROS LEPO-LEPO KENDARI,-4.036344600,122.490877500,BCA
SWALAYAN MITRA MART KENDARI JL DI PANJAITAN NO 30 KENDARI,-4.027516200,122.498607500,BCA
"INDOMARET A YANI KENDARI 1 JL AHMAD YANI NO 125A-125B,PANDOMBAE,KADIA, KENDARI",-3.991842900,122.503028000,BCA
SANYA SWALAYAN JL JEND A YANI NO 18 KENDARI,-3.986780000,122.503018000,BCA
"FRESH HOUSE KENDARI CRM 1 JL DI PANJAITAN KENDARI , SULAWESI TENGGARA",-3.986780000,122.503018000,BCA
"SWALAYAN RABAM CRM JL A YANI NO 117, KENDARI",-3.981354100,122.507876400,BCA
"AYAM PENYET RIA JL SAO-SAO NO 243, KENDARI",-3.985317800,122.511808100,BCA
KENDARI CRM 1 JL MT HARYONO NO 95 KENDARI,-3.999757000,122.520476000,BCA
KENDARI CRM 2 JL MT HARYONO NO 95 KENDARI,-3.999757000,122.520476000,BCA
KENDARI CRM 3 JL MT HARYONO NO 95 KENDARI,-3.999757000,122.520476000,BCA
KENDARI CRM 4 JL MT HARYONO NO 95 KENDARI,-3.999757000,122.520476000,BCA
KENDARI CRM 5 JL MT HARYONO NO 95 KENDARI,-3.999757000,122.520476000,BCA
KENDARI CRM 6 JL MT HARYONO NO 95 KENDARI,-3.999757000,122.520476000,BCA
HOLLYWOOD STUDIO CRM 1 JL SARANANI KOMPLEKS HOLLYWOOD SQUARE KENDARI,-3.965150000,122.517473000,BCA
PATAPULO TRAVEL JL. DRS. H. ABD. SILONDAE - KENDARI - 93111,-3.965150000,122.517473000,BCA
DEPO TEHNIK DAN BANGUNAN JL ABD SILONDAE KENDARI,-3.961770450,122.520547800,BCA
MANDONGA CRM 1 JL SAM RATULANGI NO 10A-B KENDARI,-3.961669000,122.522959000,BCA
MANDONGA CRM 2 JL SAM RATULANGI NO 10A-B KENDARI,-3.961669000,122.522959000,BCA
MANDONGA CRM 3 JL SAM RATULANGI NO 10A-B KENDARI,-3.961669000,122.522959000,BCA
MANDONGA CRM 5 JL SAM RATULANGI NO 10A-B KENDARI,-3.961669000,122.522959000,BCA
MANDONGA CRM 4 JL SAM RATULANGI NO 10A-B KENDARI,-3.961669000,122.522959000,BCA
SUPERMARKET MEGROS CRM 1 JL MARTANDU KENDARI,-4.008523000,122.534654000,BCA
SWALAYAN MARINA KENDARI JL BUNGGASI KENDARI,-4.001348300,122.534135500,BCA
SWISS HOTEL JL. BYPASS - KENDARI,-3.968884000,122.531548000,BCA
"INDOGROSIR KENDARI JL MADUSILA, KEL ANDUONOHU, KEC POASIA, KENDARI",-3.994555700,122.540426300,BCA
"INDOMARET KEMARAYA JL MAYJEND SOETOYO, KEL WATU, KEC KENDARI BARAT, KOTA KENDARI",-3.962889300,122.540483000,BCA
GRAND CIKINI RESTO 1 JL SULTAN HASANUDDIN NO 25 KENDARI,-3.996735700,122.561811000,BCA
PELABUHAN SAMUDRA JL SAMUDRA NO1 KOMP PELABUHAN SAMUDRA KENDARI,-3.966943457,122.562243900,BCA
INDOMARET MATANG GEULUMPANG DUA JALAN MEDAN BANDA ACEH,5.395964600,95.922658900,BCA
"INDOMARET BUMI CITRA FAJAR SIDOARJO JL SEKAWAN HARUM A NO 1, SIDOARJO",-7.457881300,122.728306000,BCA
"D BLITZ HOTEL KENDARI JL IR H ALALA 77 BY PASS KENDARI, SULAWESI TENGGARA",-3.969351000,122.577037000,BCA
"TOKO DAMAI CRM 1 JL PEMBANGUNAN NO 1, SANUA, KENDARI BARAT, KENDARI",-3.970976000,122.577434000,BCA
"ALFAMIDI PAYAN PABEAN JL. ABD. RACHMAN 105, SIDOARJO",-7.367771000,122.757721000,BCA
INDOMARET SEDATI GEDE JL. RAYA PABEAN SEDATI SIDOARJO,-7.379313000,122.762411000,BCA
INDOMARET TAMBAK REJO II SIDOARJO JL TAMBAK REJO SIDOARJO,-7.255061000,122.777555000,BCA
INDOMARET KEJAWAN LOR SURABAYA JL KEJAWAN LOR NO 02 BULAK KODYA SURABAYA,-7.231764000,122.793068000,BCA
INDOMARET TAMAN MAKAM PAHLAWAN BANDUNG CRM 1 JL TAMAN MAKAM PAHLAWAN PEUNITI BANDA ACEH,5.090950000,95.328551000,BCA
INDOMARET HASAN II JL MUHAMMAD HASAN LAMPEUNERUT BANDA ACEH,5.522057000,95.329712000,BCA
BANDA ACEH CRM 1 JL TGK DAUD BEUREUN BANDA ACEH,5.529954000,95.333780000,BCA
BANDA ACEH CRM 2 JL TGK DAUD BEUREUN BANDA ACEH,5.529954000,95.333780000,BCA
BANDA ACEH CRM 3 JL TGK DAUD BEUREUN BANDA ACEH,5.529954000,95.333780000,BCA
BANDA ACEH CRM 4 JL TGK DAUD BEUREUN BANDA ACEH,5.529954000,95.333780000,BCA
BANDA ACEH CRM 5 JL TGK DAUD BEUREUN BANDA ACEH,5.529954000,95.333780000,BCA
PANGLIMA POLEM CRM 3 JL PANGLIMA POLEM 38-40 BANDA ACEH,5.529954000,95.333780000,BCA
"SPBU 14.231.462 KETAPANG JL. SUKARNO HATTA KETAPANG, BANDA ACEH",5.518317000,95.315035000,BCA
"INDOMARET LAMTEH ACEH JL T ISKANDAR LAMTEH, ULEE KARENG, BANDA ACEH",5.552322000,95.346717000,BCA
BIREUN CRM 1 JL T NYAK ARIEF NO 205 BIREUEN,5.573413000,95.361422000,BCA
BIREUN CRM 2 JL T NYAK ARIEF NO 205 BIREUEN,5.573413000,95.361422000,BCA
BIREUN CRM 3 JL T NYAK ARIEF NO 205 BIREUEN,5.573413000,95.361422000,BCA
"HERMES PALACE HOTEL JL. P. NYAK MAKAM, BANDA ACEH",5.556366000,95.343526000,BCA
"GRAMEDIA WORLD BANDA ACEH JL P NYAK MAKAM, GAMPONG IE MASEN KAYE ADANG, SYIAH KUALA, BANDA ACEH",5.557471700,95.342367600,BCA
SPBU 14.231.450 LAMNYONG JL. T.NYAK ARIEF N0.2 LAMYONG BANDA ACEH,5.572947000,95.356577000,BCA
"INDOMARET MUHAMMAD HASAN IV 1 JL M HASAN, KEL SUKADAMAI",5.548870600,95.328271900,BCA
"ALFAMART T NYAK ARIEF BDA 1 JL TEUKU NYAK ARIEF KEC SYIAHKUALA, BANDAACEH",5.579758800,95.351900100,BCA
INDOMARET TEUKU UMAR CRM JL TEUKU UMAR 340-342 KEC BAITURAHMAN,5.540173100,95.307357000,BCA
"SPBU H.M. ALI MAHMUD NO. 14.239.411 JL. CUT NYAK DIEN, LAM TEUMEN, BANDA ACEH",5.529212000,95.295951000,BCA
PANGLIMA POLEM CRM 1 JL PANGLIMA POLEM 38-40 BANDA ACEH,5.556380000,95.320840000,BCA
PANGLIMA POLEM CRM 2 JL PANGLIMA POLEM 38-40 BANDA ACEH,5.556380000,95.320840000,BCA
INDOMARET SULTAN ISKANDAR MUDA JL ISKANDAR MUDA 36 PUNGE UJONG MEURAXA BANDA ACEH,5.549950800,95.307094500,BCA
INDOMARET RAMA SETIA CRM 1 JL RAMA SETIA KEL LAMPASEH KOTA,5.558149800,95.309321800,BCA
LUWUK BANGGAI CRM 1 JL MOH HATTA 2 LUWUK,-0.971363000,122.787020000,BCA
LUWUK BANGGAI CRM 2 JL MOH HATTA 2 LUWUK,-0.971363000,122.787020000,BCA
INDOMARET WERDHI BUWANA ( T8TZ) CRM 1 JL RY MENGWI - SINGARAJA NO 17 BADUNG - BALI,8.491636000,115.184797000,BCA
PASAR RAYA KUTA 2 JL RAYA TUBAN NO 62 KUTA BALI,8.683800000,115.182511000,BCA
INDOMARET TUKAD YEH AYA CRM 1 JL TUKAD YEH AYA NO 105 DENPASAR,8.677263000,115.235544000,BCA
"SILIWANGI KUPANG CRM 1 JL SILIWANGI 2 KAV 13, KUPANG",-10.158999000,123.580068000,BCA
"SILIWANGI KUPANG CRM 2 JL SILIWANGI 2 KAV 13, KUPANG",-10.158999000,123.580068000,BCA
"FRANS SEDA MAS PLAZA JL FRANS SEDA KEL OESAPA BARAT KEC KELAPA LIMA, KUPANG",-10.171966000,123.577972000,BCA
"MODERENT ELEKTRONIK JL. A.YANI NO. 12, KUPANG",-10.158491000,123.586407000,BCA
KUPANG CRM 1 JL TOMPELLO 23 A - KUPANG - NTT,-10.163935180,123.585392800,BCA
KUPANG CRM 2 JL TOMPELLO 23 A - KUPANG - NTT,-10.163935180,123.585392800,BCA
KUPANG CRM 3 JL TOMPELLO 23 A - KUPANG - NTT,-10.163935180,123.585392800,BCA
KUPANG CRM 4 JL TOMPELLO 23 A - KUPANG - NTT,-10.163935180,123.585392800,BCA
KUPANG CRM 5 JL TOMPELLO 23 A - KUPANG - NTT,-10.163935180,123.585392800,BCA
"RUTENG CRM 1 JL YOS SUDARSO NO 23 RT 05 / 03 MBAUMUKU, LANGKE REMBONG, MANGGAR AI, KUPANG, NTT",-10.163935180,123.585392800,BCA
"RUTENG CRM 2 JL YOS SUDARSO NO 23 RT 05 / 03 MBAUMUKU, LANGKE REMBONG, MANGGAR AI, KUPANG, NTT",-10.163935180,123.585392800,BCA
SUDIRMAN KUPANG JL JEND SUDIRMAN KUPANG,-10.175769300,123.593448400,BCA
CEMARA INDAH SWALAYAN JL. W.J. LALAMENTIK KUPANG,-10.167193100,123.598669800,BCA
"SINAR BANGUNAN KUPANG JL. BUNDARAN PU, KUPANG",-10.167422540,123.598654900,BCA
HOTEL CENDANA JL EL TARI KUPANG,-10.172515400,123.601968200,BCA
SPBU MITRA KUPANG JL FRANS SEDA KPG,-10.165838000,123.607405000,BCA
"RUKO LONTAR PERMAI CRM JL WR MONGINSIDI, KUPANG",-10.159401700,123.609726700,BCA
TOKO GLORY KUPANG JL. JEND SOEHARTO NO. 100 KUPANG,-10.187658380,123.606512500,BCA
SPBU TUAK DAUN MERAH KUPANG JL BUNDARAN PU RT 21/ 007 TUAK DAUN MERAH OEBOBO KUPANG NTT,-10.165527900,123.611991700,BCA
"SPBU MITRA 01 JL SUMATRA NO 1, FATUBESI,KOTA LAMA, KUPANG",-10.158902900,123.615891700,BCA
"RAMAYANA KUPANG JL. W. J. LALAMENTIK, KUPANG",-10.174395150,123.613100100,BCA
JP MART JL FETOR FUNAY KUPANG,-10.187679000,123.610834300,BCA
"ALFAMART TOFA CRM JL AMABI ( TOFA ), OEBUFU, MAULAFA, KUPANG",-10.180740000,123.614797000,BCA
ROYAL JL. TIM TIM KUPANG,-10.143345550,123.625459000,BCA
HOTEL AMARIS KUPANG JL BUNDARAN PU KUPANG,-10.157556600,123.629911100,BCA
"ALFAMART TIMUR RAYA KM 10 CRM JL TIMUR RAYA KM 10, KUPANG",-10.147670000,123.632245000,BCA
"KUPANG MART JL SAM RATULANGI RAYA NO 5 KUPANG, NUSA TENGGARA TIMUR",-10.153102170,123.634195300,BCA
BANDARA ELTARI KUPANG JL ADI SUCIPTO KUPANG,-10.168896900,123.665706300,BCA
"RUKO SUDIRMAN JL. JEND. SUDIRMAN, KUPANG",-10.158565000,123.668504000,BCA
SANTIKA SUPERMARKET GORONTALO JL S PARMAN KEL BIAWAO KEC KOTA SELATAN GORONTALO,0.534080800,123.056400200,BCA
SAUNG TELAGA JL LIMBOTO RAYA KAB GORONTALO,0.593763900,123.032925000,BCA
GORONTALO MALL JL HOS COKROAMINOTO KEL HELEDULA KEC KOTA TIMUR GORONTALO,0.537725100,123.061744200,BCA
KAMPUS MUFIDAH JL SUDIRMAN 22 KEC KOTA SELATAN GORONTALO,0.553516000,123.056770000,BCA
KAMPUS MUFIDAH 2 JL SUDIRMAN 22 KEC KOTA SELATAN GORONTALO,0.553516000,123.056770000,BCA
INDOSERA GORONTALO JL ANDALAS NO 223-225 GORONTALO,0.575263500,123.047956200,BCA
GORONTALO CRM 1 JL NANI WARTABONE NO 293 GORONTALO,0.546158000,123.061492000,BCA
GORONTALO CRM 2 JL NANI WARTABONE NO 293 GORONTALO,0.546158000,123.061492000,BCA
GORONTALO CRM 3 JL NANI WARTABONE NO 293 GORONTALO,0.546158000,123.061492000,BCA
GORONTALO CRM 4 JL NANI WARTABONE NO 293 GORONTALO,0.546158000,123.061492000,BCA
GORONTALO CRM 5 JL NANI WARTABONE NO 293 GORONTALO,0.545589000,123.061806000,BCA
ATAMBUA CRM 1 JL SOEKARNO HATTA RT/RW15/5BARDAO ATAMBUA BRT,-9.107531900,124.890704900,BCA
ATAMBUA CRM 2 JL SOEKARNO HATTA RT/RW15/5BARDAO ATAMBUA BRT,-9.107531900,124.890704900,BCA
RUKO BAHU 1 JL RW MONGINSIDI VI BAHU MALALAYANG MANADO,-1.462898000,124.826052000,BCA
"ALFAMART MOTOBOI KECIL JL VETERAN, MOTOBOI KECIL, KOTAMOBAGU",0.727814300,124.298240500,BCA
KOTAMOBAGU CRM 1 JL ADAMPE DOLOT NO 10 KOTA KOTAMOBAGU,0.736628000,124.307206000,BCA
KOTAMOBAGU CRM 2 JL ADAMPE DOLOT NO 10 KOTA KOTAMOBAGU,0.736628000,124.307206000,BCA
KOTAMOBAGU CRM 3 JL ADAMPE DOLOT NO 10 KOTA KOTAMOBAGU,0.736628000,124.307206000,BCA
"PARIS SUPERMARKET KOTAMOBAGU 1 JL ADAMPE DOLOT1, MOGOLAING KOTAMOBAGU BARAT, KOTAMOBAGU",0.738835700,124.306630200,BCA
KOTAMOBAGU CRM 4 JL ADAMPE DOLOT NO 10 KOTA KOTAMOBAGU,0.737835000,124.307935000,BCA
BITUNG CRM 5 JL SAM RATULANGI NO 86 KOTA BITUNG,-1.443388400,125.190143100,BCA
INDOMARET TANAHWANGKO MINAHASA JL TRANS SULAWESI KM 44 BORGO TOMBARIRI MINAHASA,1.395200000,124.679400000,BCA
INDOMARET RAYA TALIKURAN MANADO JL AMURANG TALIKURAN KAWANGKOAN UTARA MANADO,1.251905500,124.785123400,BCA
"ALFAMART LANSOT JL RAYA TOMOHON SONDER, LANSOT, TOMOHON SELATAN, TOMOHON",1.303200000,124.833100000,BCA
CITY EXTRA RESTAURANT JL RAYA TANAWANGKO MINAHASA,1.459300000,124.776600000,BCA
"COOL SUPERMARKET JL. RAYA WALIAM TOMOHON SELATAN, MANADO",1.314000000,124.837900000,BCA
"ALFAMART SAMRATULANGI TOMOHON JL TOMOHON - KAWANGKOAN, MATANI III, TOMOHON TENGAH, TOMOHON",1.319100000,124.839600000,BCA
TRIPLE M PLAZA JL. RAYA TOMOHON NO. 74 - 75,1.327900000,124.838700000,BCA
"APOTIK EL RAPHA JL. KAKASKASEN, TOMOHON, MANADO",1.349400000,124.833500000,BCA
"INDOMARET TERMINAL MALALAYANG MANADO JL WOLTER MONGINSIDI LING VIII MALALAYANG 2, MALALAYANG, MANADO",1.459800000,124.792900000,BCA
"ALFAMART TATAARAN JL RAYA TATAARAN TONDANO,TATAARAN II,MINAHASA",1.288800000,124.878300000,BCA
"ALFAMIDI WOLTER MONGINSIDI MANADO JL WR MONGINSIDI, MALALAYANG 1 BARAT, MALALAYANG, MANADO",1.456252000,124.811679000,BCA
"SINAR GALESONG MALAYANG JL. MALALAYANG NO. 1, MANADO",1.456800000,124.814600000,BCA
"INDOMARET PINELENG MINAHASA JL MANADO-TOMOHON PINELENG 2 JAGA1, PINELENG, MINAHASA",1.426400000,124.838100000,BCA
BAHU JL WOLTER MONGINSIDI MANADO,1.461400000,124.824700000,BCA
"FRESH MART CRM 1 KOMP MANADO MALL, JL WOLTER MONGINSIDI",1.461905000,124.824978000,BCA
"INDOMARET KAMPUS SELATAN SAMRATULANGI MANADO JL KAMPUS SELATAN NO 1, MALALAYANG 95115",1.455000000,124.829100000,BCA
TOMOHON CRM 1 JL RAYA TOMOHON 10 - MANADO,1.429303000,124.840687000,BCA
TOMOHON CRM 2 JL RAYA TOMOHON 10 - MANADO,1.429303000,124.840687000,BCA
TOMOHON CRM 3 JL RAYA TOMOHON 10 - MANADO,1.429303000,124.840687000,BCA
FRESHMART WINANGUN JL. RAYA MANADO TOMOHON MANADO,1.443317000,124.838953000,BCA
ALFAMART A YANI MANADO JL A YANI KEL SARIO TUMPAAN KEC SARIO KOTA MANADO,1.465131000,124.830077000,BCA
RUKO WINANGUN JL SAM RATULANGI KEL WINANGUN MANADO,1.439200000,124.843500000,BCA
"ALFAMART PIERE TENDEAN BOULEVARD MANADO JL PIERE TENDEAN, SARIO TUMPAAN, MANADO",1.469465000,124.831181000,BCA
"MIRACLE BEAUTY KLINIK JL. BETHESDA NO. 25, MANADO",1.463700000,124.833700000,BCA
"INDOMARET BETHESDA MANADO JL BETHESDA, RANOTANA SARIO, MANADO",1.462200000,124.834900000,BCA
"EBC MANTOS CRM 1 JL PIERRE TENDEAN MANADO TOWN SQUARE 2, MANADO",1.472747000,124.830886000,BCA
"EBC MANTOS CRM 2 JL PIERRE TENDEAN MANADO TOWN SQUARE 2, MANADO",1.472747000,124.830886000,BCA
ABDI KARYA JL A YANI KEL GOGAGOMAN KEC KOTAMOBAGU BARAT,1.470724000,124.832682000,BCA
COCO SUPERMAKET JL. SAM RATULANGI NO. 458 MANADO,1.459200000,124.837800000,BCA
INDOMARET PIERRE TENDEAN MANADO JL PIERRE TENDEAN TITIWUNGEN SARIO MANADO,1.476200000,124.833700000,BCA
"INDOMARET PAKOWA, MANADO JL A MONONUNTU, PAKOWA, WANEA, MANADO",1.457900000,124.841800000,BCA
"ALFAMART BABE PALAR  1 JL ALFAMART BABE PALAR, TANJUNG BATU, WANEA, MANADO",1.466279500,124.838261400,BCA
"INDOMARET PRAMUKA, MANADO JL PRAMUKA LGK I, SARIO UTARA, SARIO, MANADO",1.469100000,124.838100000,BCA
"GRAND MERCIFUL BUILDING JL. RAYA SAM RATULANGI, KEC WANEA, MANADO",1.463948000,124.840930000,BCA
"MEGA TRADE CENTER MANADO 2 JL PIERE TENDEAN, KOMP MEGA MAS - MANADO",1.479500000,124.834600000,BCA
"MEGA TRADE CENTER MANADO CRM 1 JL PIERE TENDEAN, KOMP MEGA MAS - MANADO",1.479500000,124.834600000,BCA
"INDOMARET SAM RATULANGI 182 MANADO JL SAM RATULANGI NO 182 TITIWUNGAN,  SARIO, MANADO",1.475800000,124.836500000,BCA
"INDOMARET SAM RATULANGI JL SAM RATULANGI RW 003 KEL TJ BATU KEC SARIO, MANADO",1.469260000,124.839730000,BCA
BOULEVARD CRM 1 KOMP RUKO MEGA MAS BLOK E NO 8 KOTA MANADO,1.482010000,124.835021000,BCA
BOULEVARD CRM 2 KOMP RUKO MEGA MAS BLOK E NO 8 KOTA MANADO,1.482010000,124.835021000,BCA
BOULEVARD CRM 3 KOMP RUKO MEGA MAS BLOK E NO 8 KOTA MANADO,1.482010000,124.835021000,BCA
BOULEVARD CRM 4 KOMP RUKO MEGA MAS BLOK E NO 8 KOTA MANADO,1.482010000,124.835021000,BCA
"APOTIK SETIA II JL. SAM RATULANGI, MANADO",1.479000000,124.836500000,BCA
"INDOMARET 17 AGUSTUS 65 JL 17 AGUSTUS LINGKUNGAN IV, TELING ATAS, MANADO",1.477600000,124.837100000,BCA
JELITA MART JL SAM RATULANGI NO 481 MINAHASA,1.301500000,124.911100000,BCA
"MEGA MALL MANADO CRM 1 KAWASAN MEGA MAS, JL PIERE TENDEAN BULEVARD",1.484383000,124.834623000,BCA
"MEGA MALL MANADO CRM 2 KAWASAN MEGA MAS, JL PIERE TENDEAN BULEVARD",1.484383000,124.834623000,BCA
INDOMARET NEW CONV MEGA MAS KAWASAN MEGA MAS BLOK 2B2 NO 1 MANADO,1.486403000,124.834052000,BCA
"SPBU COCO MANADO JL PIERRE TENDEAN, MANADO",1.483300000,124.835500000,BCA
"IT CENTER MANADO CRM JL PIERE TENDEAN BOULEVARD, MANADO",1.486869000,124.836989000,BCA
RANOTANA CRM 3 JL SAM RATULANGI NO 108 KOTA MANADO,1.486678000,124.837947000,BCA
RANOTANA CRM 1 JL SAM RATULANGI NO 108 KOTA MANADO,1.486678000,124.837947000,BCA
RANOTANA CRM 2 JL SAM RATULANGI NO 108 KOTA MANADO,1.486678000,124.837947000,BCA
"GOLDEN SWALAYAN, MANADO JL. SAM RATULANGI MANADO",1.488400000,124.838000000,BCA
FRESHMART TELING JL 14 FEBRUARI KEL TELING ATAS KEC WANEA MANADO,1.473300000,124.844700000,BCA
CALACA CRM 1 JL SISINGAMANGARAJA MANADO,1.488480003,124.838719400,BCA
CALACA CRM 2 JL SISINGAMANGARAJA MANADO,1.488480003,124.838719400,BCA
MANADO CRM 1 JL SAM RATULANGI 17-19 - MANADO,1.488480003,124.838719400,BCA
MANADO CRM 2 JL SAM RATULANGI 17-19 - MANADO,1.488480003,124.838719400,BCA
MANADO CRM 3 JL SAM RATULANGI 17-19 - MANADO,1.488480003,124.838719400,BCA
MANADO CRM 4 JL SAM RATULANGI 17-19 - MANADO,1.488480003,124.838719400,BCA
MANADO CRM 5 JL SAM RATULANGI 17-19 - MANADO,1.488480003,124.838719400,BCA
MANADO CRM 6 JL SAM RATULANGI 17-19 - MANADO,1.488480003,124.838719400,BCA
INDOMARET 14 FEBRUARI MANADO JL 14 FEBRUARI TELING ATAS WANEA MANADO,1.471900000,124.846100000,BCA
INDOMARET DIPONEGORO MANADO JL DIPONEGORO LAWAGIRUNG WENANG MANADO,1.488100000,124.841000000,BCA
JUMBO PASAR MANADO CRM 1 JL. LETJEND SUPRATMAN NO. 1 MENADO,1.492300000,124.839500000,BCA
"INDOMARET TOLOLIU SUPIT, MANADO JL TOLOLIU SUPIT LGK II,TINGKULU,WANEA,MANADO",1.461600000,124.852900000,BCA
"ALFAMART JENDRAL SUDIRMAN MANADO JL JENDRAL SUDIRMAN,LAWANGIRUNG,WANEA,MANADO",1.489900000,124.842700000,BCA
HOTEL SENATOR JL YUSUF HASIRU KEC KOTAMOBAGU TIMUR,1.491896000,124.842761000,BCA
"INDOMARET LUMIMUUT MANADO JL RAYA LUMIMUUT, WENANG, MANADO",1.482900000,124.846800000,BCA
TOKO ROTI KARTINI JL. SUDIRMAN NO. 71 MANADO,1.488898000,124.846162000,BCA
"MAKMUR HOTEL MANADO JL. WALANDA MARAMIS NO. 144-146, MANADO",1.492200000,124.844800000,BCA
BAN HI KIONG JL PANJAITAN MANADO,1.494100000,124.844200000,BCA
THETHAS JL BW LAPIAN KEL TIKALA KUMARAKA KEC TIKAL,1.486200000,124.847900000,BCA
"FRESH MART EXPRESS TIKALA MANADO JL DAAN MOGOT NO 48 A, TIKALA BARU, MANADO",1.479989300,124.853658900,BCA
"SINGKIL SERVICE JL. HASANUDDIN, MANADO",1.500200000,124.845200000,BCA
FRESH MART WONASA JL. ARI LASUT MANADO,1.492700000,124.852100000,BCA
"RUKO STAR EXPRESS MANADO 1 JL MARTADINATA NO 18, PAAL II, KOTA MANADO",1.486900000,124.855700000,BCA
QUEEN SUPERMARKET CRM JL MARTADINATA NO 67 MANADO,1.487260000,124.857781000,BCA
INDOMARET PASAR TUMINTING MANADO JL POGIDON NO 1 KARANG RIA TUMINTING MANADO,1.511700000,124.848300000,BCA
GALAKSI MART JL SANTIAGO KEL KARANG RIA MANADO,1.511476000,124.848512000,BCA
"ALFAMIDI POGIDON 1 JL POGIDON MAASING, MANADO UTARA, MANADO",1.520622400,124.847926200,BCA
INDOMARET KOMBOS TIMUR SINGKIL MANADO JL ARIE LASUT NO 17 KOMBOS TIMURMANADO,1.494900000,124.860700000,BCA
"PASAR SEGAR PAAL 2 CRM 1 JL. PAAL 2, KEL PAAL 2 MANADO",1.490700000,124.862700000,BCA
"INDOMARET MALENDENG MANADO JL RAYA MANGUNI MALENDENG, PAAL DUA, MANADO",1.469900000,124.878100000,BCA
"INDOMARET KAIRAGI MANADO JL KAIRAGI, KAIRAGI MAPANGGET MANADO",1.494600000,124.882300000,BCA
"INDOMARET KAIRAGI II 1 JL AA MARAMIS KAIRAGI DUA, MAPANGGET MANADO",1.499686000,124.890059000,BCA
"SPBU KAIRAGI CRM 1 JL. AA MARAMIS,  MENADO",1.501300000,124.891300000,BCA
INDOMARET POLITEKNIK MANADO JL POLITEKNIK NO 149 KAIRAGI MAPANGET MANADO,1.508100000,124.890800000,BCA
"TRANSMART CARREFOUR MANADO JL AA MARAMIS, KAIWATU, KAIRAGI 2, MANADO",1.503100000,124.899900000,BCA
DAYA ADIRA WISESA JL RAYA MANADO BITUNG MINAHASA UTARA,1.475665000,124.911602000,BCA
"INDOMARET MANADO BITUNG KM 8 MANADO JL RAYA MANADO BITUNG WATUTUMOU, KALAWAT, MINAHASA UTARA, MANADO",1.466600000,124.924600000,BCA
"INDOMARET HYBRID PANIKI I JL A A MARAMIS, PANIKI, MANADO",1.512609000,124.915299000,BCA
"ALFAMIDI PANIKI 1 JL RAYA MANADO DIMEMBE, PANIKI DUA, MAPANGET, MANADO",1.516731700,124.915953300,BCA
"INDOGROSIR MANADO JL A A MARAMIS NO 15, PANIKI SATU LINGKUNGAN 1, MAPANGET MANADO",1.518327000,124.919654000,BCA
"ALFAMIDI ADIPURA GPI MANADO JL ADIPURA, PANIKI BAWAH, MAPANGET, MANADO",1.532700000,124.917300000,BCA
SIMPLE MART SWALAYAN CRM 1 JL AA MARAMIS KEC MAPANGET KOTA MANADO,1.533538000,124.921288000,BCA
"BANDARA SAMRATULANGI JL. AA. MARAMIS, MANADO",1.542900000,124.922400000,BCA
"INDOMARET SARONGSONG I MANADO JL ARNOLD MONONUTU,SARONGSONG I, AIRMADIDI, MINAHASA UTARA, MANADO",1.429500000,124.977700000,BCA
"FRESHMART AIRMADIDI 1 JL ARNOLD MONOMUTU SARONGSONG 1, AIRMADIDI",1.428129000,124.979164000,BCA
THE CORNER UNKLAB JL ARNOLD MANONUTU KAB MINAHASA UTARA,1.416400000,124.986200000,BCA
COCO AIRMADIDI JL RAYA MANADO BITUNG MINAHASA UTARA,1.421700000,124.985600000,BCA
"CRM ALFAMART DC KAREGESAN 1 JL RAYA MANADO - BITUNG KAREGESAN KAUDITAN, MINAHASA UTARA",1.399856100,125.018683300,BCA
"INDOMARET KAUDITAN I MANADO JL RY MANADO-KEMA KAUDITAN I, KAUDITAN, MINAHASA UTARA, MANADO",1.392700000,125.042300000,BCA
"INDOMARET MANEMBO NEMBO MANADO JL RY MANEMBO-NEMBO, MATUARI, BITUNG, MANADO",1.434700000,125.121200000,BCA
MULIA STAR BITUNG JL. WOLTER MONGINSIDI GIRIKAN BITUNG,1.439900000,125.132400000,BCA
"INDOMARET GIRIAN INDAH MANADO JL PRIMKOP RT3/3 GIRIAN, BITUNG, MANADO",1.447500000,125.135400000,BCA
SAMUDRA MANDIRI SENTOSA JL WOLTER MONGINSIDI KM 5 BITUNG,1.440800000,125.151600000,BCA
"ALFAMART WALANDA MARAMIS BITUNG JL WALANDA MARAMIS, MADIDIR WERU, MADIDIR, BITUNG",1.444400000,125.173400000,BCA
"PT BIMOLI BITUNG JL. WALANDA MARAMIS, BITUNG, MANADO",1.444840000,125.177768000,BCA
BITUNG CRM 1 JL SAM RATULANGI NO 86 KOTA BITUNG,1.444433000,125.190418000,BCA
BITUNG CRM 2 JL SAM RATULANGI NO 86 KOTA BITUNG,1.444433000,125.190418000,BCA
BITUNG CRM 3 JL SAM RATULANGI NO 86 KOTA BITUNG,1.444433000,125.190418000,BCA
BITUNG CRM 4 JL SAM RATULANGI NO 86 KOTA BITUNG,1.444433000,125.190418000,BCA
"ALFAMART 46 PATETEN JL 46 PATETEN, PATETEN II, AERTEMBAGA, BITUNG",1.449900000,125.199500000,BCA
"INDOMARET AERTEMBAGA MANADO JL MOHAMAD HATTA WINENET, AER TEMBAGA, BITUNG, MENADO",1.446500000,125.203800000,BCA
"TOKO MURAH MERIAH 1 JL MONONUTU STADION KOTA TERNATE TENGAH, TERNATE",-0.784843000,127.384752000,BCA
"BANDARA PATTIMURA BANDARA PATTIMURA, LAHA, AMBON",-3.704654067,128.088713300,BCA
"DJEMS SWALAYAN JL. WAYAME, AMBON",-3.663909691,128.167058500,BCA
HOTEL AMANS JL PANTAI MARDIKA AMBON,-3.656070000,128.166419000,BCA
"MARDIKA CRM 1 JL PERT MARDIKA BLOK A1 NO 3-4, AMBON",-3.656070000,128.166419000,BCA
"MARDIKA CRM 2 JL PERT MARDIKA BLOK A1 NO 3-4, AMBON",-3.656070000,128.166419000,BCA
TX TRAVEL JL SAM RATULANGI AMBON,-3.694350000,128.179357000,BCA
"TOKO KRISBOW JL. DIPONEGORO 25, AMBON",-3.699670619,128.181792500,BCA
AMBON CRM 1 JL SULTAN HAIRUN 24 - AMBON,-3.695496600,128.182297900,BCA
AMBON CRM 2 JL SULTAN HAIRUN 24 - AMBON,-3.695496600,128.182297900,BCA
AMBON CRM 3 JL SULTAN HAIRUN 24 - AMBON,-3.695496600,128.182297900,BCA
AMBON CRM 4 JL SULTAN HAIRUN 24 - AMBON,-3.695496600,128.182297900,BCA
AMBON CRM 5 JL SULTAN HAIRUN 24 - AMBON,-3.695496600,128.182297900,BCA
AMBON CRM 6 JL SULTAN HAIRUN 24 - AMBON,-3.695496600,128.182297900,BCA
AMBON CRM 7 JL SULTAN HAIRUN 24 - AMBON,-3.695496600,128.182297900,BCA
AMBON CRM 8 JL SULTAN HAIRUN 24 - AMBON,-3.695496600,128.182297900,BCA
"AMBON MANISE SQUARE MALUKU JL SUDIRMAN RT/RW 001/008, AMBON, MALUKU",-3.695496600,128.182297900,BCA
PASSO AMBON CRM 1 JL WOLTER MONGINSIDI AMBON,-3.695496600,128.182297900,BCA
PASSO AMBON CRM 2 JL WOLTER MONGINSIDI AMBON,-3.695496600,128.182297900,BCA
AMBON CRM 9 JL SULTAN HAIRUN 24 - AMBON,-3.695496600,128.182297900,BCA
RM DEDES JL SULTAN BABULLAH AMBON,-3.678812309,128.194770500,BCA
MALUKU CITY MALL JL. SUDIRMAN TANTUI AMBON,-3.670309100,128.198023200,BCA
"INDOMARET KEBUN CENGKEH 15 1 JL RAYA KEBUN CENGKEH, AMBON, MALUKU",-3.681985000,128.201917000,BCA
"ASTON NATSEPA AMBON JL. NATSEPA NO.36 SULI SALAHUTU, AMBON",-3.662341570,128.204952100,BCA
"ALFA SWALAYAN PASSO JL. WOLTER MONGINSIDI, LATTA - AMBON",-3.653522000,128.227000000,BCA
MALL AMBON CITY CENTER JL WOLTER MONGINSIDI AMBON,-3.643453000,128.238082000,BCA
"TOKO BULAN INDAH 1 JL RAYA BASTIONG, TERNATE, 97716",0.770387300,127.373428700,BCA
TERNATE CRM 1 JL PAHLAWAN REVOLUSI TERNATE,0.792347000,127.388159000,BCA
TERNATE CRM 2 JL PAHLAWAN REVOLUSI TERNATE,0.792347000,127.388159000,BCA
TERNATE CRM 3 JL PAHLAWAN REVOLUSI TERNATE,0.792347000,127.388159000,BCA
TERNATE CRM 4 JL PAHLAWAN REVOLUSI TERNATE,0.792347000,127.388159000,BCA
TOKO MAKMUR UTAMA JL PAHLAWAN REVOLUSI KEC TERNATE TENGAH,0.792347000,127.388159000,BCA
"JATILAND MALL JL. TAPAK DUA BOULEVARD, TERNATE",0.792020419,127.389715900,BCA
"SUPERMARKET FORSA, SORONG JL. SAMRATULANGI - KP. BARU  SORONG",-0.869979987,131.252540000,BCA
"GEREJA KATEDRAL SORONG JL RA KARTINI NO 2 KAMPUNG BARU, SORONG",-0.882242464,131.282046400,BCA
SORONG CRM 1 JL AHMAD YANI SORONG,-0.879885552,131.282801200,BCA
SORONG CRM 2 JL AHMAD YANI SORONG,-0.879885552,131.282801200,BCA
SORONG CRM 3 JL AHMAD YANI SORONG,-0.879885552,131.282801200,BCA
"BANDARA DEO SORONG 1 JL BASUKI RAHMAT KM 8, REMU SELATAN,SORONG",-0.890322100,131.288441000,BCA
"MEGA MALL SORONG JL. BASUKI RACHMAT KM.8, SORONG",-0.887425906,131.301860700,BCA
"PAPUA SUPERMARKET & DEPT STORE JL SUNGAI MARUNI KM 10, SORONG, PAPUA",-0.888831000,131.315996000,BCA
"DEPO MAKMUR SORONG 1 JL TANJUNG REMONI ARTERI MALANU SORONG, PAPUA BARAT, JAYAPURA",-0.901502200,131.320811500,BCA
SAGA MALL SORONG JL AHMAD YANI SORONG,-0.923988000,131.381158000,BCA
"SEMEN SDIC 1 JL MANOKWARI BINTUNI, MANOKWARI, PAPUA BARAT",-0.995062900,134.023830400,BCA
"BANDAR UDARA RENDANI MANOKWARI 1 JL TRIKORA RENDANI, MANOKWARI, JAYAPURA",-0.893823500,134.050530500,BCA
"PAPUA BANGUNAN MANOKWARI 1 JL DR ESAU SESA, MANOKWARI, PAPUA BARAT",-0.874116000,134.047854000,BCA
MANOKWARI CRM 1 JL TRIKORA WOSI TRANSITO A3-A5 MANOKWARI,-0.866540000,134.055240000,BCA
MANOKWARI CRM 2 JL TRIKORA WOSI TRANSITO A3-A5 MANOKWARI,-0.866540000,134.055240000,BCA
MANOKWARI CRM 3 JL TRIKORA WOSI TRANSITO A3-A5 MANOKWARI,-0.866540000,134.055240000,BCA
ORCHILD SWALAYAN JL MERDEKA NO 63 MANOKWARI,-0.859819000,134.073342000,BCA
"HOTEL GRAND MOZZA MIMIKA 1 JL CENDRAWASIH, MIMIKA, TIMIKA, JAYAPURA",-4.531868700,136.862116900,BCA
"DIANA SUPERMARKET 1 JL BUDI UTOMO NO 8, TIMIKA",-4.542769300,136.881554800,BCA
DIANA MART CRM 1 JL HASANUDDIN TIMIKA,-4.566508000,136.884619000,BCA
TIMIKA CRM 4 JL BUDI UTOMO ( SAMPING PERUM GRIYA ) TIMIKA,-4.545404000,136.883686000,BCA
TIMIKA CRM 1 JL BUDI UTOMO ( SAMPING PERUM GRIYA ) TIMIKA,-4.545404000,136.883686000,BCA
TIMIKA CRM 2 JL BUDI UTOMO ( SAMPING PERUM GRIYA ) TIMIKA,-4.545404000,136.883686000,BCA
TIMIKA CRM 3 JL BUDI UTOMO ( SAMPING PERUM GRIYA ) TIMIKA,-4.545404000,136.883686000,BCA
"BANDARA SENTANI JL. RAYA KEMIRI, SENTANI, PAPUA",-2.568651000,140.513450000,BCA
"SENTANI CRM 1 JL RAYA SENTANI, HINEKOMBE, SENTANI",-2.603184100,140.637791500,BCA
ABEPURA CRM 4 JL RAYA ABEPURA KEL VIM,-2.610908912,140.665850900,BCA
ALFAMART NAMORAMBE JL BESAR NAMORAMBE DUSUN IV NAMORAMBE DELI SERDANG,3.503800000,98.670700000,BCA
ALFAMIDI AGUS SALIM CRM 1 JL AGUS SALIM KAB GOWA,-5.201976000,119.457706000,BCA
"ALFAMIDI TODDOPULI CRM 1 JL TODDOPULI 7, MAKASSAR",-5.165997000,119.454465000,BCA
"SUMATERA BERLIAN MOTOR JL. SISINGAMANGARAJA,  MEDAN",3.537600000,98.708900000,BCA
ALFAMIDI TODDOPULI RAYA CRM 1 JL TODDOPULI RAYA TIMUR NO 43 KEL BORONG KEC MANGG,-5.162013000,119.456962000,BCA
"SPBU TODDOPULI CRM 1 JL. HERTASNING, MAKASSAR",-5.161863000,119.458783000,BCA
INDOMARET MINASAUPA CRM 1 JL MINASAUPA BLOK K13 NO 10 MAKASSAR,-5.180902000,119.460881000,BCA
INDOGROSIR MEDAN JL. SISINGAMANGARAJA KM.6.5 MEDAN,3.539300000,98.701700000,BCA
"ALFAMART BATUA RAYA CRM 1 JL BATUA RAYA NO 3, KEL BATUA, MANGGALA, MAKASSAR",-5.150751000,119.459918800,BCA
"INDOMARET HERTASNING AROEPALA MAKASSAR CRM 1 JL AROEPALA GUNUNG SARI, RAPPOCINI MAKASSAR",-5.178682000,119.462649000,BCA
"INDOMARET MENTENG VII MDN JL. MENTENG VII, MEDAN",3.552400000,98.715600000,BCA
INDOMARET RAYA BORONG CRM 1 JL BORONG RAYA KEL BORONG MAKASSAR,-5.161410000,119.461982000,BCA
"ALFAMART HOTEL MAXONE CRM 1 JL TAMAN MAKAM PAHLAWAN NO 5, TELLO BARU, MAKASSAR",-5.147407000,119.461038000,BCA
HERTASNING CRM 1 JL TUN ABDUL RAZAK KOMP CITRALAND MAKASSAR,-5.179849000,119.464195000,BCA
"INDOMARET ZEIN HAMID JL BRIGJEN ZEIN HAMID 10-11DD, TITI KUNING KEC MEDAN JOHOR",3.529700000,98.686300000,BCA
ALFAMART TRITURA JL TRITURA / AH NASUTION NO 80/82 MEDAN,3.538000000,98.692800000,BCA
SPBU ABDUL DAENG SIRUA CRM 1 JL ABDUL DAENG SIRUA NO 18 MANGGALA MAKASSAR,-5.150012000,119.464792000,BCA
ALFAMART SM RAJA II MEDAN JL SISINGAMANGARAJA NO 5 KEL AMPLAS MEDAN AMPLAS MEDAN,3.543700000,98.698500000,BCA
ALFAMIDI KARYA JAYA JL KARYA JAYA NO 1 KEC MEDAN JOHOR MEDAN,3.526200000,98.677000000,BCA
"WIEGO HOUSEWARE MEDAN 1 JL TRITURA NO 81, SUKAMAJU, MEDANJOHOR, MEDAN",3.537787000,98.690498000,BCA
"TOKO SATU SAMA GOWA 1 JL TUN ABDUL RAZAK NO 8, GOWA, MAKASSAR",-5.186573000,119.468965000,BCA
ALFAMART TITI KUNING JL BRIG ZEIN HAMID LINGKUNGAN 1 KELURAHAN TITI KUNING KECAMATAN MEDAN JOHOR,3.533500000,98.684400000,BCA
"RAMAYANA MAKASSAR TOWN SQUARE CRM 1 JL. PERINTIS KEMERDEKAAN, MAKASSAR",-5.144598800,119.466598500,BCA
"ALFAMIDI SM RAJA III JL SM RAJA SUDUT / JL SUKA BUDI, SUKAMAJU, MEDAN JOHOR, MEDAN",3.547500000,98.698700000,BCA
"JODOH CENTER JL. RUJAK NO. 13A, PASAR TUJUH TEMBUNG, MEDAN",3.594894000,98.753710000,BCA
"IRIAN SUPERMARKET TEMBUNG JL. BESAR TEMBUNG, MEDAN",3.600100000,98.757700000,BCA
ALFAMART KARYA JAYA IV JL KARYA JAYA/KARYA KASIH NO 106 GEDUNG JOHOR MEDAN JOHOR MEDAN,3.533400000,98.677800000,BCA
ALFAMIDI SISINGAMANGARAJA CRM 1 JL SISINGAMANGARAJA KEL SITIREJO III MEDAN,3.550800000,98.698300000,BCA
MAJU BERSAMA B ZEIN HAMID JL BRIGJEN ZEIN HAMID 41 LK IV KEC MEDAN JOHOR,3.541200000,98.685700000,BCA
ALFAMIDI TEMBUNG JL MEDAN SEL ROTAN DELI SERDANG,3.596600000,98.748700000,BCA
INDOMARET KARYA WISATA III MDN JL KARYA WISATA NO 12-13 JOHOR MEDAN,3.526200000,98.662700000,BCA
"INDOMARET IR SUTAMI MAKASSAR CRM 1 JL IR SUTAMI, MAKASSAR",-5.092145000,119.470045000,BCA
"ALFAMART BRIGJEN HAMID II CRM 1 JL BRIGJEN HAMID LINGKUNGAN II, KECAMATAN MEDAN JO",3.548809000,98.687928000,BCA
INDOMARET SM RAJA III MDN CRM 1 JL SM RAJA NO 245G SUDIRJO MEDAN KOTA MEDAN,3.555560000,98.695780000,BCA
"ROYAL SPRING JL KARAENG MAKKAWARI, KEL SAMATA, KEC SOMBA OPU, KAB GOWA",-5.191900000,119.479600000,BCA
ALFAMIDI ANTANG RAYA CRM 1 JL ANTANG RAYA NO 91A MAKASSAR,-5.164815000,119.477264000,BCA
"MEGA INDAH SARI TIMUR CRM 1 JL.ANTANG RAYA NO.49, MAKASSAR",-5.160620000,119.477323000,BCA
"SUZUYA KAMPUNG BARU 1 JL. BRIGJEN KATAMSO NO. 710, MEDAN",3.550100000,98.688200000,BCA
"SPBU PARANGLOE CRM 1 JL IR SUTAMI NO 25, MAKASSAR",-5.090505000,119.471258000,BCA
MAJU BERSAMA SWALAYAN DENAI JL DENAI NO. 245 MEDAN DENAI MEDAN,3.581400000,98.723800000,BCA
"CARREFOUR MAKASSAR TAMALANREA CRM 1 JL. URIP SUMOHARJO, MAKASSAR",-5.143398000,119.476816000,BCA
ALFAMIDI BROMO MEDAN JL BROMO NO 88 BINJAI MEDAN DENAI MEDAN,3.574900000,98.715700000,BCA
"DIAMOND SWALAYAN MEDAN JL. KARYA WISATA, MEDAN",3.533900000,98.663000000,BCA
"SPBU PERINTIS CRM 1 JL. PERINTIS KEMERDEKAAN, KM 9, MAKASAR",-5.141097000,119.479521000,BCA
ALFAMART BARUGA CRM 1 JL BARUGA RAYA NO 10-11 MAKASSAR,-5.156530000,119.481253000,BCA
"IRIAN SUPERMARKET HM JONI JL. HM JONI, MEDAN",3.569000000,98.703100000,BCA
INDOMARET BROMO SIMP SETIA BUDI MDN JL BROMO KEL TEGAL SARI KEC MEDAN AREA MEDAN,3.575100000,98.710300000,BCA
JOHOR CRM 1 JL KARYA WISATA 19 KOMP CITRA WISATA BLOK III/19,3.533287600,98.659883500,BCA
INDOMARET KARYA WISATA II MDN JL KARYA WISATA NO 17A-MEDAN JOHOR-MEDAN,3.538600000,98.663000000,BCA
INDOMARET KARYA JASA MDN JL JEND AH NASUTION NO 92 MEDAN,3.538800000,98.662900000,BCA
INDOMARET AR HAKIM BHAKTI MDN JL AR HAKIM NO 114/224 C D MEDAN,3.573400000,98.703400000,BCA
SPBU COCO 14.201.112 KATAMSO MEDAN JL B KATAMSO NO 575 MEDAN,3.561500000,98.689200000,BCA
"SPBU PANGKALAN MANSYUR JL. KARYA JASA PANGKALAN MANSYUR, MEDAN",3.541400000,98.665100000,BCA
INDOMARET JAMIN GINTING DESA BARU JL JAMINGINTING NO153 KEL PANCURBATU DELISERDANG,3.484000000,98.597300000,BCA
"RAMAYANA TELADAN 1 JL. SISINGAMANGARAJA, MEDAN",3.565600000,98.692300000,BCA
MAJU BERSAMA LETDA SUJONO CRM 1 JL LETDA SUJONO MEDAN,3.596992400,98.728527700,BCA
"ALFAMIDI TAMANGAPA RAYA II CRM 1 JL TAMANGAPA RAYA II NO 298, MAKASSAR",-5.187115000,119.492068000,BCA
TAMALANREA CRM 1 JL PERINTIS KEMERDEKAAN KM 10 MAKASSAR,-5.141124000,119.488682000,BCA
TAMALANREA CRM 2 JL PERINTIS KEMERDEKAAN KM 10 MAKASSAR,-5.141124000,119.488682000,BCA
TAMALANREA CRM 3 JL PERINTIS KEMERDEKAAN KM 10 MAKASSAR,-5.141124000,119.488682000,BCA
TAMALANREA CRM 4 JL PERINTIS KEMERDEKAAN KM 10 MAKASSAR,-5.141124000,119.488682000,BCA
ALFAMART AR HAKIM II MEDAN JL AR HAKIM LINGKUNGAN IX SUKARAMAI I MEDAN AREA MEDAN,3.582000000,98.704100000,BCA
ALFAMART M YAKUB LUBIS II CRM 1 JL M YAKUB LUBIS PENGABDIAN DELI SERDANG,3.619097000,98.748212000,BCA
"SPBU PERTAMINA 14.201.1126 JL. BRIGJEN KATAMSO NO. 266, MEDAN",3.568100000,98.686500000,BCA
INDOMARET JAMIN GINTING VIII MDN CRM 1 JL JAMIN GINTING NO 819 KEC MEDAN SELAYANG - MEDAN,3.543200000,98.656200000,BCA
"INDOMARET LETNAN SUJONO MDN CRM 1 JL. LETNAN SUJONO NO. 38 - 40, MEDAN",3.597600000,98.720400000,BCA
"SPBU JAMIN GINTING JL. JAMIN GINTING, MEDAN",3.532400000,98.642600000,BCA
INDOMARET MANDALA BY PASS II MEDAN CRM 2 JL MANDALA BY PASS NO 168 & 170 KEC MEDAN TEMBUNG,3.590900000,98.711500000,BCA
INDOMARET MANDALA BY PASS II MEDAN CRM JL MANDALA BY PASS NO 168 & 170 KEC MEDAN TEMBUNG,3.590900000,98.711500000,BCA
YUKI SUKA RAMAI CRM 1 JL AR HAKIM 142 - MEDAN,3.587068700,98.705990800,BCA
"CARREFOUR CITRA GARDEN JL. JAMIN GINTING, MEDAN",3.547800000,98.659400000,BCA
INDOMARET KAPTEN PURBA MDN JL KAPTEN PURBA - MEDAN TUNTUNGAN - MEDAN,3.525800000,98.633300000,BCA
"INDOFOOD MAKASSAR CRM 1 JL KASAWAN INDUSTRI MAKASSAR X, KAV A-3",-5.104643100,119.489147300,BCA
MENARA STATION CRM 1 JL MANDALA BY PASS NO 74 MEDAN,3.592340600,98.711482000,BCA
INDOMARET ASIA MEGA MAS MDN CRM 1 KOMP ASIA MEGA MAS JL KOMP ASIA RAYA MEDAN,3.588085000,98.703673000,BCA
ALFAMART JAMIN GINTING I JL JAMIN GINTING NO 592 MEDAN,3.553100000,98.660500000,BCA
"ALFAMART ASIA MEDAN JL ASIA NO 167-167A, MEDAN AREA, MEDAN",3.586100000,98.699500000,BCA
ALFAMIDI JAMIN GINTING JL JAMIN GINTING KM 12 NO 22 MEDAN,3.516000000,98.616600000,BCA
INDOMARET SM RAJA SRI DELI MDN JL SM RAJA NO 28/50 - MEDAN KOTA - MEDAN,3.577300000,98.687400000,BCA
SPBU COCO 11.201.106 POLONIA MEDAN CRM 1 JL IMAM BONJOL SUKA DAMAI MEDAN POLONIA MEDAN,3.569955000,98.678198000,BCA
RAHMADSYAH CRM 1 JL RAHMADSYAH NO 140-142 MEDAN KOTA MEDAN,3.579650000,98.689690000,BCA
RAHMADSYAH CRM 2 JL RAHMADSYAH NO 140-142 MEDAN KOTA MEDAN,3.579650000,98.689690000,BCA
RAHMADSYAH CRM 3 JL RAHMADSYAH NO 140-142 MEDAN KOTA MEDAN,3.579650000,98.689690000,BCA
"RSIA STELLA MARRIS JL. SAMANHUDI, MEDAN",3.572000000,98.680400000,BCA
"RS METHODIST JL. THAMRIN , MEDAN",3.583500000,98.692900000,BCA
"HOTEL MEDAN VILLE KOMP. MULTATULI INDAH,  MEDAN",3.575300000,98.683000000,BCA
GIANT SPM TAMALANREA CRM 1 JL PERINTIS KEMERDEKAAN KM 11 NO 242 MAKASSAR,-5.133622000,119.497743000,BCA
ASIA II CRM 2 JL ASIA NO 168-170,3.586038000,98.695115000,BCA
ASIA CRM 5 JL ASIA SIMP BAKARAN BATU NO 1 C MEDAN,3.586038000,98.695115000,BCA
ASIA CRM 1 JL ASIA SIMP BAKARAN BATU NO 1 C MEDAN,3.586038000,98.695115000,BCA
ASIA CRM 2 JL ASIA SIMP BAKARAN BATU NO 1 C MEDAN,3.586038000,98.695115000,BCA
ASIA CRM 3 JL ASIA SIMP BAKARAN BATU NO 1 C MEDAN,3.586038000,98.695115000,BCA
ASIA CRM 4 JL ASIA SIMP BAKARAN BATU NO 1 C MEDAN,3.586038000,98.695115000,BCA
"SWALAYAN KASIMURA CRM 1 JL. WAHIDIN NO 34/204, MEDAN",3.588300000,98.697800000,BCA
JUANDA MEDAN CRM 2 JL IR H JUANDA 28,3.571807200,98.677754200,BCA
JUANDA MEDAN CRM JL IR H JUANDA 28,3.571807200,98.677754200,BCA
IRIAN SUPERMARKET DEPTSTORE AKSARA 1 JL AKSARA NO 120 MEDAN,3.596435000,98.706486000,BCA
BCA SYARIAH MEDAN JL ASIA 184D KEC MEDAN AREA,3.585600000,98.693500000,BCA
ALFAMIDI KAPPASA RAYA CRM 1 JL BANGKALA NO 9B MAKASSAR,-5.101560000,119.495997000,BCA
ASIA II CRM 3 JL ASIA NO 168-170,3.584538000,98.691076000,BCA
ASIA II CRM 1 JL ASIA NO 168-170,3.584613000,98.691110000,BCA
ALFAMART WAHIDIN (W134) JL WAHIDIN PANDAU HULU 1 MEDAN 20211,3.587900000,98.695000000,BCA
"KATAMSO, MEDAN CRM 1 JL BRIGJEN KATAMSO 56 B-C - MEDAN",3.578760615,98.683544860,BCA
"KATAMSO, MEDAN CRM 2 JL BRIGJEN KATAMSO 56 B-C - MEDAN",3.578760615,98.683544860,BCA
"KATAMSO, MEDAN CRM 3 JL BRIGJEN KATAMSO 56 B-C - MEDAN",3.578760615,98.683544860,BCA
INDOMARET MULTATULI MEDAN JL MULTATULI NO21-21A MEDAN MAIMUN MEDAN,3.575300000,98.679300000,BCA
"ALFAMIDI PERINTIS NTI CRM JL PERINTIS KEMERDEKAAN, MAKASSAR",-5.128048000,119.499824000,BCA
"THAMRIN PLAZA CRM 2 JL. THAMRIN NO. 75 R,  MEDAN",3.586318800,98.691462600,BCA
"THAMRIN PLAZA CRM 1 JL. THAMRIN NO. 75 R,  MEDAN",3.586318800,98.691462600,BCA
"INDOMARET ADAM MALIK MDN 1 JL BUNGA LAU KEL KEMENANGANTANI KEC MEDAN TUNTUNGAN, MEDAN",3.519110000,98.609420000,BCA
"RS DELI JL. MERBABU, MEDAN",3.586200000,98.688400000,BCA
"ALFAMART CILEBUT RAYA JL RAYA CILEBUT NO 9, RT01/RW02, KEL TANAH SAREAL, KEC TANAH SAREAL, BOGOR",6.554900000,106.800300000,BCA
INDOMARET PANCING SIMP GURILA 1 JL PANCING 43 KEL SIDOREJO KEC MEDAN TEMBUNG,3.600243000,98.704402300,BCA
HOTEL LEPOLONIA MEDAN JL JEND SUDIRMAN 14 KEC MEDAN POLONIA,3.576800000,98.675700000,BCA
SURABAYA MEDAN CRM 2 JL SURABAYA NO 133 - 135 MEDAN,3.584580000,98.684761000,BCA
SURABAYA MEDAN CRM 1 JL SURABAYA NO 133 - 135 MEDAN,3.584580000,98.684761000,BCA
SURABAYA MEDAN CRM 3 JL SURABAYA NO 133 - 135 MEDAN,3.584580000,98.684761000,BCA
INDOMARET WOLTER MONGINSIDI MEDAN JL W MONGINSIDI NO 3 KEC MEDAN POLONIA MEDAN,3.571300000,98.668900000,BCA
INDOMARET NGUMBAN SURBAKTI NO 81 MEDAN CRM 1 JL NGUMBANSURBAKTISEMPAKATA MEDANSELAYANG MDN,3.540700000,98.632300000,BCA
PERCETAKAN SRI DELI JL. HOS COKROAMINOTO NO. 11 MEDAN,3.592400000,98.693000000,BCA
ALFAMIDI VILLA MUTIARA CRM 1 JL IR SUTAMI VILLA MUTIARA NO 20-24 MAKASSAR,-5.074161000,119.498593000,BCA
PASARAYA MMTC MEDAN 1 JL WILLIEM ISKANDAR KOMP MMTC KEC PERCUT SEI TUAN,3.604800000,98.707500000,BCA
"INDOMARET MALAKA MDN JL. MALAKA, MEDAN",3.594300000,98.693800000,BCA
BRASTAGI SUPERMARKET GEDUNG TIARA MEDAN CRM 1 JL IMAM BONJOL SIMP CUT MEUTIA 1 KEC MEDAN POLONIA,3.580368000,98.676118000,BCA
"SUMATERA CRM 1 JL AIPTU K S TUBUN NO 46, MEDAN",3.599612000,98.698587000,BCA
"SUMATERA CRM 2 JL AIPTU K S TUBUN NO 46, MEDAN",3.599612000,98.698587000,BCA
"SUMATERA CRM 3 JL AIPTU K S TUBUN NO 46, MEDAN",3.599612000,98.698587000,BCA
"SUMATERA CRM 4 JL AIPTU K S TUBUN NO 46, MEDAN",3.599612000,98.698587000,BCA
"INDOMARET BTP BLOK A 24-25 MAKASSAR CRM 1 JL TAMALANREA RAYA BLOK A 24-25, MAKASSAR",-5.134972000,119.506360000,BCA
ALFAMIDI BTP2 MAKASSAR CRM 1 JL TAMALANREA BLOK I NO 16 MAKASSAR,-5.135005000,119.506391000,BCA
INDOMARET RS HAJI DELI SERDANG JL RUMAH SAKIT HAJI KEL MEDAN ESTATE KEC PERCUT SEI TUAN KAB DELI SERDANG,3.613500000,98.715000000,BCA
"APOTIK KIMIA FARMA JL. PALANG MERAH NO. 32, MEDAN",3.584700000,98.680100000,BCA
"INDOMARET JAMIN GINTING MDN JL LETJEN. JAMIN GINTING, NO. 490, MEDAN",3.568300000,98.660100000,BCA
YAYASAN PERGURUAN SUTOMO JL LETKOL MARTINUS LUBIS NO. 7 MEDAN,3.591400000,98.687200000,BCA
INDOMARET PAGODAM DAYA CRM 1 JL KOMP PASAR GROSIR DAYA MODERN B 2 MAKASSAR,-5.114299000,119.505868000,BCA
"SPBU COCO 11-201-107 H M YAMIN MEDAN JL H M YAMIN NO 56 SUNGAI KERA, MEDAN PERJUANGAN, MEDAN",3.599100000,98.695400000,BCA
ALFAMIDI PERINTIS IV CRM 1 JL PERINTIS KEMERDEKAAN KM 13 MAKASSAR,-5.122452000,119.506855000,BCA
HM YAMIN CRM 1 JL PROF HM YAMIN SH NO 245 A - B MEDAN,3.594098000,98.688276000,BCA
HM YAMIN CRM 2 JL PROF HM YAMIN SH NO 245 A - B MEDAN,3.594098000,98.688276000,BCA
HM YAMIN CRM 3 JL PROF HM YAMIN SH NO 245 A - B MEDAN,3.594098000,98.688276000,BCA
"RS COLOMBIA ASIA MEDAN CRM 1 JL LISTRIK 2A KEC MEDAN PETISAH, MEDAN",3.585741200,98.676781200,BCA
RS MURNI TEGUH CRM 1 JL VETERAN / TIMOR MEDAN,3.590200000,98.681900000,BCA
INDOMARET CV. BERJAYA MDN JL WAHID HASYIM NO I G MEDAN,3.572100000,98.660100000,BCA
"LOTTEMART CENTRE POINT MEDAN JL JAWA NO 1, MEDAN TIMUR, MEDAN",3.591600000,98.682500000,BCA
ALFAMIDI DC KIMA MAKASSAR CRM 1 JL KIMA 8 BLOK SS NO 23 KEL BIRA KEC BININGKANAYA MAKASSAR,-5.094721000,119.506853000,BCA
RS MURNI TEGUH JL VETERAN / TIMOR MEDAN,3.590609000,98.681044000,BCA
INDOMARET H M YAMIN MEDAN JL HM YAMIN NO 176 AB KEC MEDAN TIMUR MEDAN,3.597300000,98.688300000,BCA
"INDOMARET PERINTIS KEMERDEKAAN 14 MKS CRM 1 JL PERINTIS KEMERDEKAAN KM 14, MAKASSAR",-5.119350000,119.509693000,BCA
"CAMBRIDGE CITY SQUARE CRM 1 JL S PARMAN 217, KEC MEDAN PETISAH",3.596669200,98.687316900,BCA
"YUKI SERDANG JL. HM YAMIN, MEDAN",3.596800000,98.687400000,BCA
RAILINK MEDAN 2 JL STASIUN KERETA API KEL KESAWAN MEDAN,3.591400000,98.680800000,BCA
INDOMARET CIK DITIRO MEDAN JL CIK DITIRO NO10 MEDAN POLONIA MEDAN,3.581600000,98.669100000,BCA
CENTRE POINT MEDAN CRM 1 JL TIMOR/JAWA NO 1 MEDAN,3.591822300,98.681177700,BCA
CENTRE POINT MEDAN CRM 2 JL TIMOR/JAWA NO 1 MEDAN,3.591822300,98.681177700,BCA
"GRAND SAKURA HOTEL JL. H.M YAMIN, MEDAN",3.596300000,98.686100000,BCA
INDOMARET BTP IV CRM 1 JL PERUMAHAN BUMI TAMALANREA PERMAI MAKASSAR,-5.137338000,119.512213000,BCA
PULAU BRAYAN CRM 4 JL KOL YOS SUDARSO 223 J - MEDAN - 20116,3.585991000,98.672887000,BCA
BUKIT BARISAN CRM 5 JL BUKIT BARISAN NO 3 MEDAN,3.585991000,98.672887000,BCA
BUKIT BARISAN CRM 6 JL BUKIT BARISAN NO 3 MEDAN,3.585991000,98.672887000,BCA
"TANJUNG MORAWA CRM 3 KOMP SUZUYA SQUARE BLOK A1-A2, JL MEDAN",3.585991000,98.672887000,BCA
"TANJUNG MORAWA CRM 2 KOMP SUZUYA SQUARE BLOK A1-A2, JL MEDAN",3.585991000,98.672887000,BCA
"TANJUNG MORAWA CRM 1 KOMP SUZUYA SQUARE BLOK A1-A2, JL MEDAN",3.585991000,98.672887000,BCA
"PLAZA MEDAN FAIR CRM 1 PLAZA MEDAN FAIR, JL GATOT SUBROTO, MEDAN",3.585991000,98.672887000,BCA
"PLAZA MEDAN FAIR CRM 2 PLAZA MEDAN FAIR, JL GATOT SUBROTO, MEDAN",3.585991000,98.672887000,BCA
"PLAZA MEDAN FAIR CRM 3 PLAZA MEDAN FAIR, JL GATOT SUBROTO, MEDAN",3.585991000,98.672887000,BCA
KAMPUNG BARU CRM 1 JL BRIGJEN KATAMSO NO 678-680 MEDAN,3.585991000,98.672887000,BCA
KAMPUNG BARU CRM 2 JL BRIGJEN KATAMSO NO 678-680 MEDAN,3.585991000,98.672887000,BCA
KAMPUNG BARU CRM 3 JL BRIGJEN KATAMSO NO 678-680 MEDAN,3.585991000,98.672887000,BCA
"TANJUNG MORAWA CRM 4 KOMP SUZUYA SQUARE BLOK A1-A2, JL MEDAN",3.585991000,98.672887000,BCA
BUKIT BARISAN CRM 1 JL BUKIT BARISAN NO 3 MEDAN,3.585991000,98.672887000,BCA
BUKIT BARISAN CRM 2 JL BUKIT BARISAN NO 3 MEDAN,3.585991000,98.672887000,BCA
BUKIT BARISAN CRM 3 JL BUKIT BARISAN NO 3 MEDAN,3.585991000,98.672887000,BCA
BUKIT BARISAN CRM 4 JL BUKIT BARISAN NO 3 MEDAN,3.585991000,98.672887000,BCA
GRAND DAYA SQUARE CRM 1 JL PERINTIS KEMERDEKAAN KM14 MAKASSAR,-5.109828000,119.510745000,BCA
"HOTEL GRAND ASTON CITY HALL JL. BALAI KOTA NO. 1, MEDAN",3.589800000,98.676000000,BCA
KAWASAN INDUSTRI MAKASSAR CRM 1 JL PERINTIS KEMERDEKAAN BLOK A NO 1 MAKASSAR,-5.105576000,119.510755000,BCA
KAWASAN INDUSTRI MAKASSAR CRM 2 JL PERINTIS KEMERDEKAAN BLOK A NO 1 MAKASSAR,-5.105576000,119.510755000,BCA
KAWASAN INDUSTRI MAKASSAR CRM 3 JL PERINTIS KEMERDEKAAN BLOK A NO 1 MAKASSAR,-5.105576000,119.510755000,BCA
KAWASAN INDUSTRI MAKASSAR CRM 4 JL PERINTIS KEMERDEKAAN BLOK A NO 1 MAKASSAR,-5.105576000,119.510755000,BCA
KAWASAN INDUSTRI MAKASSAR CRM 5 JL PERINTIS KEMERDEKAAN BLOK A NO 1 MAKASSAR,-5.105576000,119.510755000,BCA
ALFAMIDI SYAILENDRA JL DR TD PARDEDE NO 21 PETISAH HULU MEDAN BARU MEDAN,3.579600000,98.663100000,BCA
BANK INDONESIA MEDAN 1 JL BALAI KOTA NO 4 MEDAN,3.590600000,98.676000000,BCA
INDOMARET SETIA BUDI CEMPAKA MEDAN JL SETIA BUDI KEC MEDAN SELAYANG MEDAN,3.551200000,98.629400000,BCA
INDOMARET KEJAKSAAN MDN JL KEJAKSAAN NO 10 KEL PETISAH TENGAH MEDAN,3.586800000,98.670900000,BCA
ASIA MEGA MAS CRM 1 KOMPLEK ASIA MEGA MAS JL ASIA RAYA BLOK B NO 41-42 KEL SUKARAMAI II MEDAN,3.586208300,98.669163000,BCA
ASIA MEGA MAS CRM 2 KOMPLEK ASIA MEGA MAS JL ASIA RAYA BLOK B NO 41-42 KEL SUKARAMAI II MEDAN,3.586208300,98.669163000,BCA
ASIA MEGA MAS CRM 3 KOMPLEK ASIA MEGA MAS JL ASIA RAYA BLOK B NO 41-42 KEL SUKARAMAI II MEDAN,3.586208300,98.669163000,BCA
ASIA MEGA MAS CRM 4 KOMPLEK ASIA MEGA MAS JL ASIA RAYA BLOK B NO 41-42 KEL SUKARAMAI II MEDAN,3.586208300,98.669163000,BCA
ASIA MEGA MAS CRM 5 KOMPLEK ASIA MEGA MAS JL ASIA RAYA BLOK B NO 41-42 KEL SUKARAMAI II MEDAN,3.586208300,98.669163000,BCA
"CAMBRIDGE CITY SQUARE JL S PARMAN 217, KEC MEDAN PETISAH",3.585100000,98.667300000,BCA
"SPBU COCO 71.902.77 CRM 1 JL. PERINTIS KEMERDEKAAN KM 16, MAKASAR",-5.095630000,119.511738000,BCA
ISKANDAR MUDA CRM 1 JL ISKANDAR MUDA NO 123 MEDAN,3.581223000,98.661051000,BCA
ISKANDAR MUDA CRM 2 JL ISKANDAR MUDA NO 123 MEDAN,3.581223000,98.661051000,BCA
ISKANDAR MUDA CRM 3 JL ISKANDAR MUDA NO 123 MEDAN,3.581223000,98.661051000,BCA
ISKANDAR MUDA CRM 4 JL ISKANDAR MUDA NO 123 MEDAN,3.581223000,98.661051000,BCA
ISKANDAR MUDA CRM 5 JL ISKANDAR MUDA NO 123 MEDAN,3.581223000,98.661051000,BCA
"CENTRE POINT CRM 1 KOMP CENTRE POINT, JL TIMOR BLOK J NO I-IV",3.581223000,98.661051000,BCA
PUSAT PASAR CRM 1 JL PUSAT PASAR NO 10 KOMP MEDAN MALL MEDAN,3.581223000,98.661051000,BCA
PUSAT PASAR CRM 2 JL PUSAT PASAR NO 10 KOMP MEDAN MALL MEDAN,3.581223000,98.661051000,BCA
"SUMATERA CRM 5 JL AIPTU K S TUBUN NO 46, MEDAN",3.581223000,98.661051000,BCA
GAGAK HITAM CRM 3 KOMP RBC A19-20 MEDAN,3.581223000,98.661051000,BCA
"PALANGKARAYA MEDAN CRM 1 JL PALANGKARAYA 28/49 KEC MEDAN KOTA, MEDAN",3.581223000,98.661051000,BCA
EBC PETISAH CRM 4 JL KOTA BARU III NO 6,3.581223000,98.661051000,BCA
"DIPONEGORO, MDN CRM 1 JL DIPONEGORO NO 15 MEDAN",3.581223000,98.661051000,BCA
"DIPONEGORO, MDN CRM 2 JL DIPONEGORO NO 15 MEDAN",3.581223000,98.661051000,BCA
"DIPONEGORO, MDN CRM 3 JL DIPONEGORO NO 15 MEDAN",3.581223000,98.661051000,BCA
"DIPONEGORO, MDN CRM 4 JL DIPONEGORO NO 15 MEDAN",3.581223000,98.661051000,BCA
"DIPONEGORO, MDN CRM 5 JL DIPONEGORO NO 15 MEDAN",3.581223000,98.661051000,BCA
EBC PETISAH CRM 1 JL KOTA BARU III NO 6,3.581223000,98.661051000,BCA
EBC PETISAH CRM 2 JL KOTA BARU III NO 6,3.581223000,98.661051000,BCA
EBC PETISAH CRM 3 JL KOTA BARU III NO 6,3.581223000,98.661051000,BCA
"BINA SWALAYAN CRM 1 JL SETIABUDI NO 283, MEDAN",3.561100000,98.637100000,BCA
"GRAND MERCURE MEDAN ANGKASA JL. PERINTIS KEMERDEKAAN / SUTOMO, MEDAN",3.599100000,98.682100000,BCA
"ALFAMIDI RAKYAT II CRM 1 JL RAKYAT SUDUT JL PELITA IV, SIDORAME TIMUR, MEDA",3.607200000,98.691100000,BCA
SETIA BUDI CRM 1 JL SETIA BUDI NO 150 A-B MEDAN,3.563126000,98.638215000,BCA
SETIA BUDI CRM 2 JL SETIA BUDI NO 150 A-B MEDAN,3.563126000,98.638215000,BCA
SETIA BUDI CRM 3 JL SETIA BUDI NO 150 A-B MEDAN,3.563126000,98.638215000,BCA
SETIA BUDI CRM 4 JL SETIA BUDI NO 150 A-B MEDAN,3.563126000,98.638215000,BCA
ALFAMART S PARMAN MEDAN JL S PARMAN SEKIP MEDAN PETISAH MEDAN,3.589300000,98.668900000,BCA
CAPITAL BUILDING JL PUTRI HIJAU 1A KEC MEDAN BARAT,3.596300000,98.676600000,BCA
ALFAMIDI ISKANDAR MUDA MEDAN JL ISKANDAR MUDA NO 101A-101 BABURA MEDAN BARU MEDAN,3.583500000,98.661200000,BCA
SWLYN MAJU BERSAMA MERAK JINGGA MDN CRM 1 JL PUTRI MERAK JINGGA NO 8 MEDAN,3.596972000,98.677171000,BCA
"SPBU COCO MERAK JINGGA JL. PUTRI MERAK JINGGA NO. 1, MEDAN",3.597600000,98.677800000,BCA
ALFAMIDI TUASAN JL TUASAN NO 74 MEDAN TEMBUNG MEDAN,3.615900000,98.698500000,BCA
GOLDEN TRADE CENTER CRM 4 JL GATOT SUBROTO NO 11-12 MEDAN,3.623570000,98.707612000,BCA
GOLDEN TRADE CENTER CRM 1 JL GATOT SUBROTO NO 11-12 MEDAN,3.623570000,98.707612000,BCA
GOLDEN TRADE CENTER CRM 2 JL GATOT SUBROTO NO 11-12 MEDAN,3.623570000,98.707612000,BCA
GOLDEN TRADE CENTER CRM 3 JL GATOT SUBROTO NO 11-12 MEDAN,3.623570000,98.707612000,BCA
INDOMARET NIBUNG RAYA MDN JL NIBUNG RAYA NO 64-65 MEDAN,3.587400000,98.664500000,BCA
ALFAMART HOTEL CANDI JL DARUSSALAM KEL BABURA KEC MEDAN BARU MEDAN,3.577700000,98.652900000,BCA
BEST & GROW TOWER CRM 1 JL PUTRI HIJAU NO 10 MEDAN,3.591541000,98.669300000,BCA
BEST & GROW TOWER CRM 2 JL PUTRI HIJAU NO 10 MEDAN,3.591541000,98.669300000,BCA
RSU SARAH JL BAJA RAYA 10 MEDAN,3.587400000,98.663600000,BCA
GAGAK HITAM CRM 1 KOMP RBC A19-20 MEDAN,3.595196000,98.672223000,BCA
GAGAK HITAM CRM 2 KOMP RBC A19-20 MEDAN,3.595196000,98.672223000,BCA
ALFAMIDI PACCERAKANG CRM 1 JL PACCERAKANG NO 118 MAKASSAR,-5.115147000,119.518845000,BCA
"INDOMARET RING ROAD I MEDAN JL RING ROAD 8 KEC MEDAN SELAYANG, MEDAN",3.557600000,98.626300000,BCA
"INDOMARET GAJAHMADA MDN CRM JL GAJAHMADA NO 40, MEDAN",3.584831000,98.658278000,BCA
SUPER SWALAYAN MEDAN KOMP. SETIABUDI MEDAN,3.567700000,98.637800000,BCA
INDOMARET SETIA BUDI TANJUNG REJO MDN JL SETIA BUDI KEC MEDAN SUNGGAL MEDAN,3.572290000,98.642570000,BCA
INDOMARET TUASAN SIDOREJO HILIR MEDAN JL TUASAN KEL SIDOREJO HILIR KEC MEDAN TEMBUNG - MEDAN,3.616100000,98.694500000,BCA
SPBU SINGAPORE 2 NO 14.201.1166 JL H ADAM MALIK NO 5/7 MEDAN,3.594400000,98.668400000,BCA
"ALFAMIDI PAJAIYANG CRM 1 JL PAJAIYANG NO 50, MAKASSAR",-5.108231000,119.519693000,BCA
"CARREFOUR MEDAN FAIR PLAZA MEDAN FAIR, JL. GATOT SUBROTO, MEDAN",3.591800000,98.663300000,BCA
"ALFAMIDI RING ROAD II MEDAN JL RING ROAD, KEL TANJUNG SARI KEC MEDAN SELAYANG, MEDAN",3.560400000,98.625900000,BCA
"SPBU 73.902.01 BIRINGKANAYA CRM 1 JL PERINTIS KEMERDEKAAN KM 17, MAKASSAR",-5.087832000,119.518873000,BCA
INDOMARET SPBU GAJAH MADA CRM 1 JL GAJAH MADA NO 16-18 MEDAN,3.585093000,98.654059000,BCA
INDOMARET PERUM SETIABUDI INDAH MDN CRM 1 PERUM SETIA BUDI INDAH BLOK UU NO 48-49 MEDAN,3.567485000,98.632806000,BCA
INDOMARET GATOT SUBROTO SIMPANG BARAT MDN JL GATOT SUBROTO SIMP BARAT NO 102 C-D MEDAN,3.589700000,98.658700000,BCA
"SPBU 14.201.131 SEI SERAYU JL SEI SERAYU NO 110, MEDAN",3.577400000,98.643600000,BCA
SPBU COCO YOS SUDARSO JL. YOS SUDARSO - MEDAN,3.602479000,98.673114000,BCA
"INDOMARET SEKIP 1 JL SEKIP, MEDAN",3.597100000,98.666600000,BCA
INDOMARET SEKIP 2 JL SEKIP UJUNG KEC MEDAN PETISAH MEDAN,3.597100000,98.666600000,BCA
ALFAMIDI SUTOMO MEDAN JL DR SUTOMO UJUNG KEL DURIAN MEDAN,3.609401000,98.679937000,BCA
MIYANA HOTEL JL H ANIF 28 MEDAN,3.633600000,98.707900000,BCA
"SWALAYAN SINAR LESTARI CRM 1 JL. PERINTIS KEMERDEKAAN KM 17, MAKASSAR",-5.081514000,119.521773000,BCA
HOME CENTRA JL RING ROAD SETIABUDI MEDAN,3.565700000,98.626200000,BCA
"KRAKATAU CRM 1 JL KRAKATAU NO 51 F-G, MEDAN",3.611335947,98.680100440,BCA
"KRAKATAU CRM 2 JL KRAKATAU NO 51 F-G, MEDAN",3.611335947,98.680100440,BCA
"KRAKATAU CRM 3 JL KRAKATAU NO 51 F-G, MEDAN",3.611335947,98.680100440,BCA
"KRAKATAU CRM 4 JL KRAKATAU NO 51 F-G, MEDAN",3.611335947,98.680100440,BCA
BRASTAGI THE FIVE STAR SUPERMARKET 2 JL GATOT SUBROTO NO. 288 MEDAN,3.590300000,98.655100000,BCA
BRASTAGI THE FIVE STAR SUPERMARKET CRM 1 JL GATOT SUBROTO NO. 288 MEDAN,3.590300000,98.655100000,BCA
INDOMARET DARUSSALAM BAKTI MEDAN JL DARUSSALAM KEC MEDANPETISAH MEDAN,3.589200000,98.653100000,BCA
BRASTAGI SUPERMARKET JL. JEND A YANI NO 10 RANTAU PRAPAT,3.591012825,98.654780390,BCA
"INDOGROSIR MAKASSAR CRM 1 JL PERINTIS KEMERDEKAAN KM 18, PAI, BIRINGKANAYA,",-5.078985000,119.522671000,BCA
"SPBU 74.902, SUDIANG MAKASAR CRM 1 JL. PERINTIS KEMERDEKAAN, KM 14, MAKASAR",-5.076226000,119.522408000,BCA
INDOMARET PUNAK MDN JL PUNAK KEC MEDAN PETISAH - MEDAN,3.596000000,98.660300000,BCA
INDOMARET BUMI PERMATA SUDIANG CRM 1 JL PERINTIS KEMERDEKAAN MAKASSAR,-5.076109000,119.523264000,BCA
"ALFAMIDI PASAR III KRAKATAU JL PASAR 3,GELUGUR DARAT 1,MEDAN TIMUR,MEDAN",3.617000000,98.684200000,BCA
PT MEGAMAS PLAZA BANGUNAN ( HOME SMART ) JL GATOT SUBROTO NO 102 MEDAN,3.590400000,98.652100000,BCA
"GLORIA SWALAYAN JL. GATOT SUBROTO, MEDAN",3.590300000,98.651200000,BCA
YES 248 AMIR HAMZAH JL TENGKU AMIR HAMZAH 55 KEC MEDAN BARAT,3.606800000,98.669300000,BCA
ALFAMIDI GOA RIA CRM 1 JL GOA RIA NO 54 MAKASSAR,-5.082491000,119.526264000,BCA
INDOMARET RINGROAD 45 MDN JL RINGROAD KEC MEDAN SUNGGAL - MEDAN,3.571400000,98.626100000,BCA
INDOMARET AYAHANDA MDN JL AYAHANDA NO52 B-C MEDAN PETISAH - MEDAN,3.595000000,98.653400000,BCA
"INDOMARET KASUARI MDN JL. KASUARI NO. 7, MEDAN",3.584100000,98.640400000,BCA
"INDOMARET GOA RIA 61 CRM 1 JL GOA RIA 61, MAKASSAR",-5.083559000,119.527103000,BCA
"ALFAMART CEMARA ASRI JL CEMARA BOULEVARD BLOK H NO 65, SAMPALI, PERCUT SEI TUAN, DELI SERDANG",3.631900000,98.697200000,BCA
INDOMARET GEREJA SEI AGUL MDN JL GEREJA KEL SEI AGUL MEDAN BARAT MEDAN,3.602500000,98.661800000,BCA
"ALFAMIDI CEMARA ASRI II JL BOULEVARD NO 8 AO-AR, KOMP CEMARA ASRI, KEL SAMPALI, KEC PERCUT SEI TUAN, DELI SERDANG",3.634520900,98.699903300,BCA
"INDOMARET PAJJAIANG MAKASSAR CRM 1 JL PAJJAING NO 115, MAKASSAR",-5.104307000,119.529583000,BCA
ALFAMIDI KARYA II MEDAN 1 JL KARYA 39 KEL SEI AGUL KEC MEDAN BARAT,3.604315000,98.662724600,BCA
CEMARA ASRI CRM 1 KOMP CEMARA ASRI JL BOULEVARD 8B KEC PERCUT SEI TUAN,3.635225000,98.699136000,BCA
CEMARA ASRI CRM 2 KOMP CEMARA ASRI JL BOULEVARD 8B KEC PERCUT SEI TUAN,3.635225000,98.699136000,BCA
CEMARA ASRI CRM 3 KOMP CEMARA ASRI JL BOULEVARD 8B KEC PERCUT SEI TUAN,3.635225000,98.699136000,BCA
CEMARA ASRI CRM 4 KOMP CEMARA ASRI JL BOULEVARD 8B KEC PERCUT SEI TUAN,3.635225000,98.699136000,BCA
CEMARA ASRI CRM 5 KOMP CEMARA ASRI JL BOULEVARD 8B KEC PERCUT SEI TUAN,3.635225000,98.699136000,BCA
CEMARA ASRI CRM 6 KOMP CEMARA ASRI JL BOULEVARD 8B KEC PERCUT SEI TU,3.635225000,98.699136000,BCA
INDOMARET AYAHANDA MEDAN JL AYAHANDA NO63A-B KECMEDANPETISAH MEDAN,3.598600000,98.653800000,BCA
INDOMARET CEMARA ASRI RAYA 1 JL CEMARA ASRI BOULEVARD RAYA KEL SAMPALI KEC PERCUT SEI TUAN KAB DELI SERDANG,3.634266000,98.696115200,BCA
"KASIMURA SWALAYAN JL. KRAKATAU, MEDAN",3.621400000,98.680700000,BCA
TOMANG ELOK CRM 1 KOMP TOMANG ELOK BLOK I NO 113-115 JL GATOT SUBROTO KEL SIMP TANJUNG KEC MEDAN SUNGGAL MEDAN,3.590481900,98.643838600,BCA
TOMANG ELOK CRM 2 KOMP TOMANG ELOK BLOK I NO 113-115 JL GATOT SUBROTO KEL SIMP TANJUNG KEC MEDAN SUNGGAL MEDAN,3.590481900,98.643838600,BCA
TOMANG ELOK CRM 3 KOMP TOMANG ELOK BLOK I NO 113-115 JL GATOT SUBROTO KEL SIMP TANJUNG KEC MEDAN SUNGGAL MEDAN,3.590481900,98.643838600,BCA
TOMANG ELOK CRM 4 KOMP TOMANG ELOK BLOK I NO 113-115 JL GATOT SUBROTO KEL SIMP TANJUNG KEC MEDAN SUNGGAL MEDAN,3.590481900,98.643838600,BCA
MAJU BERSAMA JL. KOLONEL YOS SUDARSO NO. 123-125 MEDAN,3.616265000,98.671851000,BCA
MAJU BERSAMA 2 JL. KOLONEL YOS SUDARSO NO. 123-125 MEDAN,3.616265000,98.671851000,BCA
INDOMARET MUSTAFA MDN JL BILAL MUSTAFA NO 33 E-F KEC MEDAN BARAT KOTA MEDAN,3.621900000,98.678500000,BCA
SPBU KARYA NO. 14.201.145 CRM 1 JL KARYA NO 140 MEDAN,3.611528700,98.665759300,BCA
INDOMARET TENGKU AMIR HAMZAH MDN JL TEUKU AMIR HAMZAH KEC MEDAN BARAT MEDAN,3.607400000,98.660800000,BCA
RINGROAD CITYWALK 1 JL GAGAK HITAM RINGROAD 28 MEDAN,3.575874800,98.623329900,BCA
"SWALAYAN 88 JL. SUNGGAL NO. 252 B, MEDAN",3.577000000,98.622800000,BCA
"ALFAMART CEMARA HIJAU KOMP CEMARA HIJAU NO 25-26 DESA SAMPALI, KEC PERCUT SEI TUAN, DELI SERDANG",3.639900000,98.696100000,BCA
"SPBU COCO GATOT SUBROTO, MDN JL. GATOT SUBROTA, MEDAN",3.591400000,98.638200000,BCA
ALFAMART KAPTEN MUSLIM JL KAPTEN MUSLIM NO 73 D-E  MEDAN,3.597400000,98.644800000,BCA
"BINJAI SUPER MALL CRM 1 JL SUTA NO 14, BINJAI",3.629370600,98.680763000,BCA
ALFA MILLENIUM PLAZA CRM 1 JL KAPT MUSLIM 111 KEC MEDAN HELVETIA,3.599000000,98.644600000,BCA
PT DEXA RETAILINDO PERSADA ( DEX DEPO ) JL KRAKATAU NO 35-A-B SIMPANG CEMARA MEDAN,3.629885000,98.680674000,BCA
INDOMARET RAJAWALI SIMPANG GATSU MDN JL RAJAWALI KELURAHAN I KEC MEDAN SUNGGAL MEDAN,3.591000000,98.633500000,BCA
SPBU PUTRA MIGAS ASIA 14.201.1125 JL KOL BEJO CEMARA KEC MEDAN TIMUR,3.630400000,98.678900000,BCA
INDOMARET YOS SUDARSO BRAYAN MDN JL YOS SUDARSO KEL PULO BRAYAN KOTA KEC MEDAN BARAT - MEDAN,3.622700000,98.669600000,BCA
MANDIRI SUPERMARKET MDN JL KAPTEN MUSLIM NO 8 MEDAN,3.605100000,98.645600000,BCA
"ALFAMIDI TB SIMATUPANG MEDAN JL TB SIMATUPANG NO 12A, 12B, 15, MEDAN SUNGGAL, MEDAN",3.578600000,98.613500000,BCA
MANHATTAN TIMES SQUARE MEDAN CRM 1 JL GATSU 217 SIMP RING ROAD KEC MEDAN SUNGGAL,3.590600000,98.626800000,BCA
"MAJU BERSAMA KRAKATAU 2 JL. GUNUNG KRAKATAU 3-4, MEDAN",3.637800000,98.681500000,BCA
"MAJU BERSAMA KRAKATAU 1 JL. GUNUNG KRAKATAU 3-4, MEDAN",3.637800000,98.681500000,BCA
ALFAMIDI MAROS IV JL AIRPORT NO 2 KEL TELLUMPOCCOE KEC MARUSU MAROS,-5.055383000,119.539410000,BCA
"INDOMARET AMAL MDN CRM 1 JL. AMAL NO. 25 - 25A, MEDAN",3.585200000,98.617400000,BCA
ALFAMIDI KAPTEN MUSLIM CRM 1 JL KAPTEN MUSLIM NO 203 MEDAN,3.609500000,98.645600000,BCA
"SPBU OILINDO STATION 14.201.1126 CRM 1 JL KRAKATAU, MEDAN",3.639263000,98.680984700,BCA
ALFAMIDI RAYA CIOMAS II JL RAYA CIOMAS NO 348 CIOMAS KAB BOGOR,6.602400000,106.766700000,BCA
"ALFAMIDI MATAHARI RAYA JL MATAHARI RAYA NO 24 A, B, C, KEL. HELVETIA TENGAH, KEC. MEDAN HELVETIA",3.610300000,98.641600000,BCA
BANDARA SULTAN HASANUDIN TERMINAL BANDARA SULTAN HASANUDIN,-5.075287000,119.545733000,BCA
"INDOMARET ASRAMA NO 8 FGH MDN CRM 1 JL ASRAMA NO8 FGH, DWIKORA, MEDAN HALVETIA",3.598831000,98.627322000,BCA
MULIA SWALAYAN JL. YOS SUDARSO NO. 97 MEDAN,3.634000000,98.669000000,BCA
ALFAMIDI RING ROAD JL RAYA ASRAMA KEL DWIKORA MEDAN,3.599200000,98.627600000,BCA
BANDARA SULTAN HASANUDDIN 2 TERMINAL BANDARA SULTAN HASANUDIN,-5.077000000,119.546600000,BCA
INDOMARET VETERAN DELI SERDANG JL VETERAN NO 1047 PASAR IV DELI SERDANG,3.630547000,98.661700000,BCA
"ALFAMIDI GATOT SUBROTO MEDAN JL JEND GATOT SUBROTO KM 7,5 NO 22 E,F,G,H, LALANG, MEDAN SUNGGAL, MEDAN",3.595000000,98.617800000,BCA
LOTTEMART MEDAN JL GATOT SUBROTO KM7-8 KELLALANG SUNGGAL MDN,3.594000000,98.614400000,BCA
GRAHA CEMERLANG JL PERINTIS KEMERDEKAAN KM 23 MAROS,-5.048909000,119.551659000,BCA
ALFAMIDI SEI MENCIRIM CRM 1 JL SEI MENCIRIM 151 KEC SUNGGAL,3.588657000,98.600195000,BCA
"GRAND MALL MAROS 1 JL POROS MAKASSAR MAROS KM 53, MAROS",-5.050288000,119.554153000,BCA
INDOMARET GAPERTA UJUNG CENDANA MDN JL GAPERTA LK - VII NO 170 MEDAN,3.606300000,98.615100000,BCA
"SPBU KELAMBIR V JL. RAYA KELAMBIR V NO.130 , MEDAN",3.608800000,98.608800000,BCA
