address,latitude,longitude,Bank
GIANT KENTEN CRM 1 JL MP MANGKU NEGARA KEL 8 ILIR PALEMBANG,-2.941600000,104.766800000,BCA
INDOMARET AHMAD YANI 62 SALATIGA JL A YANI 62 KALICACING SIDOMUKTI SALATIGA,-7.334700000,110.501400000,BCA
INDOMARET ANWAR ARSYAD PLG JL KAPT ANWAR ARSYAD KEL SIRING AGUNG KEC ILIR BARAT I PALEMBANG,-2.967000000,104.724400000,BCA
INDOMARET ABIHASAN PALEMBANG JL SIRNARAGA KECILIRTIMURII PALEMBANG,-2.942300000,104.761500000,BCA
"RAMAYANA SALATIGA JL. JEND. SUDIRMAN NO. 1, SALATIGA",-7.324700000,110.505300000,BCA
INDOMARET KARANGAWEN CRM 1 JL KARANGAWEN RAYA BRAMBANG DEMAK,-7.045155000,110.578962000,BCA
"ADA BARU JL. JEND.SUDIRMAN 20, SALATIGA",-7.328100000,110.504700000,BCA
"SLEMAN CITY HALL CRM 1 JL MAGELANG KM 9,6 NO18 DENGGUNG, TRIDADI, SLEMAN,",-7.720500000,110.361300000,BCA
INDOMARET MANGKUNEGARA 2 PLG JL. MANGKUNEGARA PALEMBANG,-2.936600000,104.768000000,BCA
"ALFAMART MUSI RAYA BARAT PALEMBANG CRM 1 JL MUSI RAYA BARAT RT 44/13, SIALANG, SAKO, PALEMB",-2.929100000,104.779800000,BCA
"KENTEN CRM 2 JL MP MANGKUNEGARA NO 016-017, PALEMBANG",-2.936532000,104.767965000,BCA
"KENTEN CRM 3 JL MP MANGKUNEGARA NO 016-017, PALEMBANG",-2.936532000,104.767965000,BCA
"KENTEN CRM 4 JL MP MANGKUNEGARA NO 016-017, PALEMBANG",-2.936532000,104.767965000,BCA
"KENTEN CRM 1 JL MP MANGKUNEGARA NO 016-017, PALEMBANG",-2.936532000,104.767965000,BCA
"RUKAN ARIO KEMUNING JL JENDRAL SUDIRMAN KM 4,5 PALEMBANG",-2.956100000,104.735700000,BCA
SUPERINDO SUDIRMAN SALATIGA JL JEND SUDIRMAN RT 002/ RW 004 KEL GENDONGAN KEC TINGKIR SALATIGA,-7.335400000,110.504700000,BCA
INDOMARET ANGKATAN 66 - 2 PLG JL. ANGKATAN 66 SKIP UJUNG - PALEMBANG,-2.945200000,104.751900000,BCA
ALFAMART NULIS JL RINGROAD SELATAN NO 124 KEL TAMANTIRTO KEC KASIHAN BANTUL,-7.809900000,110.324700000,BCA
INDOMARET PRUMNAS RAYA PALEMBANG CRM 1 JL PRUMNAS RAYA KEC SAKO PALEMBANG,-2.927600000,104.776800000,BCA
INDOMARET H SANUSI PLG CRM 1 JL H SANUSI KEC KEMUNING PALEMBANG,-2.948817000,104.742300000,BCA
GODEAN CRM 1 KOMP PERTOTMBKMASNO5A JL RY GODEANBANTULYOGYA,-7.778923860,110.340646400,BCA
GODEAN CRM 2 KOMP PERTOTMBKMASNO5A JL RY GODEANBANTULYOGYA,-7.778923860,110.340646400,BCA
GODEAN CRM 3 KOMP PERTOTMBKMASNO5A JL RY GODEANBANTULYOGYA,-7.778923860,110.340646400,BCA
INDOMARET TAMANTIRTO JL RINGROAD SELATAN TAMANTIRTO KASIHAN BANTUL,-7.815200000,110.324300000,BCA
INDOMARET POINT OFFICE PALEMBANG CRM 1 JL PANGERAN AYIN KEC SAKO PALEMBANG,-2.947483000,104.743681000,BCA
"ALFAMART SAKO SIARAN PALEMBANG JL SIARAN, KEC SAKO, PALEMBANG",-2.922700000,104.782200000,BCA
INDOMARET SIMPANG BLK PALEMBANG CRM 1 JL MP MANGKUNEGARA KEC SAKO PALEMBANG,-2.929828000,104.770404000,BCA
INDOMARET VETERAN SALATIGA JL VETERAN NO 41 LEDOK ARGOMULYO SALATIGA,-7.341200000,110.508000000,BCA
ALFAMART KOPRAL ANWAR JL KOPRAL ANWAR ( SAKO RAYA ) PALEMBANG,-2.922200000,104.779200000,BCA
CRM INDOMARET PATRAN JL GODEAN PATRAN RT 04 RW 01 KEL BANYURADEN KEC GA,-7.779770000,110.342950000,BCA
ALFAMART GANDA SUBRATA JL GANDA SUBRATA SAKO KOTA KOTA PALEMBANG,-2.931600000,104.763000000,BCA
ALFAMART ABUSAMAH JL RA ABUSAMAH SUKARAME PALEMBANG,-2.943400000,104.744000000,BCA
"ALFAMART SENDANGADI CRM 1 JL MAGELANG KM 7,5 SLEMAN",-7.739498000,110.362385000,BCA
"HOTEL ATRIUM YOGYAKARTA 1 JL KEBON AGUNG NO 20 MLATI, SLEMAN, YOGYAKARTA",-7.747500000,110.359800000,BCA
CIRCLE K MAGELANG KM 7 CRM 1 JL RAYA MAGELANG KM 7 NO 9 YOGYAKARTA,-7.742666000,110.362469000,BCA
"ALFAMART ABUSAMA II JL RA ABUSAMA, SUKARAME PALEMBANG",-2.940900000,104.743300000,BCA
INDOMARET SAKO BARU PALEMBANG JL SAKO BARU KEC SAKO PALEMBANG,-2.918500000,104.776700000,BCA
SAUDARA PASAR SWALAYAN 2 JL. VETERAN NO. 14 JEPARA,-6.590431000,110.664678000,BCA
SAUDARA PASAR SWALAYAN JL. VETERAN NO. 14 JEPARA,-6.590431000,110.664678000,BCA
"INDOMARET JOMBOR SLEMAN YOGYAKARTA JL MAGELANG KM 6,5 RT 05/20, SINDUADI, MLATI, SLEMAN",-7.747800000,110.362500000,BCA
ALFAMART TAMANTIRTO CRM JL BIBIS KM 3 RT 07 RW 18 KEL TAMANTIRTO KEC KASIH,-7.826000000,110.327700000,BCA
"ALFAMART KENTEN LAUT JL. PANGERAN AYIN,PALEMBANG",-2.920800000,104.770500000,BCA
INDOMARET KH BURLIAN PLG CRM 1 JL KOLONEL H BURLIAN PALEMBANG,-2.945900000,104.731100000,BCA
INDOGROSIR YOGYAKARTA CRM 1 JL MAGELANG KM 6 - SLEMAN - YOGYAKARTA,-7.750800000,110.362500000,BCA
INDOGROSIR YOGYAKARTA 2 JL. MAGELANG KM. 6 - SLEMAN - YOGYAKARTA,-7.750800000,110.362500000,BCA
INDOGROSIR PALEMBANG JL PANGERAN AYIN NAJAMUDDIN NO. 326 PALEMBANG,-2.920300000,104.770100000,BCA
ALFAMART WATES KM 3 JL WATES KM 3 NO 40 KEL NGESTIHARJO KEC KASIHAN BANTUL,-7.800600000,110.341200000,BCA
CIRCLE K JLN MAGELANG CRM 1 JL MAGELANG KM 5 YOGYAKARTA,-7.755300000,110.361800000,BCA
"ALFAMART MAGELANG KM 5,6 JL MAGELANG KM 5,6 KEL SINDUADI KEC MLATI KAB SLEMAN",-7.755200000,110.362100000,BCA
EBC JOGJA CITY CRM 1 JL MAGELANG KM 6 NO 18 SLEMAN,-7.754600000,110.362600000,BCA
EBC JOGJA CITY CRM 2 JL MAGELANG KM 6 NO 18 SLEMAN,-7.754600000,110.362600000,BCA
EBC JOGJA CITY CRM 3 JL MAGELANG KM 6 NO 18 SLEMAN,-7.754600000,110.362600000,BCA
EBC JOGJA CITY CRM 4 JL MAGELANG KM 6 NO 18 SLEMAN,-7.754600000,110.362600000,BCA
"SHOPPING CENTER JEPARA JL. PATIMURA , JEPARA",-6.589194000,110.668235000,BCA
INDOMARET PATTIMURA SALATIGA CRM 1 JL PATIMURA NO 28 SALATIGA,-7.361437000,110.510568000,BCA
ALFAMART HOTEL 309 PALAGAN BAWEN CRM 1 JL PALAGAN NO 40 KEC BAWEN KAB SEMARANG,-7.361437000,110.510568000,BCA
INDOMARET PASAR JETIS CRM 1 JL. IMAM BONJOL NO 9 KEL SIDOREJO SALATIGA,-7.361437000,110.510568000,BCA
INDOMARET TINGKIR CRM 1 JL SOEKARNO HATTA NO 95 SALATIGA,-7.361449000,110.510595000,BCA
INDOMARET HASANUDIN SALATIGA CRM 1 JL HASANUDIN 16A MANGUNSARI SALATIGA,-7.361449000,110.510595000,BCA
INDOMARET MUWARDI SALATIGA CRM 1 JL. MUWARDI NO. 55 SALATIGA,-7.361449000,110.510595000,BCA
"ALFAMART SORAGAN BANTUL JL SORAGAN RT02, NGESTIHARJO, KASIHAN, BANTUL",-7.789200000,110.348000000,BCA
"ALFAMART SUKABANGUN 2-4 PALEMBANG JL SUKABANGUN 2, SUKARAME, PALEMBANG",-2.943000000,104.730700000,BCA
JEPARA CRM 1 JL PEMUDA 28-32 - JEPARA,-6.595462754,110.667925200,BCA
JEPARA CRM 2 JL PEMUDA 28-32 - JEPARA,-6.595462754,110.667925200,BCA
JEPARA CRM 3 JL PEMUDA 28-32 - JEPARA,-6.595462754,110.667925200,BCA
JEPARA CRM 4 JL PEMUDA 28-32 - JEPARA,-6.595462754,110.667925200,BCA
JEPARA CRM 5 JL PEMUDA 28-32 - JEPARA,-6.595462754,110.667925200,BCA
JEPARA CRM 6 JL PEMUDA 28-32 - JEPARA,-6.595462754,110.667925200,BCA
"ALFAMART SONOSEWU JL PGRI NO 119, SONOSEWU, KASIHAN, BANTUL",-7.806500000,110.340600000,BCA
CRM INDOMARET KYAI MOJO JL KYAI MOJO NO 88 YOGYAKARTA,-7.781410000,110.352150000,BCA
INDOMARET SONO SEWU JL SONO SEWU NO 16B BANTUL,-7.807000000,110.342500000,BCA
SUPERINDO GODEAN JL. HOS COKROAMINOTO NO. 176 YOGYAKARTA,-7.782180000,110.354023000,BCA
ALFAMART SUKARNO HATTA SALATIGA JL SOEKARNO HATTA NO 64 SALATIGA,-7.361600000,110.513700000,BCA
"PINGIT CRM 2 JL MAGELANG KM 4 NO 402, YOGYAKARTA 55284",-7.768484966,110.361578300,BCA
"PINGIT CRM 3 JL MAGELANG KM 4 NO 402, YOGYAKARTA 55284",-7.768484966,110.361578300,BCA
"PINGIT CRM 1 JL MAGELANG KM 4 NO 402, YOGYAKARTA 55284",-7.768484966,110.361578343,BCA
INDOMARET SUKABANGUN PLG JL. SUKABANGUN 2 PALEMBANG,-2.935300000,104.735000000,BCA
"ALFAMART PALAGAN JL PALAGAN TENTARA PELAJAR NO 4, RT01/07, SARIHARJO, NGAGLIK, SLEMAN",-7.721200000,110.382600000,BCA
"INDOMARET RINGROAD MONJALI SLEMAN JL RINGROAD UTARA 10 NANDAN, SARIHARJO, NGAGLIK, SLEMAN YOGYAKARTA",-7.751300000,110.370500000,BCA
INDOMARET PALAGAN HYATT SLEMAN YOGYAKARTA 2 JL PALAGAN KM 7 SARIHARJO NGAGLIK SLEMAN,-7.736900000,110.376800000,BCA
INDOMARET PALAGAN HYATT JL PALAGAN KM 7 SARIHARJO NGAGLIK SLEMAN,-7.736900000,110.376800000,BCA
INDOMARET PANGERAN AYIN II PLG JL PANGERAN AYIN BANYUASIN PALEMBANG,-2.911900000,104.769800000,BCA
INDOMARET WIROBRAJAN CRM 1 JL RE MARTADINATA NO 116 SINGOSAREN YOGYA,-7.800600000,110.348700000,BCA
INDOMARET PALAGAN CRM 2 JL PALAGAN TENTARA PELAJAR NO 69 SLEMAN,-7.746600000,110.372800000,BCA
INDOMARET PALAGAN CRM 1 JL PALAGAN TENTARA PELAJAR NO 69 SLEMAN,-7.746600000,110.372800000,BCA
"INDOMARET PALAGAN 63 CRM 1 JL PALAGAN TENTARA PELAJAR NO 63 SARIHARJO, NGAGLI",-7.745727000,110.373364000,BCA
INDOMARET KRICAK CRM 1 JL MAGELANG NO 105 JATIMULYO KRICAK YOG,-7.774400000,110.360800000,BCA
INDOMARET KRICAK CRM 2 JL MAGELANG NO 105 JATIMULYO KRICAK YOG,-7.774400000,110.360800000,BCA
"ALFAMIDI SUPER TEGALREJO JL HOS COKROAMINOTO KOMPEK DEMAKAN RT35/09, TEGALREJO, TEGALREJO, YOGYAKARTA",-7.791035000,110.353448000,BCA
PAGAR ALAM CRM 1 JL KOMBES H UMAR NO 11 PAGAR ALAM LAHAT,-2.954230400,104.702696200,BCA
PAGAR ALAM CRM 2 JL KOMBES H UMAR NO 11 PAGAR ALAM LAHAT,-2.954230400,104.702696200,BCA
INDOMARET TEGALREJO CRM 1 JL HOS COKROAMINOTO 98 TELOGOREJO YOGYAKARTA,-7.792612000,110.353550000,BCA
INDOMARET HOS COKROAMINOTO CRM 1 JL HOS COKROAMINOTO NO 91 YOGYAKARTA,-7.796227000,110.352845000,BCA
"INDOMARET MONJALI SELATAN JL MONJALI, GEMAWANG SINDUADI, SLEMAN",-7.760600000,110.369300000,BCA
INDOMARET JETIS JL MAGELANG NO 28-30 JETIS YOGYAKARTA,-7.781000000,110.361000000,BCA
INDOMARET PIERE TENDEAN CRM 2 JL KAPTEN PIERE TENDEAN NO 36 YOGYAKARTA,-7.804400000,110.350900000,BCA
INDOMARET PIERE TENDEAN CRM 1 JL KAPTEN PIERE TENDEAN NO 36 YOGYAKARTA,-7.804400000,110.350900000,BCA
"APOTIK KD FARMA JL. LET. JEND SUPRAPTO NO. 87, YOGYAKARTA.",-7.794900000,110.357000000,BCA
"ALFAMART AM SANGAJI YOGYAKARTA JL AM SANGAJI NO 59, COKRODININGRATAN, JETIS, YOGYAKARTA",-7.773400000,110.368000000,BCA
ALFAMART LINGKAR DEMAK KM 25 JL RAYA LINGKAR DEMAK KM 25 DEMAK,-6.908900000,110.635680000,BCA
ALFAMART WAHID HASYIM 1 JL. WAHID HASYIM NO. 43 YOGYAKARTA,-7.803400000,110.356500000,BCA
INDOMARET SIWALAN JL SIWALAN NO 14 BINTARO DEMAK,-6.894140000,110.639755000,BCA
"INDOMARET WAHID HASYIM YOGYAKARTA JL WAHID HASYIM NO 51, NOTOPRAJAN, NGAMPILAN YOGYAKARTA",-7.804795000,110.356265000,BCA
BANK CCBI KC. YOGYAKARTA JL PANGERAN DPONEGORO NO 11 - 13 YOGYAKARTA,-7.783100000,110.366100000,BCA
INDOMARET JEPARA II JL KH WAHID HASYIM SENENAN JEPARA,-6.606101000,110.681247000,BCA
"ABADI HOTEL JOGJA JL PASAR KEMBANG NO 49, YOGYAKARTA",-7.790200000,110.363600000,BCA
STASIUN TUGU CRM 1 JL MANGKUBUMI SOSROMENDURAN YOGYAKARTA,-7.789100000,110.364200000,BCA
"INDOMARET SUGENG JERONI YOGYAKARTA CRM 1 JL SUGENG JERONI NO 27 GEDONGKIWO, MANTRIJERON, YOGYAKARTA",-7.812600000,110.354100000,BCA
"INDOMARET SUGENG JERONI YOGYAKARTA CRM 2 JL SUGENG JERONI NO 27 GEDONGKIWO, MANTRIJERON, YO",-7.812600000,110.354100000,BCA
CIRCLE K CK0111 SOSROWIJAYAN 2 JL SOSROWIJAYAN NO 37 YOGYAKARTA,-7.791400000,110.363700000,BCA
INDOMARET AHMAD DAHLAN CRM 1 JL AHMAD DAHLAN NO 76 YOGYAKARTA,-7.801138000,110.359543000,BCA
CIRCLE K CK0109 SUDIRMAN TUGU JL JENDRAL SUDIRMAN NO 14 YOGYAKARTA,-7.783120000,110.367700000,BCA
INDOMARET HBR MONTIK PALEMBANG JL HBR MONTIK NO 1002 RT 03 KARIA BARU ALANG ALANG LEBAR KARYA BA RU PALEMBANG,-2.934200000,104.716000000,BCA
INDOMARET BHAYANGKARA YOGYAKARTA JL. MIROTA GODEAN KM. 2- YOGYAKARTA,-7.796400000,110.362100000,BCA
MANGKUBUMI CRM 1 JL P MANGKUBUMI 5-7 - YOGYAKARTA,-7.788217139,110.366148500,BCA
MANGKUBUMI CRM 2 JL P MANGKUBUMI 5-7 - YOGYAKARTA,-7.788217139,110.366148500,BCA
"INDOFOOD PALEMBANG JL. TALANG KELAPA KM. 8, PALEMBANG",-2.933900000,104.714900000,BCA
INDOMARET PAKEM JL KALIURANG KM 17 PAKEMBINANGUN PAKEM SLEMAN,-7.665000000,110.419500000,BCA
INDOMARET PANDEGA JL PANDEGA MARTA NO 1 CATURTUNGGAL SLEMAN,-7.754600000,110.382600000,BCA
"MALIOBORO THE SHOPPING MALL 1 JL. MALIOBORO 52-58, YOGYAKARTA",-7.793200000,110.366200000,BCA
"MALIOBORO THE SHOPPING MALL 2 JL. MALIOBORO 52-58, YOGYAKARTA",-7.793200000,110.366200000,BCA
"ALFAMART KLERO SALATIGA JL SALATIGA - SOLO KM 8, RT05 RW01, SEMARANG",-7.406370000,110.515520000,BCA
"TOKO ARLOJI SAMUDRA MAKMUR JL. KALIURANG KM 5/10, SLEMAN, YOGYAKARTA",-7.761700000,110.380300000,BCA
CIRCLE K KALIURANG BAWAH CRM 1 JL KALIURANG KM 4 5 KOCORAN NO 52 YOGYAKARTA,-7.763785000,110.379443000,BCA
"TOKO RAMAI 2, YOGYA JL. A YANI 73 YOGYAKARTA",-7.796631000,110.364900000,BCA
"KALIURANG CRM 1 JL KALIURANG KM 6,4 NO 60 SLEMAN, YOGYAKARTA",-7.753308100,110.384193900,BCA
"KALIURANG CRM 2 JL KALIURANG KM 6,4 NO 60 SLEMAN, YOGYAKARTA",-7.753308100,110.384193900,BCA
"KALIURANG CRM 3 JL KALIURANG KM 6,4 NO 60 SLEMAN, YOGYAKARTA",-7.753308100,110.384193900,BCA
"KALIURANG CRM 4 JL KALIURANG KM 6,4 NO 60 SLEMAN, YOGYAKARTA",-7.753308100,110.384193900,BCA
"KALIURANG CRM 5 JL KALIURANG KM 6,4 NO 60 SLEMAN, YOGYAKARTA",-7.753308100,110.384193900,BCA
"KALIURANG CRM 6 JL KALIURANG KM 6,4 NO 60 SLEMAN, YOGYAKARTA",-7.753308100,110.384193900,BCA
"KALIURANG CRM 7 JL KALIURANG KM 6,4 NO 60 SLEMAN, YOGYAKARTA",-7.753308100,110.384193900,BCA
K.H.A DAHLAN CRM 1 JL KH AKHMAD DAHLAN NO 08 YOGYAKARTA,-7.801584482,110.362843400,BCA
K.H.A DAHLAN CRM 2 JL KH AKHMAD DAHLAN NO 08 YOGYAKARTA,-7.801584482,110.362843400,BCA
K.H.A DAHLAN CRM 3 JL KH AKHMAD DAHLAN NO 08 YOGYAKARTA,-7.801584482,110.362843400,BCA
"SUPERINDO KALIURANG CRM 1 JL KALIURANG KM 6,2 NO 51 YOGYAKARTA",-7.752600000,110.384600000,BCA
"INDOMARET BANTUL JL. RAYA BANTUL NO. 60, YOGYAKARTA",-7.817800000,110.355600000,BCA
"MIROTA KALIURANG CRM 1 JL KALIURANG KM 6,1 YOGYAKARTA",-7.752800000,110.384600000,BCA
RAMAYANA RB 17 JL. A. YANI 66 YOGYAKARTA,-7.797600000,110.365200000,BCA
"ALFAMIDI SUPERMARKET MANTRIJERON JL BANTUL KM 2,5, MANTRIJERON, GEDONGTENGEN, YOGYAKARTA",-7.820200000,110.355100000,BCA
CUPIDO INTERNET CAFÃ‰ JL. CIK DITIRO NO. 38 YOGYAKARTA,-7.776100000,110.375000000,BCA
INDOMARET PERINDUSTRIAN PLG CRM 1 JL PERINDUSTRIAN KEC SUKARAME PALEMBANG,-2.928464000,104.716432000,BCA
RS PANTI RAPIH 1 JL CIK DI TIRO NO 30 YOGYAKARTA,-7.776400000,110.376400000,BCA
"KOTA JATI JEPARA JL. RAYA JEPARA BANGSRI, KM 6,5 - JEPARA",-6.552853000,110.692681000,BCA
"ALFAMART KALIURANG KM 8,1 CRM 1 JL KALIURANG 8,1 NO 72 SLEMAN",-7.737351000,110.393739000,BCA
"INDOMARET KALIURANG KM 8,3 JL. KALIURANG KM 8,3 PRUJAKAN YOGYAKARTA",-7.735700000,110.394700000,BCA
PASAR BERINGHARJO 2 JL A YANI NO 16 NGUPASAN GONDOMAN YOGYAKARTA,-7.799300000,110.367000000,BCA
PASAR BERINGHARJO 1 JL A YANI NO 16 NGUPASAN GONDOMAN YOGYAKARTA,-7.799300000,110.367000000,BCA
"NEW DM 07 SUPERMARKET 1 JL BANTUL KM7 KALIPUTIH PENDOWOHARDJO, SEWON, BANTUL",-7.853500000,110.342200000,BCA
"INDOMARET KALIURANG KM 9 SLEMAN JL KALIURANG KM 9,3 KLABANAN, SINDUHARJO, NGAGLIK, SLEMAN",-7.728200000,110.398700000,BCA
GIANT SPM SUKARNO HATTA PALEMBANG JL BY PASS ALANG ALANG LEBAR KOMPLEK CITRA TIMUR MANDIRI COMMERCIAL ESTA KEL TALANG KELAPA KEC ALANG ALANG LEBAR PALEMBANG,-2.935400000,104.702300000,BCA
BANTUL CRM 1 JL SUDIRMAN NO 74 KEC BANTUL YOGYAKARTA,-7.782559700,110.375476100,BCA
BANTUL CRM 2 JL SUDIRMAN NO 74 KEC BANTUL YOGYAKARTA,-7.782559700,110.375476100,BCA
ATM TERPADU YOGJA CRM 1 JL JEND SUDIRMAN 49-51 - YOGYAKARTA - 55223,-7.782559700,110.375476100,BCA
ATM TERPADU YOGJA CRM 2 JL JEND SUDIRMAN 49-51 - YOGYAKARTA - 55223,-7.782559700,110.375476100,BCA
ATM TERPADU YOGJA CRM 3 JL JEND SUDIRMAN 49-51 - YOGYAKARTA - 55223,-7.782559700,110.375476100,BCA
ATM TERPADU YOGJA CRM 4 JL JEND SUDIRMAN 49-51 - YOGYAKARTA - 55223,-7.782559700,110.375476100,BCA
ATM TERPADU YOGJA CRM 5 JL JEND SUDIRMAN 49-51 - YOGYAKARTA - 55223,-7.782559700,110.375476100,BCA
ATM TERPADU YOGJA CRM 6 JL JEND SUDIRMAN 49-51 - YOGYAKARTA - 55223,-7.782559700,110.375476100,BCA
ATM TERPADU YOGJA CRM 7 JL JEND SUDIRMAN 49-51 - YOGYAKARTA - 55223,-7.782559700,110.375476100,BCA
ATM TERPADU YOGJA CRM 8 JL JEND SUDIRMAN 49-51 - YOGYAKARTA - 55223,-7.782559700,110.375476100,BCA
UNIVERSITAS GAJAH MADA CRM 1 JL PROF DR MR DRS NOTONEGORO BULAKSUMUR YOGYA,-7.782559700,110.375476100,BCA
"UNIV ATMAJAYA YGK CRM 1 UNIV ATMAJAYA, JL BABARSARI, DI YOGYAKARTA",-7.782559700,110.375476100,BCA
"ADISUCIPTO CRM 1 JL LAKSDA ADI SUCIPTO KM 6, JANTI, CATURTUNGGAL, S",-7.782559700,110.375476100,BCA
"ADISUCIPTO CRM 2 JL LAKSDA ADI SUCIPTO KM 6, JANTI, CATURTUNGGAL, S",-7.782559700,110.375476100,BCA
"BCA EXPRESS UNY CRM 1 PLAZA UNY, JL AFFANDI NO 5 YOGYAKARTA",-7.782559700,110.375476100,BCA
"ALFAMIDI KALIURANG CRM 1 JL KALIURANG KM 9, SLEMAN, YOGYAKARTA",-7.728500000,110.399100000,BCA
"SAMITEX SEWON 1 JL RAYA BANTUL KM 3,5, SEWON, BANTUL,YOGYAKARTA",-7.826550000,110.356400000,BCA
TOKO PROGO JL. SRIWEDARI NO. 8 - YOGYAKARTA,-7.798845000,110.369310000,BCA
"TOKO MAS SEMAR BANTUL YOGYAKARTA CRM 1 JL JENDRAL SUDIRMAN NO 79 WARUNG, BANTUL YOGYAKARTA",-7.884702900,110.329448200,BCA
"RUKO KH BURLIAN JL. KH. BURLIAN, PALEMBANG",-2.926100000,104.713900000,BCA
VOKASI UNIVERSITAS GAJAH MADA 1 JL SEKIP UNIT I BULAKSUMUR CATUR TUNGGAL YOGYAKARTA,-7.774900000,110.380200000,BCA
"INDOMARET JEPARA I JL JEPARA KUDUS KM 4,5 TAHUNAN JEPARA",-6.615424000,110.689536000,BCA
KOL H BURLIAN CRM 1 JL KOL H BURLIAN RUKO KELAPA GADING PALEMBANG,-2.925684324,104.713029600,BCA
KOL H BURLIAN CRM 2 JL KOL H BURLIAN RUKO KELAPA GADING PALEMBANG,-2.925684324,104.713029600,BCA
KOL H BURLIAN CRM 3 JL KOL H BURLIAN RUKO KELAPA GADING PALEMBANG,-2.925684324,104.713029600,BCA
"ALFAMART KALIURANG KM 11,5 JL KALIURANG KM 11,5, NGAGLIK, SLEMAN",-7.708700000,110.409700000,BCA
"ALFAMART HAYAM WURUK YOG JL HAYAM WURUK NO 74 RT 18/05, BAUSASRAN, DANUREJAN, YOGYAKARTA",-7.792700000,110.373400000,BCA
INDOMARET PROF YOHANES CRM 1 JL PROF YOHANES GK V NO 988 YOGYAKARTA,-7.778574000,110.379769000,BCA
"INDOMARET HAYAM WURUK YOGYAKARTA JL HAYAM WURUK NO 16, DANUREJAN, YOGYAKARTA",-7.795500000,110.372700000,BCA
INDOMARET UMBULMARTANI JL KALIURANG KM 14 NGEMPLAK SLEMAN,-7.688500000,110.418800000,BCA
"INDOMARET JAKAL 2 KL KALIURANG KM 12,5 NO 12 SLEMAN YOGYAKARTA",-7.703020000,110.413320000,BCA
PURNAMA SWALAYAN JL. PRAMUKA NO. 3 BANTUL YOGYAKARTA,-7.879900000,110.334400000,BCA
"JOGJATRONIK 1 JL. BRIGJEN KATAMSO 75-77, YOGYAKARTA",-7.805500000,110.369200000,BCA
"JOGJATRONIK 2 JL. BRIGJEN KATAMSO 75-77, YOGYAKARTA",-7.805500000,110.369200000,BCA
INDOMARET MANTRIJERON JL PANJAITAN NO 101 MANTRIJAN YOGYAKARTA,-7.822300000,110.361600000,BCA
ALFAMART DI PANJAITAN YOGYAKARTA JL DI PANJAITAN NO 49 A KEL JOGOKARYAN KEC MANTRIJERON YOGYAKARTA,-7.822500000,110.361600000,BCA
"INDOMARET CANDISARI JL KALIURANG KM 12,6 CANDISARI NGAGLIK SLEMAN",-7.700000000,110.415200000,BCA
"UNIV KRISTEN DUTA WACANA JL. DR. WAHIDIN NO. 5-25, YOGYAKARTA",-7.786200000,110.378500000,BCA
INDOMARET BRIGJEN KATAMSO YOGYA JL BRIGJEN KATAMSO NO 97A YOGYAKARTA,-7.807100000,110.369200000,BCA
"ALFAMART KALIURANG KM 13,1 CRM 1 JL KALIURANG KM 13,1 BESI D-2 SLEMAN",-7.698312000,110.416437000,BCA
INDOMARET MASKAREBET PLG JL AHMAD DAHLAN KEC TALANG KELAPANI PALEMBANG,-2.928300000,104.703800000,BCA
"INTAN SWALAYAN YOGYA 2 JL. KALIURANG KM.14 SLEMAN, JOGJAKARTA",-7.694000000,110.418800000,BCA
ALFAMART TALANG KELAPA JL TALANG KELAPA RT 79/08 KEL TALANG KELAPA KEC ALANG ALANG LEBAR PALEMBANG,-2.936800000,104.690200000,BCA
SUPERINDO SULTAN AGUNG JL. SULTAN AGUNG NO.10 YOGYAKARTA,-7.801600000,110.372800000,BCA
KATAMSO CRM 1 JL BRIGJEND KATAMSO NO 57/183 YOGYAKARTA,-7.809999943,110.369163500,BCA
KATAMSO CRM 2 JL BRIGJEND KATAMSO NO 57/183 YOGYAKARTA,-7.809999943,110.369163500,BCA
KATAMSO CRM 3 JL BRIGJEND KATAMSO NO 57/183 YOGYAKARTA,-7.809999943,110.369163500,BCA
KATAMSO CRM 4 JL BRIGJEND KATAMSO NO 57/183 YOGYAKARTA,-7.809999943,110.369163500,BCA
ALFAMART PARANGTRITIS JL PARANGTRITIS NO 29 YOGYAKARTA,-7.810200000,110.369200000,BCA
ALFAMART KEBUN BUNGA CRM 1 JL KEBUN BUNGA NO 1A SUKARAME KOTA PALEMBANG,-2.918436000,104.716685000,BCA
INDOMARET COLOMBO SLEMAN JL COLOMBO CT VI/26 SAMIRONO SLEMAN,-7.777400000,110.384700000,BCA
"SUPERINDO URIP SUMOHARJO JL. URIP SUMOHARJO, YOGYAKARTA",-7.783061000,110.382321000,BCA
"STMIK IGM KAMPUS B JL. KOL. H. BURLIAN KM. 10, PALEMBANG",-2.921900000,104.709400000,BCA
INDOMARET MASKAREBET II PLG CRM 1 JL MASKAREBET ALANG-ALANG LEBAR PALEMBANG,-2.928278000,104.699467000,BCA
SPBU COCO 4155101 BACIRO JL. KOMPOL BAMBANG SUPRAPTO BACIRO YOGYAKARTA,-7.790300000,110.380000000,BCA
"INDOMARET PRAWIROTAMAN YOGYAKARTA JL PARANGTRITIS MANTRIJERON, BRONTOKUSUMAN YOGYAKARTA",-7.815900000,110.368500000,BCA
INDOMARET DR SUTOMO JL DR SUTOMO NO 21 RT 40 RW 12 KEL BAUSASRAN KEC DANUREJAN YOGYAKARTA,-7.797600000,110.376900000,BCA
INDOMARET KEBUN BUNGA 27 1 JL KEBUN BUNGA SUKARAME PALEMBANG,-2.915955000,104.717544000,BCA
MIROTA GEJAYAN CRM JL. GEJAYAN CT X/09 YOGYAKARTA,-7.769600000,110.390500000,BCA
GEJAYAN CRM 1 JL GEJAYAN NO 38 SLEMAN YOGYAKARTA,-7.760175000,110.394709000,BCA
GEJAYAN CRM 2 JL GEJAYAN NO 38 SLEMAN YOGYAKARTA,-7.760175000,110.394709000,BCA
GEJAYAN CRM 3 JL GEJAYAN NO 38 SLEMAN YOGYAKARTA,-7.760175000,110.394709000,BCA
GEJAYAN CRM 4 JL GEJAYAN NO 38 SLEMAN YOGYAKARTA,-7.760175000,110.394709000,BCA
"CIRCLE K GEJAYAN 17C SLEMAN JL GEJAYAN NO17C, CATURTUNGGAL, DEPOK, SLEMAN",-7.772400000,110.389800000,BCA
MITRA 10 TANJUNG API API PALEMBANG JL TANJUNG API API RT45 RW10 KEL KEBUN BUNGA -DEPAN ASRAMA HAJI SUMSEL- PALEMBANG,-2.917700000,104.712200000,BCA
CRM INDOMARET ANGGAJAYA II JL ANGGAJAYA 2 RT 002 RW 008 KEL CONDONGCATUR KEC,-7.757350000,110.396620000,BCA
INDOMARET GONDOKUSUMAN JL GAYAM NO20 RT02 /01BACIROGONDOKUSUMANYOGYA,-7.797600000,110.379500000,BCA
INDOMARET ANGGAJAYA II CRM 2 JL ANGGAJAYA 2 RT 002 RW 008 KEL CONDONGCATUR KEC,-7.750900000,110.400200000,BCA
SUPERINDO PARANGTRITIS CRM 1 JL. PARANG TRITIS YOGYAKARTA,-7.824200000,110.368000000,BCA
GIANT SPM CONDONG CATUR JL RINGROAD CONDONGCATUR DEPOK SLEMAN,-7.758100000,110.397600000,BCA
"ALFAMART RAYA ALANG ALANG LEBAR PLG CRM JL TEMBUS TERMINAL ALANG-ALANG LEBAR, PLG",-2.931008000,104.688268000,BCA
ALFAMART TANJUNG SIAPI API JL LETNAN HARUN SOHAR RT 34/11 KEL KEBUN BUNGA KEC SUKARAME PALEMBANG,-2.907700000,104.723900000,BCA
CRM INDOMARET PRINGGONDANI  2 JL PRINGGONDANI NO 20 CATURNUNGGAL DEPOK SLEMAN YO,-7.774168500,110.391507100,BCA
HONDA MAJU MOTOR TANJUNG API API 1 JL LETJEND HARUN SOHAR TJ API API NO 999 PALEMBANG,-2.909195900,104.721213600,BCA
INDOMARET DR WAHIDIN BANTUL CRM JL DR WAHIDIN BANTUL ( DEPAN KANTOR DEPAG ),-7.892900000,110.337400000,BCA
INDOMARET SISINGAMANGARAJA CRM 1 JL SISINGAMANGARAJA NO 50 YOGYAKARTA,-7.817214000,110.372993000,BCA
"ALFAMART BANGUNHARJO BANTUL JL PARANGTRITIS NO 220, KM 4, BANGUNHARJO, SEWON, BANTUL",-7.830900000,110.367000000,BCA
"HARTONO MALL YOGYAKARTA 1 JL RINGROAD UTARA, CONGDONGCATUR, DEPOK, SLEMAN",-7.760300000,110.398600000,BCA
"HARTONO MALL YOGYAKARTA 2 JL RINGROAD UTARA, CONGDONGCATUR, DEPOK, SLEMAN",-7.760300000,110.398600000,BCA
INDOMARET SEWON BANTUL YOGYAKARTA 2 JL PARANGTRITIS KM 56 PANGGUNGHARJO BANTUL,-7.846700000,110.360100000,BCA
INDOMARET SEWON JL PARANGTRITIS KM 56 PANGGUNGHARJO BANTUL,-7.846700000,110.360100000,BCA
INDOMARET TAMAN SISWA JL TAMAN SISWA NO 85 WIROGUNAN YOGYAKARTA,-7.810200000,110.377100000,BCA
ALFAMART ALANG ALANG LEBAR JL TEMBUS ALANG ALANG LEBAR PALEMBANG,-2.930200000,104.686100000,BCA
CRM INDOMARET PRINGGONDANI JL PRINGGONDANI NO 20 CATURNUNGGAL DEPOK SLEMAN YO,-7.774170000,110.393700000,BCA
INDOMARET KAKAP SLEMAN YOGYAKARTA JL KAKAP RAYA RT 28/ 06 MINOMARTANI NGAGLIK SLEMAN YOGYAKARTA,-7.740300000,110.408500000,BCA
INDOMARET PAKUALAMAN CRM 1 JL GAJAH MADA NO 15 YOGYAKARTA,-7.813481000,110.376365000,BCA
INDOMARET MLONGGO CRM 1 JL RAYA MLONGGO KM 10 JEPARA,-6.526887000,110.710133000,BCA
TAMAN SISWA JL. TAMAN SISWA NO. 150 A YOGYAKARTA,-7.813400000,110.376700000,BCA
INDOMARET GURAME RAYA CRM 1 JL RAYA SOLO KM 8 NO. 234 YOGYAKARTA,-7.746877000,110.406488000,BCA
LIPPO PLAZA JOGJA CRM 1 JL LAKSDA ADISUCIPTO 32-34 DEMANGAN GONDOKUSUMAN Y,-7.783500000,110.390500000,BCA
ALFAMART SISINGAMANGRAJA YOGYAKARTA JL SISINGAMANGRAJA NO 80 RT 26 RW 14 KEL BRONTOKUSUMAN KEC MERGANGSAN YOGYAKARTA,-7.822500000,110.373000000,BCA
INDOMARET ADISUCIPTO JL LAK.ADISUCIPTO75 RT005/02GONDOKUSUMA YOGYA,-7.783100000,110.391500000,BCA
"INDOMARET GURAMEH SELATAN SLEMAN JL GURAMEH RAYA SELATAN NO 15 RT 32/12, MINOMARTANI, NGAGLIK, SLEMAN",-7.749400000,110.406400000,BCA
INDOMARET KARANGKAJEN JL IMOGIRI BARAT NO 139 BANGUNHARJO BANTUL,-7.825000000,110.373600000,BCA
INDOMARET CITRA GRAND CITY PLG CRM 1 JL RAYA PERUM CITRA GRAND CITY KEL TALANG KELAPA K,-2.929600000,104.681500000,BCA
JOGYA INTERNATIONAL HOSPITAL JL RINGROADUTARANO160CNDONGCTR DPKSLEMANYOGYA,-7.758000000,110.403800000,BCA
KUSUMA NEGARA CRM 1 JL KUSUMANEGARA NO 18 TAHUNAN UMBULHARJO,-7.802047347,110.384896500,BCA
KUSUMA NEGARA CRM 2 JL KUSUMANEGARA NO 18 TAHUNAN UMBULHARJO,-7.802047347,110.384896500,BCA
KUSUMA NEGARA CRM 3 JL KUSUMANEGARA NO 18 TAHUNAN UMBULHARJO,-7.802047347,110.384896500,BCA
SWALAYAN SAUDARA JL SOEKARNO HATTA KM 6 TAHUNAN JEPARA,-6.632091000,110.703766000,BCA
INDOMARET PAPRINGAN JL PETUNG NO 4 PAPRINGAN CATURNUNGGAL DEPOK SLEMAN YOGYAKARTA,-7.781900000,110.395800000,BCA
ALFAMART AMPEL GADING JL RINGROAD UTARA KEL CONDONGCATUR KEC DEPOK SLEMAN,-7.759900000,110.405900000,BCA
INDOMARET KUSUMANEGARA 129 CRM 1 JL KUSUMANEGARA NO129  YOGYAKARTA,-7.801987000,110.387443000,BCA
INDOMARET MENTERI SUPENO JL MENTERI SUPENO NO 79 YOGYAKARTA,-7.816200000,110.381200000,BCA
CIRCLE K CK0112 TIMOHO JL TIMOHO NO 29 B YOGYAKARTA,-7.790418000,110.393323000,BCA
INDOMARET SAPEN CRM 1 JL. TIMOHO UTARA NO.52 YOGYAKARTA,-7.786887000,110.395057000,BCA
ALFAMART TIMOHO JL IPDA TUT HARSONO NO 132 YOGYAKARTA,-7.787800000,110.394800000,BCA
INDOMARET TANJUNG API API PLG CRM JL TANJUNG API API NO 79 KEL TALANG JAMBE KEC SUKA,-2.895599000,104.726317000,BCA
INDOMARET TANJUNG API API PLG CRM 2 JL TANJUNG API API NO 79 KEL TALANG JAMBE KEC SUKA,-2.895489000,104.726338000,BCA
CIRCLE K NUSA INDAH CRM 1 JL CANDI GEBANG DEPOK SLEMAN YOGYAKARTA,-7.751465000,110.411307000,BCA
"INDOMARET MENTRI SUPENO YOGYAKARTA JL MENTRI SUPENO NO 106A-B, PANDEAN, UMBULHARJO, YOGYAKARTA",-7.816659000,110.383080000,BCA
INDOMARET GLAGAHSARI II JL GLAGAHSARI NO 87 KEL WARUNGBOTO KEC UMBULHARJO YOGYAKARTA,-7.811000000,110.387100000,BCA
"ALFAMART GLAGAHSARI JL GLAGAHSARI NO. 111, UMBULHARJO - YOG",-7.810600000,110.387300000,BCA
"SPBU 4455803 BANTUL PARANGTRITIS CRM 1 JL PARANGTRITIS KM 11, RENDENG, SEWON, BANTUL, YOGYAKARTA",-7.886010000,110.352440000,BCA
INDOMARET SOROGENEN JL SOROGENEN YOGYAKARTA,-7.825000000,110.381100000,BCA
CIRCLE K GATIC CONDONGSARI JL.PERUMNASCONDONGCATUR BLOK C NO4 YOGYAKARTA,-7.772900000,110.404400000,BCA
INDOMARET ALANG ALANG LEBAR PALEMBANG JL SULTAN MAHMUD BADARUDDIN II KEC ALANG ALANG LEBAR PALEMBANG,-2.913579800,104.693902900,BCA
"ALFAMART PERUMNAS SLEMAN JL PERUMNAS NO 85, KOMP GRAHA STRATEGIC BLOK A3/A4, SLEMAN",-7.772600000,110.404800000,BCA
"EBC PLAZA AMBARUKMO CRM 1 JL ADI SUCIPTO, YOGYAKARTA",-7.781817000,110.400978000,BCA
"EBC PLAZA AMBARUKMO CRM 2 JL ADI SUCIPTO, YOGYAKARTA",-7.781817000,110.400978000,BCA
"EBC PLAZA AMBARUKMO CRM 5 JL ADI SUCIPTO, YOGYAKARTA",-7.781817000,110.400978000,BCA
"CARREFOUR YOGYAKARTA JL. LAKSDA ADISUCIPTO, YOGYA",-7.782900000,110.401300000,BCA
GRAND CITRA HOTEL JL LINGKAR AIR MANCUR NO 11 PRABUMULIH,-2.937266200,104.656066200,BCA
"EBC PLAZA AMBARUKMO CRM 3 JL ADI SUCIPTO, YOGYAKARTA",-7.783300000,110.401300000,BCA
"EBC PLAZA AMBARUKMO CRM 4 JL ADI SUCIPTO, YOGYAKARTA",-7.783300000,110.401300000,BCA
ROYAL AMBARUKMO HOTEL JL LAKSDA ADISUCIPTO NO 81 YOGYAKARTA,-7.782100000,110.401900000,BCA
XT SQUARE JL VETERAN PANDEAN UMBULHARJO YOGYAKARTA,-7.816200000,110.387200000,BCA
"INDOMARET SETURAN II SLEMAN CRM 1 JL RAYA SETURAN, PULODADI, CATURTUNGGAL, DEPOK SLEMAN, YOGYAKARTA",-7.770882400,110.407794800,BCA
INDOMARET PASAR NGABUL CRM 1 JL RAYA TAHUNAN NGABUL JEPARA,-6.642830000,110.710970000,BCA
DEPOK SPORTS CENTER JL. SETURAN-KLEDOKAN KAV. 4 SLEMAN YOGYAKARTA,-7.773000000,110.408500000,BCA
CEMERLANG JAYA SPM BANGUNAN PALEMBANG JL SULTAN MAHMUD BADARUDDIN II,-2.913100000,104.687500000,BCA
CIRCLE K YOG0227 CK SETURAN CRM 1 JL SETURAN NO 10 YOGYAKARTA,-7.771241000,110.409543000,BCA
INDOMARET SECANG JL RAYA TEMANGGUNG NO 44 SECANG MAGELANG,-7.770600000,110.410000000,BCA
"CRM INDOMARET SETURAN SLEMAN JL RAYA SETURAN CATURTUNGGAL DEPOK, SLEMAN",-7.770880000,110.409980000,BCA
INDOMARET PECANGAAN CRM 1 JL RAYA PECANGAN RT 01 RW 01 JEPARA,-6.691740000,110.707017000,BCA
INDOMARET SMB II KM 12 PALEMBANG JL SULTAN MAHMUD BADARUDDIN II KEC AAL PLG,-2.913300000,104.684800000,BCA
"INDOMARET BAWU - JEPARA JL TAMAN SISWA II DS BAWU, BATEALIT, JEPARA",-6.627500000,110.715700000,BCA
"SPBU COCO ADISUCIPTO CRM 1 JL. ADISUCIPTO KM 6, YOGYAKARTA",-7.783100000,110.408100000,BCA
"ALFAMART SPBU SURUH SALATIGA JL RAYA SURUH SALATIGA, DSN KARANGASEM RT01 RW01, DESA SURUH, KEC SURUH, KABUPATEN SEMARANG",-7.367700000,110.563600000,BCA
"INDOMARET PRAMUKA YOGYAKARTA JL PRAMUKA NO 38 B RT 51/11 PRENGGAN, KOTA GEDE YOGYAKARTA",-7.823429000,110.390289000,BCA
KM 12 CRM 1 JL RAYA PALEMBANG-BETUNG KM 13 TALANG KELAPA KAB BANYUASIN,-2.913250000,104.679639000,BCA
KM 12 CRM 2 JL RAYA PALEMBANG-BETUNG KM 13 TALANG KELAPA KAB BANYUASIN,-2.913250000,104.679639000,BCA
"HOTEL BROTHER INN BABARSARI JL BABARSARI NO 47, SLEMAN, YOGYAKARTA",-7.774100000,110.413500000,BCA
ALFAMART IMOGIRI JL IMOGIRI TIMUR NO 210 GIWANGAN YOGYAKARTA,-7.828400000,110.390000000,BCA
"SAHID J WALK YOGYAKARTA CRM 1 JL BABARSARI NO 2, DEPOK SLEMAN, YOGYAKARTA",-7.779770500,110.411912600,BCA
"SAHID J WALK YOGYAKARTA CRM 2 JL BABARSARI NO 2, DEPOK SLEMAN, YOGYAKARTA",-7.779770500,110.411912600,BCA
INDOMARET PRAMUKA JL PRAMUKA NO 111 GIWANGAN YOGYAKARTA,-7.826000000,110.391600000,BCA
"INDOMARET CASAGRANDE JL RINGROAD UTARA MAGUWOHARO,SLEMAN",-7.763500000,110.419400000,BCA
"BANDARA SMB II JL. KOL. SOEHAR, PALEMBANG",-2.894300000,104.704800000,BCA
INDOMARET JANTI JL JANTI NO 3 RT 08 RW 04 KEL CATUTUNGGAL KEC DEPOK SLEMAN,-7.783862000,110.410919000,BCA
"CRM INDOMARET GEDONG KUNING JL. GEDONG KUNING 148, BANGUNTAPAN YOGYAKARTA",-7.804000000,110.402390000,BCA
INDOMARET BABARSARI JL BABRSARI NO 90 CATUTUNGGAL DEPOK SLEMAN,-7.774500000,110.415900000,BCA
ALFAMART GEDONG KUNING CRM 1 JL RAYA GEDONG KUNING NO 60 YOGYAKARTA,-7.806568000,110.402038000,BCA
INDOMARET KOTA GEDE YOGYAKARTA JL NGEKSIGONDO NO 14 KOTA GEDE YOGYAKARTA,-7.819500000,110.396300000,BCA
SUPERINDO PERINTIS KEMERDEKAAN JL. NGEKSOGONDO NO. 7  YOGYAKARTA,-7.819300000,110.396600000,BCA
"UNIV ATMAJAYA, YOGYAKARTA JL. BABAT SARI, YOGYAKARTA",-7.779000000,110.415000000,BCA
"INDOMARET BABARSARI II JL BABARSARI NO 11 CATURTUNGGAL DEPOK, SLEMAN",-7.782000000,110.414300000,BCA
HS SILVER JL NYI PEMBAYUN NO1 KOTAGEDE YOGYAKARTA,-7.826500000,110.394700000,BCA
"MINIMARKET GALAXY MART AMPEL 1 JL RAYA SOLO SEMARANG,KALIGENTONG, AMPEL, BOYOLALI",-7.451300000,110.542800000,BCA
BJ HOME YOGYA 1 JL RAYA JANTI ROAD TIMUR BANTUL,-7.795838000,110.409535000,BCA
"ALFAMIDI DC YOGYAKARTA CRM 2 JL RINGROAD TIMUR NO 262, TEGAL PASAR, BANGUNTAPAN, BANTUL",-7.795472000,110.409975000,BCA
"ALFAMIDI DC YOGYAKARTA CRM 1 JL RINGROAD TIMUR NO 262, TEGAL PASAR, BANGUNTAPAN, BANTUL",-7.796000000,110.410000000,BCA
ALFAMART AMPEL JL SOLO SEMARANG NO 163 AMPEL BOYOLALI,-7.452900000,110.544300000,BCA
"GEDONG KUNING CRM 1 JL GEDONG KUNING SELATAN, YOGYAKARTA",-7.816660000,110.402170000,BCA
INDOMARET GEDONG KUNING II CRM 1 JL GEDONG KUNING SELATAN NO 5 YOGYAKARTA,-7.819300000,110.401500000,BCA
INDOMARET GEDONG KUNING II CRM 2 JL GEDONG KUNING SELATAN NO 5 YOGYAKARTA,-7.819300000,110.401500000,BCA
INDOMARET KRASAK JL RAYA KUDUS JEPARA RT 02/04 JEPARA,-6.716677000,110.716301000,BCA
"ALFAMART BLOK O BANTUL JL DK WONO CATUR, BLOK O, BANGUNTAPAN, BANGUNTAPAN, BANTUL",-7.798600000,110.412200000,BCA
KM 15 PALEMBANG CRM 1 JL PALEMBANG BETUNG KM 15 PALEMBANG,-2.913384000,104.662317000,BCA
KM 15 PALEMBANG CRM 2 JL PALEMBANG BETUNG KM 15 PALEMBANG,-2.913384000,104.662317000,BCA
"ALFAMART TAJEM CRM 1 JL RAYA TAJEM DEPOK DSN RT02/30, SLEMAN, YOGYAKART",-7.749033000,110.434453000,BCA
CARREFOUR YOGYAKARTA MAGUWO JL. RAYA SOLO KM. 8 NO. 234 YOGYAKARTA,-7.782600000,110.420000000,BCA
"TAJEM CRM 1 JL RAYA TAJEM NO 17 RT/RW 2/43,MAGUWOHARJO, DEPOK SLEMAN, YOGYAKARTA",-7.758860700,110.431084800,BCA
"KALINYAMATAN JL. RAYA MAROYOSO, JEPARA",-6.726378000,110.717097000,BCA
PT TANJUNG ENIM LESTARI PRABUMULIH DS BANUAYU KECRAMBANG DANGKU MUARA ENIM,-3.427307290,104.033449600,BCA
"INDOMARET SUKAJADI BANYUASIN CRM 1 JL LINTASPALEMBANG-BETUNG, KEC TALANG KELAPA - BAN",-2.913801000,104.653666000,BCA
LOTTEMART YOGYAKARTA JL RINGROAD UTARA DSMEGUWOHARJO SLEMAN YOGYA,-7.767100000,110.433000000,BCA
ALFAMART BANGUN TAPAN JL. MIROTA GODEAN KM. 2- YOGYAKARTA,-7.814800000,110.412100000,BCA
"ALFAMART GUBUG JL. A YANI NO. 179, GUBUG - GROBOGAN",-7.052600000,110.664700000,BCA
"TOKO MERLY SWALAYAN CRM 1 JL RAYA KADISOKA NO 30 RT/RW 04/02, KALASAN PURWOMARTANI SLEMAN, YOGYAKARTA",-7.753076500,110.441992800,BCA
"ALFAMART SUKOMORO BANYUASIN JL PALEMBANG-BETUNG, TALANG KELAPA, BANYUASIN",-2.916000000,104.639500000,BCA
ALFAMART WELAHAN JL RAYA WELAHAN KEC WELAHAN KAB JEPARA,-6.782173000,110.721293000,BCA
TOKO BELVA JL RAYA PLERED KM 2 KEL JAMB DAN KEC BANGUNTAPAN BANTUL YOGYAKARTA,-7.845300000,110.410800000,BCA
CIRCLE K SOROGENEN I CRM 1 JL RAYA SOLO KM 10 SOROGENAN YOGYAKARTA,-7.783442000,110.440783000,BCA
"ALFAMART SOROGENEN JL SOLO JOGJA, DUKUH SOROGENEN, PURWOMARTANI, KALASAN, SLEMAN, YOGYAKARTA",-7.783230000,110.441780000,BCA
"ALFAMART BERBAH SLEMAN JL JOGJA - SOLO JAGALAN RT09/03, TEGAL TIRTO, BERBAH, SLEMAN",-7.783700000,110.447000000,BCA
"INDOMARET BANGSRI JL. RAYA BANGSRI, JEPARA",-6.519758000,110.767379000,BCA
"SPBU KALITIRTO JL SOLO KM 11,5 KALITITO BERBAH SLEMAN",-7.779100000,110.455800000,BCA
PASARAYA CITRA JL. LETNAN IDHAM NO. 98 MUARA ENIM,-3.657858209,103.772719900,BCA
MUARA ENIM CRM 1 JL JEND SUDIRMAN NO 78 A-B MUARA ENIM,-3.656156000,103.773303000,BCA
MUARA ENIM CRM 2 JL JEND SUDIRMAN NO 78 A-B MUARA ENIM,-3.656156000,103.773303000,BCA
MUARA ENIM CRM 3 JL JEND SUDIRMAN NO 78 A-B MUARA ENIM,-3.656156000,103.773303000,BCA
MUARA ENIM CRM 4 JL JEND SUDIRMAN NO 78 A-B MUARA ENIM,-3.656156000,103.773303000,BCA
HOTEL CITRA JL RAYA PALEMBANG KEPUR KOMPLEK CITRA DE RESIDENT MUARA ENIM SUMATERA SELATAN,-3.659459900,103.768180300,BCA
INDOMARET MAYONG CRM 1 JL MAYONG 92 KUDUS,-6.750981000,110.761171000,BCA
TOKO LIFAN PRAMBANAN JL PRAMBANAN PIYUNGAN NO1 PRAMBANANYOGYA,-7.757700000,110.488400000,BCA
"ALFAMART PRAMBANAN I JL RAYA JOGJA - SOLO RT15/V, TLOGO, PRAMBANAN, KLATEN",-7.754900000,110.497130000,BCA
"GALAXY DEPT STORE JL. PANDANARAN NO. 315, BOYOLALI",-7.521200000,110.597900000,BCA
INDOMARET PIYUNGAN JL WONOSARI KM 14 SRIMULYO PIYUNGAN BANTUL,-7.837500000,110.474000000,BCA
PERUMAHAN GRAHA MURIA SWASTI KIRANA 1 JL LINGKAR JETAK KM 1 DESA KEDUNGDOWO KUDUS,-6.791800000,110.787700000,BCA
BOYOLALI CRM 1 JL PANDANARAN NO 58 KP RANCAH WETAN RT 01/9 SISWODIPURAN BOYOLALI,-7.537420000,110.606140000,BCA
BOYOLALI CRM 2 JL PANDANARAN NO 58 KP RANCAH WETAN RT 01/9 SISWODIPURAN BOYOLALI,-7.537420000,110.606140000,BCA
BOYOLALI CRM 3 JL PANDANARAN NO 58 KP RANCAH WETAN RT 01/9 SISWODIPURAN BOYOLALI,-7.537420000,110.606140000,BCA
JEBUS CRM 1 JL RY PENGHIJAUAN PARIT TIGA JEBUS BANGKA BRT,-2.229962000,106.134189000,BCA
JEBUS CRM 2 JL RY PENGHIJAUAN PARIT TIGA JEBUS BANGKA BRT,-2.229962000,106.134189000,BCA
ALFAMART KALIWUNGU KUDUS JL RAYA KUDUS JEPARA 88 KALIWUNGU KUDUS,-6.795900000,110.800400000,BCA
PURWODADI CRM 1 JL MT HARYONO NO 2 PURWODADI GROBOGAN,-7.020566374,110.764469200,BCA
PURWODADI CRM 2 JL MT HARYONO NO 2 PURWODADI GROBOGAN,-7.020566374,110.764469200,BCA
PURWODADI CRM 3 JL MT HARYONO NO 2 PURWODADI GROBOGAN,-7.020566374,110.764469200,BCA
PURWODADI CRM 4 JL MT HARYONO NO 2 PURWODADI GROBOGAN,-7.020566374,110.764469200,BCA
PURWODADI CRM 5 JL MT HARYONO NO 2 PURWODADI GROBOGAN,-7.020566374,110.764469200,BCA
PURWODADI CRM 6 JL MT HARYONO NO 2 PURWODADI GROBOGAN,-7.020566374,110.764469200,BCA
"GODONG CRM 1 JL A YANI NO 179 GODONG, GROBOGAN PURWODADI",-7.020566374,110.764469200,BCA
INDOMARET KALIREJO KUDUS JL KUDUS-PURWODADI KM15 KALIREJO UNDAAN KUDUS,-6.929600000,110.790100000,BCA
"ALFAMART GODONG JL. JEND SUDIRMAN 14 GODONG, PURWODADI",-7.022400000,110.772300000,BCA
ALFAMART JATINOM JL RAYA JATINOM RT 01 RW 05 KLATEN,-7.631100000,110.598000000,BCA
ALFAMART RAYA JEPARA KUDUS JL KUDUS JEPARA NO 500  KUDUS,-6.799232000,110.815575000,BCA
ALFAMART KRAGUMAN KLATEN CRM 1 JL RAYA KRAGUMAN KLATEN,-7.720114000,110.567544000,BCA
"SPBU TANGGUL ANGIN JL. AGIL KUSUMADYA, KUDUS",-6.841396000,110.816044000,BCA
"PT SARIWARNA ASLI TEXTIL INDUSTRI JL. RANDUSARI TERAS, BOYOLALI",-7.538400000,110.646400000,BCA
"ADA SWALAYAN KUDUS JL KUDUS JEPARA KM 1, KUDUS",-6.804100000,110.827300000,BCA
INDOMARET TERAS JL SOLO SEMARANG RANDUSARI TERAS BOYOLALI,-7.536900000,110.647500000,BCA
INDOMARET KUDUS 4 JL JEPARA R.JEMBERPERMAINO13-14PURWOSARIKUDUS,-6.803943000,110.828216000,BCA
INDOMARET HM SUBKHAN JL HM SUBKHAN NO 33 KUDUS,-6.808964000,110.827765000,BCA
INDOMARET BESITO JL BESITO NO 282 RT 08/11 KUDUS,-6.790200000,110.833400000,BCA
PT DJARUM CRM 1 JL A YANI 34,-6.798163000,110.832421000,BCA
ALFAMART KHR ASNAWI KUDUS JL KHR ASNAWI KEL BAKALAN KUDUS,-6.796435000,110.833326000,BCA
INDOMARET JATI KUDUS JL. R. AGIL KUSUMADYA NO.91 KUDUS,-6.826639100,110.829925900,BCA
"GEBOG DESA GONDOSARI, GEBOG, KUDUS",-6.734252000,110.843748000,BCA
INDOMARET TEGALYOSO JL RAYA SURADJI TIRTONEGORO TEGALYOSO KLATEN SELATAN,-7.715552600,110.588371800,BCA
PT LIEBRA PERMANA JL RAYA SOEKARNO HATTA KM 11BAWEN-SEMARANG,-6.761900000,110.841800000,BCA
"JAYA MOTOR JL. SUNAN KUDUS NO. 102, KUDUS",-6.806754000,110.836708000,BCA
ALFAMART BRAMEN PONDOK MULYO RT 01/01 KEL GENGUNUNG KEC KLATEN UTARA KAB KLATEN,-7.688100000,110.603000000,BCA
ALFAMART WEDI KLATEN CRM 1 JL RAYA WEDI RT 17 RW 06 WEDI KLATEN,-7.745550000,110.580331000,BCA
ALFAMART WAHID HASYIM KUDUS JL KH WAHID HASYIM RUKO B-C PANJUNAN KUDUS,-6.811355000,110.838056000,BCA
HOTEL GRAND COKRO JL PEMUDA SELATAN NO 42 KLATEN,-7.710400000,110.595600000,BCA
PT SARI WARNA KUDUS DS BESITO KM 6 GEBOG KUDUS,-6.815456000,110.839196000,BCA
"LARIS KLATEN JL. PEMUDA SELATAN, KLATEN",-7.705700000,110.599900000,BCA
INDOMARET GETAS KUDUS JL SENTOT PRAWIRODIRJO GETAS PEJATEN KUDUS,-6.827103000,110.838797000,BCA
KUDUS CRM 1 JL A YANI 91 - KUDUS,-6.809796262,110.841575900,BCA
KUDUS CRM 2 JL A YANI 91 - KUDUS,-6.809796262,110.841575900,BCA
KUDUS CRM 3 JL A YANI 91 - KUDUS,-6.809796262,110.841575900,BCA
KUDUS CRM 4 JL A YANI 91 - KUDUS,-6.809796262,110.841575900,BCA
KUDUS CRM 5 JL A YANI 91 - KUDUS,-6.809796262,110.841575900,BCA
KUDUS CRM 6 JL A YANI 91 - KUDUS,-6.809796262,110.841575900,BCA
KUDUS CRM 7 JL A YANI 91 - KUDUS,-6.809796262,110.841575900,BCA
DEMAK CRM 1 JL SULTAN PATAH NO 16 DEMAK,-6.809796262,110.841575900,BCA
DEMAK CRM 2 JL SULTAN PATAH NO 16 DEMAK,-6.809796262,110.841575900,BCA
"INDOMARET SUNAN MURIA JL. SUNAN MURIA NO. 32, KUDUS, SEMARANG",-6.802133000,110.844130000,BCA
"MITRA DEPSTORE STORE KLATEN JL. PEMUDA UTARA NO. 78, KLATEN",-7.699500000,110.605400000,BCA
ALFAMART PATTIMURA KUDUS CRM 1 JL PATTIMURA LORAM KULON JATI KUDUS,-6.827652000,110.842253000,BCA
SPBU COCO BOYOLALI JL RAYA SOLO - SEMARANG KM 20 BOYOLALI,-7.535200000,110.668000000,BCA
ALFAMART SOSROKARTONO KUDUS JL RM SOSROKARTONO 63 BAE KUDUS,-6.787662000,110.849869000,BCA
INDOMARET LAHAT CRM JL KOL BURLIANBLOKDNO6RT1RW 1KELBANDARJAYALHT,-3.777397000,103.552696000,BCA
KLATEN CRM 1 JL VETERAN ( PEMUDA UTARA ) NO 49 KLATEN,-7.694415659,110.610409600,BCA
KLATEN CRM 2 JL VETERAN ( PEMUDA UTARA ) NO 49 KLATEN,-7.694415659,110.610409600,BCA
KLATEN CRM 3 JL VETERAN ( PEMUDA UTARA ) NO 49 KLATEN,-7.694415659,110.610409600,BCA
KLATEN CRM 4 JL VETERAN ( PEMUDA UTARA ) NO 49 KLATEN,-7.694415659,110.610409600,BCA
INDOMARET TANJUNG JL TANJUNG NO 20--22 KUDUS,-6.809051000,110.847648000,BCA
ALFAMART KARANGANOM JL KARANGANOM RT 04/03 KARANGANOM KLATEN UTARA KLATEN,-7.690600500,110.616654900,BCA
ALFAMART MAYOR RUSLAN LAHAT JL MAYOR RUSLAN III NO 1 PASAR LAMA LAHAT,-3.787317000,103.539606000,BCA
PASAR KLIWON CRM 1 JL JEND SUDIRMAN 128 KUDUS,-6.805000000,110.855172000,BCA
PASAR KLIWON CRM 2 JL JEND SUDIRMAN 128 KUDUS,-6.805000000,110.855172000,BCA
PASAR KLIWON CRM 3 JL JEND SUDIRMAN 128 KUDUS,-6.805000000,110.855172000,BCA
INDOMARET HOS COKROAMINOTO KUDUS CRM 1 JL HOS COKROAMINOTO NO 68 KUDUS,-6.810223000,110.854399000,BCA
DJARUM OASIS KUDUS JL LINGKAR BARAT KUDUS,-6.783900000,110.859400000,BCA
LAHAT CRM 3 JL MAYOR RUSLAN II NO 51 LAHAT,-3.776937000,103.542245000,BCA
LAHAT CRM 4 JL MAYOR RUSLAN II NO 51 LAHAT,-3.776937000,103.542245000,BCA
LAHAT CRM 1 JL MAYOR RUSLAN II NO 51 LAHAT,-3.776937000,103.542245000,BCA
LAHAT CRM 2 JL MAYOR RUSLAN II NO 51 LAHAT,-3.776937000,103.542245000,BCA
ALFAMIDI SAMBI JL BANGAK SIMO DUSUN III SAMBI BOYOLALI,-7.486020000,110.695590000,BCA
INDOMARET PENGGING JL TP SRIDADIYO NO 1 PENGGING BANYUDONO BOYOLALI,-7.552400000,110.676100000,BCA
ALFAMART GONDANG MANIS CRM 1 JL UMK RT 07/07 GONDANGMANIS KUDUS,-6.783510000,110.866180000,BCA
"OASIS SQUARE JL RAYA KOBA KM 1,6 NO 123 BANGKA TENGAH",-2.162300000,106.132000000,BCA
"INDOMARET JENDRAL SUDIRMAN KUDUS JL JENDRAL SUDIRMAN NO 30 A, KUDUS",-6.804236000,110.865564000,BCA
PANGKAL PINANG CRM 1 JL RAYA KOBA RT 019/007 KEL DUL KEC PANGKALANBARU BANGKA TENGAH,-2.156166000,106.128780000,BCA
PANGKAL PINANG CRM 2 JL RAYA KOBA RT 019/007 KEL DUL KEC PANGKALANBARU BANGKA TENGAH,-2.156166000,106.128780000,BCA
TOBOALI CRM 3 JL JEND SUDIRMAN NO 58 TOBOALI BANGKA SELATAN,-2.156166000,106.128780000,BCA
KOBA CRM 1 JL KENANGA ATAS NO 790 KOBA BANGKA TENGAH,-2.156166000,106.128780000,BCA
KOBA CRM 2 JL KENANGA ATAS NO 790 KOBA BANGKA TENGAH,-2.156166000,106.128780000,BCA
PANGKAL PINANG CRM 3 JL RAYA KOBA RT 019/007 KEL DUL KEC PANGKALAN BARU,-2.156166000,106.128780000,BCA
SEMABUNG CRM 1 JL DEPATI HAMZAH BLOK A NO 7 PANGKAL PINANG,-2.156166000,106.128780000,BCA
SEMABUNG CRM 2 JL DEPATI HAMZAH BLOK A NO 7 PANGKAL PINANG,-2.156166000,106.128780000,BCA
"GIANT SOEKARNO HATTA BANGKA JL SOEKARNO HATTA, DUL, PANGKALAN BARU, BANGKA TENGAH",-2.151400000,106.130500000,BCA
PERUMAHAN TAMAN TANJUNG BUNGA JL DEPATI HAMZAH 638 AIR ITAM PANGKALPINANG,-2.145100000,106.163800000,BCA
INDOMARET NGEMBALREJO KUDUS JL RY KUDUS PATI KM 3 NGEMBALREJO BAE KUDUS,-6.804763000,110.878571000,BCA
"RS BHAKTI WARA JL. SUNGAI SELAM KM 5, PANGKAL PINANG",-2.144100000,106.098000000,BCA
TEMAN JAYA MART CRM 1 JL SOLIHIN GP NO 267 PANGKALPINANG,-2.142500000,106.100000000,BCA
"INDOMARET GOLAN TEPUS - KUDUS JL GOLAN TEPUS, KUDUS",-6.806500000,110.889800000,BCA
HONDA NIAGA BANGKA CRM 1 JL SOEKARNO HATTA NO 82 PANGKAL PINANG,-2.138187000,106.119988000,BCA
SPBU 24.33170 DEPATI AMIR JL DEPATI AMIR PANGKAL PINANG,-2.138300000,106.095100000,BCA
INDOMARET MEJOBO JL SURYOKUSUMO 45 KEC MEJOBO KAB KUDUS,-6.829167000,110.891073000,BCA
"GRAMEDIA PANGKAL PINANG JL. MELINTAS NO. 40, PANGKAL PINANG",-2.134100000,106.110300000,BCA
MASJID JAMIK CRM 1 JL MESJID JAMIK NO 15 PANGKAL PINANG,-2.129010000,106.113967000,BCA
MASJID JAMIK CRM 2 JL MESJID JAMIK NO 15 PANGKAL PINANG,-2.129010000,106.113967000,BCA
MASJID JAMIK CRM 3 JL MESJID JAMIK NO 15 PANGKAL PINANG,-2.129010000,106.113967000,BCA
MASJID JAMIK CRM 4 JL MESJID JAMIK NO 15 PANGKAL PINANG,-2.129010000,106.113967000,BCA
MASJID JAMIK CRM 5 JL MESJID JAMIK NO 15 PANGKAL PINANG,-2.129010000,106.113967000,BCA
MASJID JAMIK CRM 6 JL MESJID JAMIK NO 15 PANGKAL PINANG,-2.129010000,106.113967000,BCA
MASJID JAMIK CRM 7 JL MESJID JAMIK NO 15 PANGKAL PINANG,-2.129010000,106.113967000,BCA
MASJID JAMIK CRM 8 JL MESJID JAMIK NO 15 PANGKAL PINANG,-2.129010000,106.113967000,BCA
RAMAYANA PANGKAL PINANG JL. TERMINAL PLAZA PANGKAL PINANG,-2.128000000,106.116100000,BCA
BANGKA TRADE CENTER CRM 1 JL RUSLI ROMLI PANGKAL PINANG,-2.127590000,106.116082000,BCA
PUNCAK MALL PANGKAL PINANG CRM 1 JL JEND SUDIRMAN 10F PANGKAL PINANG,-2.127545000,106.116302000,BCA
ALFAMART PAKIS KEPANJEN CRM 1 JL RAYA SOLO - YOGYA DK KEPANJEN BOYOLALI,-7.606777000,110.701948000,BCA
ALFAMART DELANGGU II CRM 1 JL RAYA SOLO - YOGYA KM 31 DELANGGU KLATEN,-7.638993300,110.690806300,BCA
"INDOMARET BOLON CRM 1 JL TENTARA PELAJAR, BOLON, COLOMADU, KARANGANYAR",-7.532565000,110.728659000,BCA
"INDOMARET DELANGGU JL. RAYA DELANGGU NO. 135, KLATEN SOLO",-7.621400000,110.698500000,BCA
ASOKA JL. A. YANI DALAM NO.1 PANGKAL PINANG,-2.124500000,106.107300000,BCA
ALFAMART ADISUMARMO III CRM 1 JL ADISUMARMO KARTASURA SUKOHARJO,-7.559999000,110.722303000,BCA
INDOMARET KLEWER BOYOLALI JL YOGYA SOLO RT 01/05 DK KLEWER KEDUNGDUREN SAWIT BOYOLALI,-7.574065400,110.717446900,BCA
ALFAMART CEMANI CRM 1 JL BATIK KERIS CEMANI SUKOHARJO,-7.558751000,110.724966000,BCA
ALFAMART GROGOL SUKOHARJO CRM 1 JL RAYA GROGOL NO 96 A SUKOHARJO,-7.558751000,110.724966000,BCA
INDOMARET SOLO BARU C1 CRM 1 JL RAYA SOLO BARU BLOK C NO 1 SUKOHARJO,-7.558751000,110.724966000,BCA
"SPBU KLALING JL. RAYA KUDUS - PATI KM 7, JEKULO - KUDUS",-6.805357000,110.910461000,BCA
"HOTEL CENTRUM 2 JL. DEPATI AMIR NO. 8, PANGKAL PINANG",-2.118300000,106.112200000,BCA
"HOTEL CENTRUM JL. DEPATI AMIR NO. 8, PANGKAL PINANG",-2.118300000,106.112200000,BCA
INDOMARET KANDANG MENJANGAN CRM 1 JL RAYA SOLO YOGYA KARTASURA SUKOHARJO,-7.555311000,110.729690000,BCA
INDOMARET MANGU CRM 1 JL RAYA MANGU RT 05 RW 01 NGEMPLAK BOYOLALI,-7.514861000,110.745215000,BCA
RS BAKTI TIMAH CRM 1 JL. BUKIT BARU - PANGKAL PINANG - 33121,-2.114700000,106.109400000,BCA
BANDARA UDARA ADI SUMARMO CRM 1 JL BANDARA UDARA INTERNASIONAL ADI SOEMARMO,-7.512700000,110.750100000,BCA
"LARIS KARTASURA JL. A. YANI 14, KARTASURA",-7.550700000,110.738000000,BCA
KARTASURA CRM 1 JN RAYA KARTASURA BOK C 1-2 - SOLO,-7.550871185,110.739789600,BCA
DAMAI INN 1 JL JENDRAL SUDIRMAN NO 19 PANGKAL PINANG,-2.108900000,106.112900000,BCA
DAMAI INN 2 JL JENDRAL SUDIRMAN NO 19 PANGKAL PINANG,-2.108900000,106.112900000,BCA
"APOTIK COLOMADU JL.BANDARA ADI SUMARMO 85, KARANG ANYAR, SOLO",-7.530900000,110.747300000,BCA
INDOMARET PANDANARAN BOYOLALI CRM 1 JL PANDANARAN NO 53 SISWODIPURO BOYOLALI,-7.530628000,110.747764000,BCA
INDOMARET KARTASURA JL SLAMET RIYADI NO 43 A-B TEGALSARI KARTASURA SUKOHARJO,-7.553805200,110.739889100,BCA
"INDOMARET JEKULO JL. RAYA KUDUS, PATI",-6.806300000,110.921900000,BCA
"INDOMARET SIYONO GUNUNG KIDUL YOGYAKARTA JL SIYONO WETAN RT10/66 LOGANDENG, PLAYEN, GUNUNG KIDUL, YOGYAKARTA",-7.949531000,110.585696000,BCA
ALFAMART AHMAD YANI SUKOHARJO JL AHMAD YANI SIGOPURAN KARTASURA SUKOHARJO,-7.554800000,110.747100000,BCA
"SUPERINDO COLOMADU KARANGANYAR JL LU ADISUCIPTO, PAULAN BARAT, RT 01/2, PAULAN, COLOMADU, KARANGANYAR",-7.535500000,110.754000000,BCA
ALFAMART GAJAHMADA PURWODADI JL GAJAH MADA RT/RW 03/15 KURIPAN PURWODADI,-7.075105000,110.886224000,BCA
INDOMARET LAKSDA ADI SUCIPTO JL LAKSDA ADI SUCIPTO PAULAN KARANGANYAR,-7.538000000,110.759100000,BCA
ALFAMART GAJAH RAYA JL GAJAH RAYA RT 10 RW 03 KEC GAYAMSARI SEMARANG,-7.075000000,110.886600000,BCA
"AMIGO PEDAN JL. RAYA TIMUR NO. 45, PEDAN - KLATEN.",-7.695944300,110.703199600,BCA
ALFAMART SLAMET RIYADI 203 JL SLAMET RIYADI NO 203 KARTASURA SUKOHARJO,-7.560800000,110.753200000,BCA
"INDOMARET PONPES DARUR RIDWAN JL RAYA TAYU JEPARA, PLANDAN, CLUWAK, PATI",-6.536200000,110.970600000,BCA
DUNIA VOUCHER JL. AGUS SALIM NO.6. WONOSARI,-7.964100000,110.598900000,BCA
ALFAMART DONOHUDAN BOYOLALI JL RAYA NGEMPLAK RT 05/02 DONOHUDAN NGEMPLAK BOYOLALI,-7.515500000,110.779200000,BCA
SPBU 44.571.01 PABELAN CRM 1 JL A YANI PABELAN KM 8 KARTASURA SUKOHARJO,-7.561152000,110.764593000,BCA
ALFAMART GARUDA SQUARE JL GARUDA RT 01/07 KARANGASEM LAWEYAN SURAKARTA,-7.549200000,110.769500000,BCA
WONOSARI CRM 1 JL BRIGJEN KATAMSO 30 - WONOSARI,-7.966842160,110.601691400,BCA
WONOSARI CRM 2 JL BRIGJEN KATAMSO 30 - WONOSARI,-7.966842160,110.601691400,BCA
WONOSARI CRM 3 JL BRIGJEN KATAMSO 30 - WONOSARI,-7.966842160,110.601691400,BCA
"PT TYFOUNTEX INDONESIA GUMPANG KARTASURA, SUKOHARJO 57102",-7.564200000,110.764600000,BCA
"INDOMARET GARUDA MAS SUKOHARJO JL GARUDA MAS RT 01/ 010 GONILAN KARTASURA,SUKOHARJO",-7.554800000,110.770100000,BCA
INDOMARET SUMARWI JL SUMARWI NO 28 RT 01 RW 03 KEL GADUNGSARI KEC WONOSARI GUNUNGKIDUL,-7.966900000,110.605500000,BCA
INDOMARET ADIPURA ADI SUCIPTO JL ADI SUCIPTO NO 15 KARANGANYAR,-7.545900000,110.776100000,BCA
"ALFAMART MAYANG SKH JL RAYA MANGESTI NO 90, MAYANG, GATAK, SUKOHARJO",-7.579900000,110.766600000,BCA
ALFAMART SOEGIYOPRANOTO JL MGR SOEGIYOPRANOTO KEL BALEHARJO KEC WONOSARI GUNUNGKIDUL,-7.972800000,110.607800000,BCA
"GRIYA SOLO POS JL. LAKSDA ADISUCIPTO NO.190, SOLO",-7.546700000,110.779100000,BCA
"INDOMARET GEMOLONG JL. SUKOWATI NO. 19 DESA NGESENG ,SRAGEN",-7.397500000,110.828300000,BCA
ALFAMART KALIYOSO CRM 1 JL RAYA SOLO PURWODADI KM 12 KARANGANYAR,-7.571257000,110.777921000,BCA
INDOMARET SAWAHAN CRM 1 JL RAYA SAWAHAN NO 12 NGEMPLAK BOYOLALI,-7.571257000,110.777921000,BCA
INDOMARET PAJANG CRM 1 JL SLAMET RIYADI NO 470 PAJANG SUKOHARJO,-7.556386000,110.783354000,BCA
ALFAMART MANANG (0457) 1 JL MANANG BAKTI MANANG GROGOL SUKOHARJO,-7.556386000,110.783354000,BCA
ALFAMART KARANG PANDAN CRM 1 JL RAYA SOLO - TAWAMANGU KARANGANYAR,-7.556567000,110.783413000,BCA
INDOMARET IR SUTAMI CRM 1 JL IR SUTAMI NO 33 SEKARPACE SURAKARTA,-7.556548000,110.783443000,BCA
HOTEL GRIYA LAKSANA JL. R. SUPRAPTO NO.116 PURWODADI,-7.094700000,110.913200000,BCA
SPBU R SUPRAPTO JL R SUPRAPTO NO 141-143 GROBOGAN,-7.096700000,110.913100000,BCA
INDOMARET TOROH GROBOGAN CRM 1 JL PURWODADI SOLO NO 172 GROBOGAN,-7.147696000,110.902176000,BCA
INDOMARET BATURAN INDAH JL BATURAN INDAH NO 18 KARANGANYAR,-7.547100000,110.789100000,BCA
"SHOWROOM BATIK SEMAR JL. ADI SUCIPTO NO. 101, SOLO",-7.550400000,110.788600000,BCA
RM AYAM RESTO CRM 1 JL ADI SUMARMO DESA KLODRAN KARANGANYAR,-7.534900000,110.794000000,BCA
SUPERINDO ADISUCIPTO JL ADISUCIPTO NO 98 KEC LAWEYAN SURAKARTA,-7.550985000,110.791211000,BCA
"SOLO SQUARE 1 JL. SLAMET RIYADI 451- 455, SOLO",-7.560336000,110.788129000,BCA
"SOLO SQUARE 2 JL. SLAMET RIYADI 451- 455, SOLO",-7.560336000,110.788129000,BCA
"ALFAMART GENTAN SUKOHARJO CRM JL SONGGOLANGIT RAYA NO 8, GENTAN, SUKOHARJO",-7.577988000,110.782974000,BCA
KLINIK DR HERU JL SIWALAN NO 37 JAJAR LAWEYAN SURAKARTA,-7.556900000,110.790700000,BCA
INDOMARET SONGGOLANGIT JL SONGGOLANGIT GENTAN BAKI SUKOHARJO,-7.582600000,110.784000000,BCA
INDOMARET SONGGOLANGIT CRM JL SONGGOLANGIT GENTAN BAKI SUKOHARJO,-7.582600000,110.784000000,BCA
INDOMARET PAKEL JL PAKEL RAYA NO 57 KARANGANYAR,-7.547800000,110.796200000,BCA
ALFAMART SAMRATULANGI JL SAMRATULANGI NO 37 BANJARSARI SURAKARTA,-7.560100000,110.796900000,BCA
PURWOSARI CRM 1 JL BRIGJEN SLAMET RIYADI NO 373 SURAKARTA,-7.562829000,110.796987000,BCA
PURWOSARI CRM 2 JL BRIGJEN SLAMET RIYADI NO 373 SURAKARTA,-7.562829000,110.796987000,BCA
PURWOSARI CRM 3 JL BRIGJEN SLAMET RIYADI NO 373 SURAKARTA,-7.562829000,110.796987000,BCA
BATIK OMAH LAWEYAN JL DR RADJIMAN NO 549 LAWEYAN LAWEYAN SURAKARTA,-7.569000000,110.795100000,BCA
"BCA SYARIAH CABANG SOLO JL SLAMET RIYADI 488, SOLO",-7.562900000,110.797200000,BCA
INDOMARET BANYUANYAR JL ADI SUMARMO NO 180 SURAKARTA,-7.540000000,110.806300000,BCA
INDOMARET SUPRAPTO SURAKARTA JL LETJEN SUPRAPTO NO 55 SUMBER KEC BANJARSARI SURAKARTA,-7.548200000,110.804100000,BCA
"SPBU SUMBER 2 JL. KI MANGUN SARKORO, SOLO",-7.545600000,110.807200000,BCA
INDOMARET PLUS SLAMET RIYADI SOLO JL SLAMET RIYADI NO 004 PURWOSARI LAWEYAN SURAKARTA,-7.563900000,110.801800000,BCA
"DUA KELINCI JL. RAYA PATI, KUDUS KM 6,3 -  PATI",-6.781382000,110.988992000,BCA
"ALFAMART DR RADJIMAN SOLO JL DR RADJIMAN NO 445, SOLO",-7.570900000,110.802100000,BCA
"INDOMARET TAJEM KM 1 SLEMAN YOGYAKARTA CRM JL RAYA TAJEM KM 1 RT 3 / 31 MAGUWOHARJO, DEPOK, S",-7.759200000,110.733250000,BCA
"SOLO GRAND MALL 1 JL. SLAMET RIYADI 273, SOLO",-7.565000000,110.806700000,BCA
"SOLO GRAND MALL 2 JL. SLAMET RIYADI 273, SOLO",-7.565000000,110.806700000,BCA
INDOMARET KOL SOETARTO SOLO JL KOL SOETARTO SURAKARTA,-7.531500000,110.818800000,BCA
ALFAMART MANAHAN MT HARYONO JL MT HARYONO MANAHAN BANJARSARI SURAKARTA,-7.553900000,110.811900000,BCA
MALL SOLO PARAGON CRM 2 JL YOSODIPURO NO 133 GF KAV K/L SURAKARTA JAWA TENGAH,-7.562000000,110.809800000,BCA
MALL SOLO PARAGON CRM 1 JL YOSODIPURO NO 133 GF KAV K/L SURAKARTA JAWA TENGAH,-7.562000000,110.809800000,BCA
PASAR LEGI CRM 1 JL LETJEND S PARMAN 135 BANJARSARI SURAKARTA,-7.554239800,110.812943900,BCA
PASAR LEGI CRM 2 JL LETJEND S PARMAN 135 BANJARSARI SURAKARTA,-7.554239800,110.812943900,BCA
ALFAMART ADIPALA CRM 1 JL A YANI NO 10 ADIPALA CILACAP,-7.550342000,110.816095000,BCA
ALFAMART BANYU AGUNG KIMANGUNSARKORO O122 JL KIMANGUNSARKORO NO 8 SURAKARTA,-7.540800000,110.819600000,BCA
"INDOMARET NUSUKAN JL KAPTEN TENDEAN, NUSUKAN, BANJARSARI, SURAKARTA",-7.544200000,110.820300000,BCA
"ALFAMART BAKI II CRM JL SOLO BAKI, GEDONGAN, SUKOHARJO",-7.601037000,110.801104000,BCA
INDOMARET BHAYANGKARA JL BHAYANGKARA NO 004 TIPES SERENGAN SURAKARTA,-7.577500000,110.809400000,BCA
"INDAH PALACE HOTEL JL. VETERAN 284, SOLO",-7.578800000,110.809100000,BCA
"APOTIK PADMA SOLO JL. RM SAID NO. 156, SOLO",-7.559800000,110.816200000,BCA
"TERMINAL TIRTONADI JL JENDERAL A. YANI NO.262, SURAKARTA",-7.552000000,110.819500000,BCA
TOKO MAS SEMAR NUSANTARA SURAKARTA CRM 1 JL DR RADJIMAN NO 285 PANULARAN LAWEYAN SOLO SURAKARTA,-7.572576500,110.812738700,BCA
ALFAMART KADIPIRO JL BRAMU CLOLO KADIPIRO BANJARSARI SURAKARTA,-7.530700000,110.827100000,BCA
ALFAMART PANGERAN WIJIL JL PANGERAN WIJIL I/ 5 SERENGAN SURAKARTA,-7.580200000,110.810500000,BCA
SUPERINDO RONGGOWARSITO CRM 1 JL RONGGOWARSITO NO 23 SURAKARTA,-7.565690000,110.815863000,BCA
NUSUKAN CRM 1 JL KAPTEN TANDEAN NO 79 SOLO,-7.549817303,110.821251500,BCA
NUSUKAN CRM 2 JL KAPTEN TANDEAN NO 79 SOLO,-7.549817303,110.821251500,BCA
NUSUKAN CRM 3 JL KAPTEN TANDEAN NO 79 SOLO,-7.549817303,110.821251500,BCA
SOLO VETERAN CRM 1 JL VETERAN 307 - SOLO,-7.579680000,110.811586000,BCA
SOLO VETERAN CRM 2 JL VETERAN 307 - SOLO,-7.579680000,110.811586000,BCA
SOLO VETERAN CRM 3 JL VETERAN 307 - SOLO,-7.579680000,110.811586000,BCA
SOLO VETERAN CRM 4 JL VETERAN 307 - SOLO,-7.579680000,110.811586000,BCA
KARTASURA CRM 2 JN RAYA KARTASURA BOK C 1-2 - SOLO,-7.579680000,110.811586000,BCA
SOLO BARU CRM 3 JL IR SOEKARNO MADEGONDO GROGOL SUKOHARJO,-7.579680000,110.811586000,BCA
SOLO BARU CRM 4 JL IR SOEKARNO MADEGONDO GROGOL SUKOHARJO,-7.579680000,110.811586000,BCA
RIA BATIK JL RM SAID NO 85 BANJARSARI SURAKARTA,-7.561400000,110.818800000,BCA
HOTEL NOVOTEL SOLO CRM 1 JL. SLAMET RIYADI 272 SOLO,-7.568400000,110.817000000,BCA
ALFAMART MAWAR INDRIA JL WOLTER MONGINSIDI NO 125 SETABELAN BANJARSARI SURAKARTA,-7.558100000,110.821300000,BCA
SOLO BALAPAN CRM 1 JL WOLTER MONGINSIDI NO 112 SURAKARTA,-7.557000000,110.821800000,BCA
HONGGOWONGSO SQUARE JL HONGGOWOMHSO SURAKARTA,-7.572300000,110.817000000,BCA
"ALFAMART PATTIMURA SOLO CRM 1 JL PATTIMURA NO 100, RT03/04, SERENGAN, SURAKARTA",-7.586235000,110.813499000,BCA
SINGOSAREN CRM 1 JL DR RADJIMAN 197 JAYENGAN SERENGAN SOLO,-7.573447000,110.819323000,BCA
SINGOSAREN CRM 2 JL DR RADJIMAN 197 JAYENGAN SERENGAN SOLO,-7.573447000,110.819323000,BCA
"INDOMARET VETERAN JL. VETERAN NO. 154, SOLO",-7.581500000,110.818400000,BCA
INDOMARET SIDOLUHUR JL SIDOLUHUR TANJUNG ANON SUKOHARJO,-7.589500000,110.815700000,BCA
RS INDRIATI SOLO BARU 1 JL PALEM RAYA LANGENHARJO SOLO BARU SUKOHAJO,-7.610900000,110.808800000,BCA
"INDOMARET LETJEND SUTOYO SOLO JL LETJEND SUTOYO NO 29, SOLO",-7.550695000,110.829783000,BCA
DELANGGU CRM 1 JL RAYA DELANGGU NO 73 DELANGGU,-7.578196900,110.820768500,BCA
DELANGGU CRM 2 JL RAYA DELANGGU NO 73 DELANGGU,-7.578196900,110.820768500,BCA
PEDAN CRM 1 JL BHAYANGKARA NO 3 SOYABAN PEDAN KLATEN,-7.578196900,110.820768500,BCA
PEDAN CRM 2 JL BHAYANGKARA NO 3 SOYABAN PEDAN KLATEN,-7.578196900,110.820768500,BCA
KARANGANYAR CRM 1 JL LAWU NO 32 KARANGANYAR,-7.578196900,110.820768500,BCA
KARANGANYAR CRM 2 JL LAWU NO 32 KARANGANYAR,-7.578196900,110.820768500,BCA
MOJOSONGO CRM 1 JL TANGKUBAN PERAHU NO 16 SURAKARTA,-7.578196900,110.820768500,BCA
MOJOSONGO CRM 2 JL TANGKUBAN PERAHU NO 16 SURAKARTA,-7.578196900,110.820768500,BCA
SLAMET RIYADI CRM 1 JL BRIGJEN SLAMET RIYADI 3 - SOLO - 57112,-7.578196900,110.820768500,BCA
SLAMET RIYADI CRM 2 JL BRIGJEN SLAMET RIYADI 3 - SOLO - 57112,-7.578196900,110.820768500,BCA
SLAMET RIYADI CRM 3 JL BRIGJEN SLAMET RIYADI 3 - SOLO - 57112,-7.578196900,110.820768500,BCA
SLAMET RIYADI CRM 4 JL BRIGJEN SLAMET RIYADI 3 - SOLO - 57112,-7.578196900,110.820768500,BCA
SLAMET RIYADI CRM 5 JL BRIGJEN SLAMET RIYADI 3 - SOLO - 57112,-7.578196900,110.820768500,BCA
SLAMET RIYADI CRM 6 JL BRIGJEN SLAMET RIYADI 3 - SOLO - 57112,-7.578196900,110.820768500,BCA
SLAMET RIYADI CRM 7 JL BRIGJEN SLAMET RIYADI 3 - SOLO - 57112,-7.578196900,110.820768500,BCA
SLAMET RIYADI CRM 8 JL BRIGJEN SLAMET RIYADI 3 - SOLO - 57112,-7.578196900,110.820768500,BCA
SLAMET RIYADI CRM 9 JL BRIGJEN SLAMET RIYADI 3 - SOLO - 57112,-7.578196900,110.820768500,BCA
SLAMET RIYADI CRM 10 JL BRIGJEN SLAMET RIYADI 3 - SOLO - 57112,-7.578196900,110.820768500,BCA
SLAMET RIYADI CRM 11 JL BRIGJEN SLAMET RIYADI 3 - SOLO - 57112,-7.578196900,110.820768500,BCA
SLAMET RIYADI CRM 12 JL BRIGJEN SLAMET RIYADI 3 - SOLO - 57112,-7.578196900,110.820768500,BCA
SLAMET RIYADI CRM 13 JL BRIGJEN SLAMET RIYADI 3 - SOLO - 57112,-7.578196900,110.820768500,BCA
CARREFOUR SOLO BARU JL PALEM RY 234 BLOKD-A SOLOBARUSUKOHARJO,-7.609500000,110.810600000,BCA
HARTONO MALL JL IR SOEKARNO SOLO BARU MADEGOND SURAKARTA,-7.600400000,110.814000000,BCA
"SHINSHUTSU JL. DI. PANJAITAN NO. 80, SOLO",-7.555400000,110.829500000,BCA
HONDA SOLO BARU CRM 1 JL RAYA SOLO BARU NO 168 SUKOHARJO,-7.605699000,110.812225000,BCA
"SPBU COCO SOLO BARU JL RY SOLO BARU, KEC GROGOL, KAB SUKOHARJO",-7.600700000,110.814100000,BCA
HONDA SOLO BARU 2 JL RAYA SOLO BARU NO 168 SUKOHARJO,-7.606200000,110.812200000,BCA
HOTEL BROTHERS JL IR SOEKARNO BLOK C 25 SOLO BARU SUKOHARJO,-7.608800000,110.811700000,BCA
INDOMARET MOJOSONGO JL LETJEN SUTOYO NO 11 SURAKARTA,-7.536700000,110.837200000,BCA
"APOTIK WIDURAN SOLO JL. SUTAN SYAHRIR, SOLO",-7.564400000,110.828700000,BCA
THE PARK VIEW MALL JL IR SOEKARNO SOLO BARU GROGOL SUKOHARJO,-7.599100000,110.817500000,BCA
BALAIKOTA SURAKARTA 1 JL JEND SUDIRMAN NO 2 ( KANTOR BPPKAD ) SURAKARTA,-7.569500000,110.828800000,BCA
GADING CRM 1 JL BRIGJEND SUDIARTO 73 SURAKARTA,-7.579615300,110.825998800,BCA
GADING CRM 2 JL BRIGJEND SUDIARTO 73 SURAKARTA,-7.579615300,110.825998800,BCA
"PASAR KLEWER CRM 1 JL KH ASHARI, SOLO",-7.579615300,110.825998800,BCA
"PASAR KLEWER CRM 2 JL KH ASHARI, SOLO",-7.579615300,110.825998800,BCA
ALFAMART KARANGMOJO JL KARANGMOJO GEDANGREJO GUNUNGKIDUL,-7.952600000,110.678400000,BCA
ALFAMART KALIWINGKO JL KALIWINGKO NO 22 GROGOL SUKOHARJO,-7.596300000,110.820900000,BCA
"ALFAMIDI GROGOL SUKOHARJO JL RAYA GROGOL NO 1, GROGOL, SUKOHARJO",-7.599800000,110.819700000,BCA
BETENG TRADE CENTER JL MAYOR SUNARYO. SURAKARTA,-7.572500000,110.831700000,BCA
BETENG TRADE CENTER CRM 1 JL MAYOR SUNARYO. SURAKARTA,-7.572500000,110.831700000,BCA
PASAR GEDE CRM 1 JL UTARA PASAR BESAR NO 1 SURAKARTA,-7.564191000,110.834833000,BCA
PASAR GEDE CRM 2 JL UTARA PASAR BESAR NO 1 SURAKARTA,-7.564191000,110.834833000,BCA
OERIP SUMOHARJO CRM 1 JL URIP SUMOHARJO NO 133-135 JEBRES SOLO,-7.564191000,110.834833000,BCA
OERIP SUMOHARJO CRM 2 JL URIP SUMOHARJO NO 133-135 JEBRES SOLO,-7.564191000,110.834833000,BCA
"GENTAN CRM 1 JL JOKO TINGGIR NO 18, PAJANG, LAWEYAN, SURAKARTA",-7.564932000,110.834748000,BCA
SOLO BARU CRM 1 JL IR SOEKARNO MADEGONDO GROGOL SUKOHARJO,-7.564932000,110.834748000,BCA
SOLO BARU CRM 2 JL IR SOEKARNO MADEGONDO GROGOL SUKOHARJO,-7.564932000,110.834748000,BCA
RS DOKTER OEN JL. BRIGJEND KATAMSO - SOLO,-7.554900000,110.838200000,BCA
TA TV JL. BRIGJEND. KATAMSO NO 173 SOLO,-7.544100000,110.841900000,BCA
"SPBU PASAR KLIWON JL. KAPTEN MULYADI 176 (PS. KLIWON), SOLO",-7.578900000,110.831000000,BCA
"SPBU PASAR KLIWON CRM 1 JL. KAPTEN MULYADI 176 (PS. KLIWON), SOLO",-7.578900000,110.831000000,BCA
ALFAMART BRIGJEN KATAMSO SOLO JL BRIGJEN KATAMSO NO 24 JEBRES SURAKARTA,-7.556400000,110.838700000,BCA
"INDOMARET TAYU CRM JL. PANGLIMA SUDIRMAN NO. 21, TAYU, SEMARANG",-6.537830000,111.046030000,BCA
INDOMARET MAYOR RUSLAN 2 LAHAT JL LINTAS LAHAT - PG ALAM LAHATTENGAH - LAHAT,-3.941836000,103.239186000,BCA
"ALFAMART RE MARTADINATA JL RE MARTADINATA NO 219 RT/RW 4/3, SURAKARTA",-7.570634700,110.837633200,BCA
"PMI SOLO JL. KOL. SUTARTO NO. 58, SOLO",-7.559300000,110.842900000,BCA
PATI CRM 3 JL JEND SUDIRMAN 74 - PATI,-6.751004600,111.029348600,BCA
PATI CRM 4 JL JEND SUDIRMAN 74 - PATI,-6.751004600,111.029348600,BCA
PATI CRM 1 JL JEND SUDIRMAN 74 - PATI,-6.751004600,111.029348600,BCA
PATI CRM 2 JL JEND SUDIRMAN 74 - PATI,-6.751004600,111.029348600,BCA
"INDOMARET KOLONEL SUGIONO (TUUU) SURAKARTA JL KOLONEL SUGIONO NO 225 KADIPIRO, SURAKARTA",-7.559100000,110.844300000,BCA
CANDI ALUMINIUM JL. IR. JUANDA 150 SURAKARTA SOLO,-7.568900000,110.841400000,BCA
ALFAMART KYAI MOJO SOLO CRM JL KYAI MOJO NO 23 RT 01 SEMANGGI PASAR KLIWON SUR,-7.587800000,110.836000000,BCA
INDOMARET SUNAN KALIJAGA JL SUNAN KALIJAGA RT 08/02 SIDOKERTO PATI,-6.740018000,111.034289000,BCA
PT SARIWARNA ASLI GARMENT JL HOS COKROAMINOTO NO 28 PUCANGSAWIT JEBRES SURAKARTA,-7.566100000,110.846700000,BCA
"ALFAMART MARGOYOSO JL RAYA PATI - TAYU KM 15, MARGOYOSO, PATI",-6.610238000,111.053329000,BCA
ALFAMART KAMANDOWO JL KAMANDOWO 25 PATI KIDUL PATI,-6.755479000,111.038425000,BCA
INDOMARET ALUN-ALUN PATI CRM 1 SIMPANG LIMA PLAZA ALUN-ALUN PATI -PATI,-6.752905000,111.040153000,BCA
"KLINIK KELUARGA SEHAT JL. DR. SUTOMO NO 32, PATI",-6.758076000,111.039535000,BCA
"ALFAMART PEMUDA PATI JL PEMUDA NO 224 PATI WETAN, PATI",-6.754139000,111.043083000,BCA
"ALFAMART KEMBANGJOYO JL KEMBANGJOYO RT 05/02, KUTOHARJO, PATI",-6.745800000,111.045700000,BCA
INDOMARET KARTIKA RAYA JL KARTIKA NO 168 KEC JEBRES SURAKARTA,-7.552000000,110.863000000,BCA
ADA SWALAYAN PATI 1 JL PEMUDA NO 302 A PATI,-6.753100000,111.051700000,BCA
PALUR CRM 1 JL RAYA PALUR KM 5 KARANGANYAR,-7.567098500,110.868170700,BCA
PALUR CRM 2 JL RAYA PALUR KM 5 KARANGANYAR,-7.567098500,110.868170700,BCA
PALUR CRM 3 JL RAYA PALUR KM 5 KARANGANYAR,-7.567098500,110.868170700,BCA
PALUR CRM 4 JL RAYA PALUR KM 5 KARANGANYAR,-7.567098500,110.868170700,BCA
"PT SARI WARNA ASLI TEXTILE INDUSTRI JL. KEMIRI, KEBAK KRAMAT, KARANGANYAR",-7.526400000,110.884600000,BCA
INDOMARET PALUR JL NUSA INDAH NO 10 NGRINGO JATEN KARANGANYAR,-7.556100000,110.875100000,BCA
"SRITEX SUKOHARJO 2 JL. KH. SAMANHUDI - JETIS, SUKOHARJO",-7.692800000,110.828500000,BCA
"SRITEX SUKOHARJO JL. KH. SAMANHUDI - JETIS, SUKOHARJO",-7.692800000,110.828500000,BCA
INDOMARET TAWANG HARJO JL RAYA PURWODADI BLORA KAB GROBOGAN,-7.086100000,111.005700000,BCA
"ALFAMIDI VETERAN SUKOHARJO CRM JL VETERAN NO 34, JETIS, SUKOHARJO",-7.682200000,110.836700000,BCA
ALFAMART WEDARIJAKSA CRM 1 JL RAYA RAA SUWONDO KEC WEDARIJAKSA KAB PATI,-6.681508000,111.072314000,BCA
SUKOHARJO CRM 1 JL SUDIRMAN NO 132 SUKOHARJO,-7.674651700,110.839707500,BCA
SUKOHARJO CRM 2 JL SUDIRMAN NO 132 SUKOHARJO,-7.674651700,110.839707500,BCA
SUKOHARJO CRM 3 JL SUDIRMAN NO 132 SUKOHARJO,-7.674651700,110.839707500,BCA
"LUWES PALUR JL. KARANGANYAR KM. 7, SOLO",-7.571900000,110.881000000,BCA
"INDOGROSIR SOLO JL RY SOLO TAWANGMANGU KM 7,2 DESA DAGEN JATEN KARANG ANYAR JAWA TENGAH",-7.573562200,110.882221600,BCA
"SARIWARNA ASLI TEXTIL INDUSTRI BRUJUL JL. RAYA SOLO - SRAGEN KM. 9 , KARANG ANYAR",-7.542900000,110.893100000,BCA
ALFAMART GROMPOL SRAGEN JL RAYA SOLO SRAGEN KM 16 KARANGMALANG MASARAN SRAGEN,-7.486300000,110.922300000,BCA
ALFAMART MASARAN JL RY MASARAN NO. 6 DESA MASARAN KEC MAGETAN,-7.469000000,110.932400000,BCA
"INDOMARET MAYOR AHMADI SUKOHARJO CRM 1 JL MAYOR AHMADI, SIDAN, RT 01 RW 8, KLUMPRIT, MOJO",-7.613383000,110.889181000,BCA
SPBU 44.575.12 SAPEN CRM 1 JL SOLO TAWANGMAGU KM9 DS MOJOLABAN SUKOHARJO,-7.582800000,110.907100000,BCA
INDOMARET TASIKMADU ( TXII) JL RAYA TASIKMADU RT 01/01DS NGIANO TASIKMADU KARANGANYAR,-7.574000000,110.930500000,BCA
RS ALMAH JL RAYA AIR KENANGA SUNGAI LIAT PANGKALPINANG,-1.913100000,106.119300000,BCA
"SPBU GROWONG JUWANA JL. GROWONG,JUWANA- PATI",-6.707924000,111.139554000,BCA
"MITRA DEPSTORE STORE KARANGANYAR JL. LAWU CANGAKAN BADRAN ASRI, KARANGANYAR",-7.593900000,110.942100000,BCA
"SPBU 24-332133 JL. JEND. SUDIRMAN, SUNGAI LIAT",-1.897400000,106.111000000,BCA
ALFAMART PASAR LAMA JUWANA JL PASAR LAMA 1 KAUMAN JUWANA PATI,-6.717993000,111.143112000,BCA
"WR SUPRATMAN JUWANA JL. WR SUPRATMAN NO. 40, JUWANA",-6.712223000,111.146292000,BCA
JUWANA CRM 1 PERTOK PLAZA JUWANA 14-16 JL P SUDIMAN JUWANA,-6.719743947,111.148825000,BCA
JUWANA CRM 2 PERTOK PLAZA JUWANA 14-16 JL P SUDIMAN JUWANA,-6.719743947,111.148825000,BCA
"ALFAMART GAJAHMADA WIROSARI JL GAJAHMADA NO 48 WIROSARI, KAB GROBOGAN, JAWA TENGAH",-7.078900000,111.091600000,BCA
SPBU 44.572.02 SUKOWATI JL RAYA SUKOWATI KM 2 SRAGEN,-7.431200000,111.004700000,BCA
"INDOMARET LAWU JL. LAWU 230, KARANG ANYAR",-7.598200000,110.957400000,BCA
SRAGEN CRM 1 JL SUKOWATI 185 - SRAGEN,-7.428160330,111.016706000,BCA
SRAGEN CRM 2 JL SUKOWATI 185 - SRAGEN,-7.428160330,111.016706000,BCA
SRAGEN CRM 3 JL SUKOWATI 185 - SRAGEN,-7.428160330,111.016706000,BCA
SRAGEN CRM 4 JL SUKOWATI 185 - SRAGEN,-7.428160330,111.016706000,BCA
INDOMARET SRAGEN JL VETERAN NO 9 MAGERU SRAGEN TENGAH SRAGEN,-7.429200000,111.023700000,BCA
"RSIA SARILA HUSADA JL. VETERAN NO. 41 - 43, SRAGEN",-7.435200000,111.024000000,BCA
SEJATI HOTEL JL JEND SUDIRMAN 107 SUNGAILIAT,-1.869000000,106.116500000,BCA
"RS MEDIKA STANIA JL. JEND. SUDIRMAN NO.3, SUNGAI LIAT",-1.857600000,106.117600000,BCA
INDOMARET WONOGIRI JL A YANI NO 11 WONOKARTO WONOGIRI,-7.804200000,110.916000000,BCA
MEGA MART JL MUHIDIN SUNGAILIAT BANGKA,-1.848700000,106.111000000,BCA
SPBU 44.572.22 NGRAMPAL CRM 1 BENERSARI NGRAMPAL SRAGEN KARANGANYAR,-7.397426000,111.065374000,BCA
ALFAMART JENDERAL SUDIRMAN WONOGIRI JL JEND SUDIRMAN NO 211 WURYOREJO WONOGIRI,-7.830200000,110.921200000,BCA
"SPBU 44.576.12 POKOH 1 JL DIPONEGORO NO 50, POKOH, WONOBOYO, WONOGIRI",-7.813200000,110.935400000,BCA
SPBU 24.332.139 SINAR JAYA JL RAYA SINAR JAYA SUNGAILIAT,-1.834300000,106.094500000,BCA
WONOGIRI CRM 1 JL JENDRAL SUDIRMAN NO 233 WONOGIRI,-7.812034000,110.939880000,BCA
WONOGIRI CRM 2 JL JENDRAL SUDIRMAN NO 233 WONOGIRI,-7.812034000,110.939880000,BCA
WONOGIRI CRM 3 JL JENDRAL SUDIRMAN NO 233 WONOGIRI,-7.812034000,110.939880000,BCA
INDOMARET BATANGAN DESA BATURSARI BATANGAN PATI,-6.708249000,111.230069000,BCA
MENTOK CRM 1 JL RE MARTADINATA NO 89A BANGKA BARAT,-2.069361000,105.161937000,BCA
MENTOK CRM 2 JL RE MARTADINATA NO 89A BANGKA BARAT,-2.069361000,105.161937000,BCA
INDOMARET MATESIH JL RAYA JOKO SONGO RT 09/03 MATESIH KARANGANYAR,-7.647400000,111.047500000,BCA
"INDOMARET BALAI AGUNG SEKAYU JL LINTAS SUMATERA,KEL BALAI AGUNG SEKAYU MUBA",-2.863426000,103.837686000,BCA
SPBU GAJAH MADA REMBANG CRM 1 JL RAYA GAJAH MADA NO 9 A REMBANG,-6.700100000,111.313600000,BCA
INDOMARET SIDOHARJO JL RAYA SIDOHARJO JARUM KAYULOKO WONOGIRI,-7.823800000,111.066000000,BCA
"REMBANG CRM 1 JL PEMUDA NO 3C, KEL LETEH, KAB REMBANG",-6.713278121,111.343111000,BCA
"REMBANG CRM 2 JL PEMUDA NO 3C, KEL LETEH, KAB REMBANG",-6.713278121,111.343111000,BCA
ALFAMART DIPONEGERO REMBANG CRM 1 JL DIPONEGORO KAB REMBANG,-6.704668000,111.346557000,BCA
"ALFAMART DC PASAR BANGGI REMBANG CRM 1 JL RAYA REMBANG LASEM KM 3, DS PASAR BANGGI, REMBANG",-6.704400000,111.387500000,BCA
"ALFAMART DC PASAR BANGGI REMBANG JL RAYA REMBANG LASEM KM 3, DS PASAR BANGGI, REMBANG",-6.704400000,111.387500000,BCA
"INDOMARET UNTUNG SUROPATI LASEM JL UNTUNG SUROPATI NO.48 RT03/RW02, GEDUNG MULYO - LASEM, REMBANG",-6.695900000,111.441200000,BCA
SWALAYAN LASEM JL. RAYA UNTUNG SURAPATI,-6.697646000,111.446647000,BCA
ALFAMART DR SUTOMO BLORA JL DR SUTOMO NO 33 A KAB BLORA,-6.966900000,111.417600000,BCA
BLORA CRM 1 JL PEMUDA 57 BLORA,-6.970447420,111.420354600,BCA
BLORA CRM 2 JL PEMUDA 57 BLORA,-6.970447420,111.420354600,BCA
BLORA CRM 3 JL PEMUDA 57 BLORA,-6.970447420,111.420354600,BCA
BLORA CRM 4 JL PEMUDA 57 BLORA,-6.970447420,111.420354600,BCA
INDOMARET A YANI BLORA JL AHMAD YANI NO 40 BLORA,-6.963700000,111.423600000,BCA
SUNGAI LIAT CRM 1 JL JEND SUDIRMAN NO 26 SUNGAILIAT,-1.641459000,105.775332000,BCA
SUNGAI LIAT CRM 2 JL JEND SUDIRMAN NO 26 SUNGAILIAT,-1.641459000,105.775332000,BCA
SUNGAI LIAT CRM 3 JL JEND SUDIRMAN NO 26 SUNGAILIAT,-1.641459000,105.775332000,BCA
SUNGAI LIAT CRM 4 JL JEND SUDIRMAN NO 26 SUNGAILIAT,-1.641459000,105.775332000,BCA
SUNGAI LIAT CRM 5 JL JEND SUDIRMAN NO 26 SUNGAILIAT,-1.641459000,105.775332000,BCA
BELINYU CRM 1 JL GAJAH MADA BELINYU,-1.641459000,105.775332000,BCA
BELINYU CRM 2 JL GAJAH MADA BELINYU,-1.641459000,105.775332000,BCA
SUNGAI LIAT CRM 1 JL DEPATI AMIR NO 1 SUNGAI LIAT BANGKA,-1.641459000,105.775332000,BCA
SUNGAI LIAT CRM 2 JL DEPATI AMIR NO 1 SUNGAI LIAT BANGKA,-1.641459000,105.775332000,BCA
"INDOMARET WULUNG RANDUBLATUNG JL DESA WULUNG, RANDU BLATUNG, KEDUNGJARAN, BLORA",-7.191200000,111.395700000,BCA
INDOMARET JEPON 03 JL RAYA JEPON NO 03 JEPON KAB BLORA,-6.974000000,111.475400000,BCA
ALFAMART DIPONEGORO CRM 1 JL. DIPONEGORO MAGETAN,-7.653750000,111.319454000,BCA
INDOMARET A YANI JL JEND A YANI NO 108 KEL TAWANGANOM KAB MAGETAN,-7.651500000,111.322300000,BCA
INDOMARET PARON JL RAYA PARON DS PARON GELUNG PARON NGAWI,-7.440669400,111.386331400,BCA
INDOMARET MAYJEN SUNGKONO MAGETAN JL MAYJEN SUNGKONO NO 22 KAB MAGETAN,-7.645100000,111.329100000,BCA
MAGETAN CRM 4 JL A YANI 25B MAGETAN,-7.657136000,111.325429000,BCA
MAGETAN CRM 1 JL A YANI 25B MAGETAN,-7.657135779,111.325429100,BCA
MAGETAN CRM 2 JL A YANI 25B MAGETAN,-7.657135779,111.325429100,BCA
MAGETAN CRM 3 JL A YANI 25B MAGETAN,-7.657135779,111.325429100,BCA
RSUD MAGETAN JL. PAHLAWAN NO. 2 MAGETAN,-7.652700000,111.336600000,BCA
RM NOTOSUMAN CRM 1 JL PB SUDIRMAN NO 26 NGAWI,-7.410039000,111.441189000,BCA
"PASAR TURI CRM 1 KOMP SINAR GALAXY, JL PASAR TURI 42 SURABAYA",-7.246061023,112.735386400,BCA
ALFAMIDI GAYUNG SARI SBY JL GAYUNG SARI NO 35 GAYUNGAN SURABAYA,-7.331300000,112.720100000,BCA
"ALFAMART KETINTANG SELATAN JL KETINTANG SELATAN NO 73, KARAH, JAMBANGAN, SURABAYA",-7.316800000,112.722800000,BCA
"SPBU COCO 51.601.124 KETINTANG JL KETINTANG MADYA NO 46, SURABAYA",-7.311500000,112.723800000,BCA
INDOMARET KETINTANG MADYA JL KETINTANG MADYA KETINTANG WONOKROMO SBY,-7.314100000,112.723500000,BCA
ALFAMART DIPONEGORO SBY JL DIPONEGORO NO 186 KEL DR SUTOMO KEC TEGALSARI SURABAYA,-7.278600000,112.730000000,BCA
INDOMARET GAYUNGSARI BARAT 99 SBY JL GAYUNGSARI BARAT NO 99 SURABAYA,-7.335028000,112.719701000,BCA
EBC JEMBATAN MERAH PLAZA SBY CRM 1 JL JAYENGRONO 1 SURABAYA,-7.235570000,112.737530000,BCA
EBC JEMBATAN MERAH PLAZA SBY CRM 3 JL JAYENGRONO 1 SURABAYA,-7.235570000,112.737530000,BCA
EBC JEMBATAN MERAH PLAZA SBY CRM 2 JL JAYENGRONO 1 SURABAYA,-7.235570000,112.737530000,BCA
PERUMAHAN CITRA GARDEN RUKO SENTRA NIAGA RK-32 CITRA GARDEN SIDOARJO,-7.437900000,112.699600000,BCA
"JEMBATAN MERAH, SBY CRM KOMP JMBTN MRH PLAZA JL JAYENGRONO SBY",-7.236096266,112.737791300,BCA
INDOMARET RATU AYU JL. RATU AYU NO. 30 WAGE SIDOARJO,-7.368000000,112.713883000,BCA
ALFAMART JATISARI INDAH JL JATISARI INDAH NO 49 SIDOARJO,-7.364300000,112.714600000,BCA
INDOMARET KARTINI 128 SURABAYA JL RA KARTINI 128 DR SOETOMO TEGALSARI SURABAYA,-7.278000000,112.730700000,BCA
"INDOMARET BUBUTAN 121 SURABAYA JL BUBUTAN NO 121-125 BUBUTAN, BUBUTAN, SURABAYA",-7.246200000,112.736800000,BCA
INDOMARET CITRA GARDEN SIDOARJO JL PERUM CITRA GARDEN SIDOARJO,-7.438100000,112.700700000,BCA
MERR CRM 1 JL DR IR H SOEKARNO NO 480 F5-F5A SURABAYA,-7.307306700,112.726172600,BCA
INDOMARET DIPONEGORO. SBY JL. DIPONEGORO 202 SURABAYA,-7.280800000,112.731000000,BCA
VETERAN CRM 8 JL VETERAN 18-24 SURABAYA,-7.242152184,112.738204400,BCA
VETERAN CRM 9 JL VETERAN 18-24 SURABAYA,-7.242152184,112.738204400,BCA
VETERAN CRM 10 JL VETERAN 18-24 SURABAYA,-7.242152184,112.738204400,BCA
VETERAN CRM 1 JL VETERAN 18-24 SURABAYA,-7.242152184,112.738204400,BCA
VETERAN CRM 2 JL VETERAN 18-24 SURABAYA,-7.242152184,112.738204400,BCA
VETERAN CRM 3 JL VETERAN 18-24 SURABAYA,-7.242152184,112.738204400,BCA
VETERAN CRM 4 JL VETERAN 18-24 SURABAYA,-7.242152184,112.738204400,BCA
VETERAN CRM 5 JL VETERAN 18-24 SURABAYA,-7.242152184,112.738204400,BCA
VETERAN CRM 6 JL VETERAN 18-24 SURABAYA,-7.242152184,112.738204400,BCA
VETERAN CRM 7 JL VETERAN 18-24 SURABAYA,-7.242152184,112.738204400,BCA
"JAGALAN, SBY CRM 1 JL JAGALAN NO 26 SURABAYA",-7.242152184,112.738204400,BCA
SEMUT CRM 1 JL BONGKARAN NO 17 - 19 SURABAYA,-7.242152184,112.738204400,BCA
SLOMPRETAN CRM 1 JL SLOMPRETAN 43 - SURABAYA - 60161,-7.242152184,112.738204400,BCA
KERTOPATEN CRM 1 JL. PEGIRIAN 114 - SURABAYA - 60145,-7.242152184,112.738204400,BCA
PABEAN CRM 1 JL KALIMATI KULON 23 & 25 - SURABAYA - 60162,-7.242152184,112.738204400,BCA
KH MANSYUR CRM 1 JL KH MANSYUR NO 88 SURABAYA,-7.242152184,112.738204400,BCA
SPBU 53.612.67 ARTERI BARU PORONG CRM 1 JL ARTERI BARU PORONG JUWET KENONGO PORONG SIDOARJO,-7.527599500,112.682101800,BCA
"INDOMARET KH MANSYUR 193 JL KH MAS MANSYUR PABEAN CANTIK NO 97, NYAMPLUNGAN, SEMAMPIR, SUR ABAYA",-7.227900000,112.740700000,BCA
"BANK INDONESIA SURABAYA JL. PAHLAWAN NO. 105, SURABAYA",-7.244600000,112.737900000,BCA
ALFAMART KH MANSYUR JL KH MANSYUR NO 240 - 242 SURABAYA,-7.226400000,112.741000000,BCA
GEMBLONGAN CRM 1 JL GEMBLONGAN NO 65 G DAN H SURABAYA,-7.254664803,112.736174500,BCA
ALFAMART EMBONG MALANG JL RAYA EMBONG MALANG NO 81 SURABAYA,-7.259600000,112.735400000,BCA
"ALFAMIDI JATISARI SIDOARJO JL JATISARI NO 44A, PEPELEGI WARU, SIDOARJO",-7.362600000,112.716500000,BCA
RS AL-IRSYAD JL. KH MANSUR 210-214 - SURABAYA,-7.228500000,112.740900000,BCA
INDOMARET KEDUNGSARI II ( THNZ ) SURABAYA JL KEDUNG SARI NO 22-24 KEDUNGDORO SURABAYA,-7.267500000,112.734300000,BCA
INDOMARET INJOKO SURABAYA JL GAYUNG KEBONSARI NO 30 A-B SURABAYA,-7.329114000,112.723143000,BCA
"TEMBAAN, SBY JL. TEMBAAN 17B - SURABAYA - 60174",-7.247323977,112.738139500,BCA
"TEMBAAN, SBY CRM 1 JL TEMBAAN 17B - SURABAYA",-7.247323977,112.738139500,BCA
INDOMARET EMBONG MALANG SBY JL. AHMAD YANI NO.260 SURABAYA,-7.259600000,112.736100000,BCA
INDOMARET CIPTA MANUNGGAL JL. MENAGGAL UTARA SURABAYA,-7.341400000,112.721300000,BCA
ALFAMIDI KETINTANG CRM JL KETINTANG NO 46 SURABAYA,-7.309200000,112.727300000,BCA
"KEMBANG JEPUN, SBY CRM 1 JL KEBANG JEPUN 55 - SURABAYA",-7.237335905,112.740132100,BCA
"CITRALAND, SURABAYA CRM 3 RUKO GATE WAY JUNCTION NO 1-2 SBY",-7.268044000,112.734833000,BCA
"CITRALAND, SURABAYA CRM 4 RUKO GATE WAY JUNCTION NO 1-2 SBY",-7.268044000,112.734833000,BCA
"CITRALAND, SURABAYA CRM 5 RUKO GATE WAY JUNCTION NO 1-2 SBY",-7.268044000,112.734833000,BCA
"CITRALAND, SURABAYA CRM 6 RUKO GATE WAY JUNCTION NO 1-2 SBY",-7.268044000,112.734833000,BCA
"CITRALAND, SURABAYA CRM 7 RUKO GATE WAY JUNCTION NO 1-2 SBY",-7.268044000,112.734833000,BCA
"CITRALAND, SURABAYA CRM 8 RUKO GATE WAY JUNCTION NO 1-2 SBY",-7.268044000,112.734833000,BCA
"CITRALAND, SURABAYA CRM 9 RUKO GATE WAY JUNCTION NO 1-2 SBY",-7.268044000,112.734833000,BCA
"CITRALAND, SURABAYA CRM 10 RUKO GATE WAY JUNCTION NO 1-2 SBY",-7.268044000,112.734833000,BCA
"CITRALAND, SURABAYA CRM 11 RUKO GATE WAY JUNCTION NO 1-2 SBY",-7.268044000,112.734833000,BCA
"CITRALAND, SURABAYA CRM 1 RUKO GATE WAY JUNCTION NO 1-2 SBY",-7.268044000,112.734833000,BCA
"CITRALAND, SURABAYA CRM 2 RUKO GATE WAY JUNCTION NO 1-2 SBY",-7.268044000,112.734833000,BCA
"GIANT KEDUNGSARI JL. KEDUNG SARI NO. 80, SURABAYA",-7.267800000,112.734900000,BCA
INDOMARET LETJEN SUTOYO 110 SIDOARJO JL LETJEN SUTOYO NO 110 SIDOARJO,-7.352600000,112.719500000,BCA
"INDOMARET PLUS INDRAGIRI 18 SURABAYA JL INDRAGIRI NO 18, SURABAYA",-7.289400000,112.731400000,BCA
"INDOMARET REST AREA KARANGPLOSO MALANG JL RAYA DIPONEGORO, KAB MALANG, MALANG",-7.889300000,112.591500000,BCA
SUTOMO CRM 1 JL DR SUTOMO 126 - SURABAYA,-7.284400000,112.732400000,BCA
SUTOMO CRM 2 JL DR SUTOMO 126 - SURABAYA,-7.284400000,112.732400000,BCA
SUTOMO CRM 3 JL DR SUTOMO 126 - SURABAYA,-7.284400000,112.732400000,BCA
SUTOMO CRM 4 JL DR SUTOMO 126 - SURABAYA,-7.284400000,112.732400000,BCA
SUTOMO CRM 5 JL DR SUTOMO 126 - SURABAYA,-7.284400000,112.732400000,BCA
SUTOMO CRM 6 JL DR SUTOMO 126 - SURABAYA,-7.284400000,112.732400000,BCA
SUTOMO CRM 7 JL DR SUTOMO 126 - SURABAYA,-7.284400000,112.732400000,BCA
SUTOMO CRM 8 JL DR SUTOMO 126 - SURABAYA,-7.284400000,112.732400000,BCA
SUTOMO CRM 9 JL DR SUTOMO 126 - SURABAYA,-7.284400000,112.732400000,BCA
SUTOMO CRM 10 JL DR SUTOMO 126 - SURABAYA,-7.284400000,112.732400000,BCA
SUTOMO CRM 11 JL DR SUTOMO 126 - SURABAYA,-7.284400000,112.732400000,BCA
SUTOMO CRM 12 JL DR SUTOMO 126 - SURABAYA,-7.284400000,112.732400000,BCA
ALFAMART PANDEGILING JL. PANDEGILING 248- SURABAYA,-7.275500000,112.734200000,BCA
RESTO MUSI 39 SURABAYA JL MUSI 39 SURABAYA 60261,-7.287300000,112.732300000,BCA
KEDUNGDORO CRM 1 JL KEDUNGDORO NO 36 - 46 (BLOK B12) SURABAYA,-7.284424117,112.732839400,BCA
GENTENG KALI CRM 1 JL GENTENG KALI 89 SURABAYA,-7.284424117,112.732839400,BCA
GEMBLONGAN CRM 2 JL GEMBLONGAN NO 65 G DAN H SURABAYA,-7.284424117,112.732839400,BCA
"DIPONEGORO, SBY CRM 1 JL DR SUTOMO 118 - SURABAYA - 60241",-7.284424117,112.732839400,BCA
DUKUH KUPANG CRM 1 JL DUKUH KUPANG NO 67 SURABAYA,-7.284424117,112.732839400,BCA
"INDOMARET KAMPUNG MALANG II SURABAYA JL KAMPUNG MALANG TENGAH 1 NO 23, SURABAYA",-7.271600000,112.735300000,BCA
"INDOMARET JATISARI II SIDOARJO JL JOYOBOYO NO 28, SIDOARJO",-7.358444000,112.719362000,BCA
TUNJUNGAN CRM 1 JL TUNJUNGAN 36 SURABAYA,-7.257969216,112.737759900,BCA
"INDOMARET ARYO BEBANGAH JL. PAHLAWAN, SIDOARJO",-7.370200000,112.717400000,BCA
"ALFAMIDI KARTINI JL RA KARTINI, DOKTER SUTOMO, TEGALSARI",-7.279100000,112.734500000,BCA
"ALFAMIDI PONDOK JATI PERUM PONDOK JATI BLOK C-1, SURABAYA",-7.445833000,112.702424000,BCA
INDOMARET PONDOK JATI II PERUM PONDOK JATI BLOK AJ NO 37 SIDOARJO,-7.441200000,112.703400000,BCA
INDOMARET HYBRID PONDOK JATI SIDOARJO PONDOK JATI BLOK B NO. 2 SIDOARJO,-7.446800000,112.702300000,BCA
INDOMARET KETINTANG LOTUS JL KETINTANG BARU SELATAN I NO 77-78 SURABAYA,-7.324984000,112.726291000,BCA
EBC TUNJUNGAN PLAZA 6 CRM 3 TUNJUNGAN PLAZA 6 LT 3 UNIT 17 JL BASUKI RAHMAT SU,-7.262230000,112.737670000,BCA
EBC TUNJUNGAN PLAZA 6 CRM 4 TUNJUNGAN PLAZA 6 LT 3 UNIT 17 JL BASUKI RAHMAT SU,-7.262230000,112.737670000,BCA
EBC TUNJUNGAN PLAZA 6 CRM 5 TUNJUNGAN PLAZA 6 LT 3 UNIT 17 JL BASUKI RAHMAT SU,-7.262230000,112.737670000,BCA
EBC TUNJUNGAN PLAZA 6 CRM 6 TUNJUNGAN PLAZA 6 LT 3 UNIT 17 JL BASUKI RAHMAT SU,-7.262230000,112.737670000,BCA
EBC TUNJUNGAN PLAZA 6 CRM 1 TUNJUNGAN PLAZA 6 LT 3 UNIT 17 JL BASUKI RAHMAT SURABAYA,-7.262230000,112.737670000,BCA
EBC TUNJUNGAN PLAZA 6 CRM 2 TUNJUNGAN PLAZA 6 LT 3 UNIT 17 JL BASUKI RAHMAT SURABAYA,-7.262230000,112.737670000,BCA
INDOMARET KETINTANG SURABAYA JL RAYA KETINTANG NO 127 SURABAYA,-7.309877000,112.729293000,BCA
MEDAENG JL. MAYJEND SUTOYO NO. 7 MEDAENG SURABAYA,-7.353533000,112.721149000,BCA
ALFAMART JETIS KULON JL JETIS KULON 1 NO 74 SURABAYA,-7.306700000,112.729900000,BCA
EBC PONDOK MUTIARA CRM 1 JL PERUMAHAN PONDOK MUTIARA N - 06 SIDOARJO,-7.446287150,112.702709300,BCA
EBC PONDOK MUTIARA CRM 2 JL PERUMAHAN PONDOK MUTIARA N - 06 SIDOARJO,-7.446287150,112.702709300,BCA
EBC PONDOK MUTIARA CRM 3 JL PERUMAHAN PONDOK MUTIARA N - 06 SIDOARJO,-7.446287150,112.702709300,BCA
EBC PONDOK MUTIARA CRM 4 JL PERUMAHAN PONDOK MUTIARA N - 06 SIDOARJO,-7.446287150,112.702709300,BCA
EBC PONDOK MUTIARA CRM 5 JL PERUMAHAN PONDOK MUTIARA N - 06 SIDOARJO,-7.446287150,112.702709300,BCA
EBC PONDOK MUTIARA CRM 6 JL PERUMAHAN PONDOK MUTIARA N - 06 SIDOARJO,-7.446287150,112.702709300,BCA
EBC PONDOK MUTIARA CRM 7 JL PERUMAHAN PONDOK MUTIARA N - 06 SIDOARJO,-7.446287150,112.702709300,BCA
MEDAENG 2 JL. MAYJEND SUTOYO NO. 7 MEDAENG SURABAYA,-7.353500000,112.721200000,BCA
"STORE DIPONEGORO SURABAYA CRM 1 JL DIPONEGORO NO 73, RT 10/RW 01, KEL WONOKROMO SURABAYA",-7.289411000,112.733199300,BCA
INDOMARET NYAMPLUNGAN JL. NYAMPLUNGAN 51 - 53 SURABAYA,-7.232900000,112.743100000,BCA
"SPBU COCO DR SUTOMO JL. DR SUTOMO NO. 87-89, SURABAYA",-7.284700000,112.734100000,BCA
ALFAMIDI JOYOBOYO SURABAYA JL JOYOBOYO NO 52 KEL SAWUNGGALING KEC WONOKROMO SURABAYA,-7.299300000,112.731500000,BCA
INDOMARET KETINTANG BARU SELATAN SURABAYA JL KETINTANG SAMSAT SURABAYA,-7.322200000,112.727400000,BCA
SHERATON SURABAY HOTEL & TOWERS JL EMBONG MALANG NO 25-31 SURABAYA,-7.262600000,112.738200000,BCA
"ALFAMART KUTAI SURABAYA JL KUTAI NO 73, DARMO, WONOKROMO, SURABAYA",-7.292800000,112.733000000,BCA
INDOMARET JOYOBOYO JL. JOYOBOYO NO. 40 SURABAYA,-7.298700000,112.732100000,BCA
INDOMARET PULO WONOKROMO JL. PULO WONOKROMO NO. 164 SURABAYA,-7.301200000,112.731700000,BCA
INDOMARET ARTERI PORONG SIDOARJO JL RAYA ARTERI ( TNIA ) SIDOARJO,-7.537900000,112.683800000,BCA
"INDOMARET KALIBUTUH 107 JL PONDOK JATI BP 11, SIDOARJO",-7.439802000,112.704881000,BCA
INDOMARET PASAR BESAR SURABAYA JL PASAR BESAR NO 9-11 SURABAYA,-7.247700000,112.741400000,BCA
TAMAN SENGKALING 2 JL. RAYA MULYO AGUNG 188 - MALANG,-7.915100000,112.586700000,BCA
TAMAN SENGKALING JL. RAYA MULYO AGUNG 188 - MALANG,-7.915100000,112.586700000,BCA
INDOMARET KLUDAN SIDOARJO JL WATES NO 23 KENDENSARI SIDOARJO,-7.497900000,112.692900000,BCA
FOURPOINT SURABAYA HOTEL JL EMBONG MALANG 25 - 31 SURABAYA,-7.260000000,112.739500000,BCA
M DURYAT CRM 1 JL KOMBES M DURYAT 23 - SURABAYA,-7.268135577,112.738314600,BCA
M DURYAT CRM 2 JL KOMBES M DURYAT 23 - SURABAYA,-7.268135577,112.738314600,BCA
M DURYAT CRM 3 JL KOMBES M DURYAT 23 - SURABAYA,-7.268135577,112.738314600,BCA
M DURYAT CRM 4 JL KOMBES M DURYAT 23 - SURABAYA,-7.268135577,112.738314600,BCA
"ALFAMIDI SUMOKALI SIDOARJO JL DESA SUMOKALI RT13/03, SUMOKALI, CANDI, SIDOARJO",-7.466700000,112.700000000,BCA
"INDOMARET ARTERI PORONG SIDOARJO II JL ARTERI BARU PORONG, GONDANG SELATAN, SIDOARJO",-7.540200000,112.684100000,BCA
ALFAMART NYAMPLUNGAN II JL NYAMPLUNGAN 185-187 SEMAMPIR SURABAYA,-7.228900000,112.745300000,BCA
INDOMARET NYAMPLUNGAN II JL NYAMPLUNGAN NO 157 AMPEL SURABAYA,-7.229900000,112.745200000,BCA
"ALFAMART LETJEN SUTOYO SIDOARJO JL LETJEN SUTOYO NO 33 RT01/01, WARU,SIDOARJO",-7.353700000,112.723200000,BCA
INDOMARET LINGKAR BARAT SIDOARJO JL LINGKAR BARAT 07 SIDOARJO,-7.445800000,112.704900000,BCA
INDOMARET RAYA KETINTANG SURABAYA JL. RAYA KETINTANG SURABAYA,-7.310000000,112.731700000,BCA
"INDOMARET WASPADA 18 SURABAYA JL WASPADA NO 18, BONGKARAN, SURABAYA",-7.240800000,112.744000000,BCA
ALFAMIDI TAMAN PINANG SIDOARJO JL RAYA TAMAN PINANG BLOK BB 4/8,-7.453597000,112.703664000,BCA
"TUNJUNGAN PLAZA CRM 1 KOM PERTTUNJ PLZ III LT1 BL.ZZ, SURABAYA",-7.266300000,112.739800000,BCA
"EBC PASAR ATUM MALL II CRM 9 JL STASIUN KOTA 7A, PASAR ATUM MALL LANTAI 1 NO A86 SURABAYA",-7.241555000,112.744175000,BCA
"HERO TAMAN PINANG 2 KOMP. TAMAN PINANG INDAH BLOK A1, SURABAYA",-7.449500000,112.704800000,BCA
"HERO TAMAN PINANG KOMP. TAMAN PINANG INDAH BLOK A1, SURABAYA",-7.449500000,112.704800000,BCA
INDOMARET DRIVE THRU A YANI 48 JL A YANI NO 68 SURABAYA,-7.318152800,112.730922100,BCA
"PASAR ATUM MALL 1 JL STASIUN KOTA 7A, PASAR ATUM MALL LANTAI 4, STAND FD 21-22, SURABAYA",-7.242630000,112.744380000,BCA
"PASAR ATUM MALL 2 JL STASIUN KOTA 7A, PASAR ATUM MALL LANTAI 4, STAND FD 21-22, SURABAYA",-7.242630000,112.744380000,BCA
"PASAR ATUM MALL 3 JL STASIUN KOTA 7A, PASAR ATUM MALL LANTAI 4, STAND FD 21-22, SURABAYA",-7.242630000,112.744380000,BCA
"PASAR ATUM MALL 4 JL STASIUN KOTA 7A, PASAR ATUM MALL LANTAI 4, STAND FD 21-22, SURABAYA",-7.242630000,112.744380000,BCA
"EBC PASAR ATUM MALL II CRM 1 JL STASIUN KOTA 7A, PASAR ATUM MALL LANTAI 1 NO A86 SURABAYA",-7.242630000,112.744380000,BCA
"EBC PASAR ATUM MALL II CRM 2 JL STASIUN KOTA 7A, PASAR ATUM MALL LANTAI 1 NO A86 SURABAYA",-7.242630000,112.744380000,BCA
"EBC PASAR ATUM MALL II CRM 3 JL STASIUN KOTA 7A, PASAR ATUM MALL LANTAI 1 NO A86 SURABAYA",-7.242630000,112.744380000,BCA
"EBC PASAR ATUM MALL II CRM 4 JL STASIUN KOTA 7A, PASAR ATUM MALL LANTAI 1 NO A86 SURABAYA",-7.242630000,112.744380000,BCA
"EBC PASAR ATUM MALL II CRM 5 JL STASIUN KOTA 7A, PASAR ATUM MALL LANTAI 1 NO A86 SURABAYA",-7.242630000,112.744380000,BCA
"INDOMARET CILIWUNG SURABAYA JL RAYA CILIWUNG NO 26 A, SURABAYA",-7.293800000,112.735400000,BCA
INDOMARET TAMAN PINANG JL PERUM TMN PINANG INDAH BLOK C NO1 SIDOARJO,-7.454400000,112.704300000,BCA
INDOMARET PARK ROYAL SIDOARJO RUKO PERUM PARK ROYAL BUDURAN SIDOARJO,-7.427300000,112.709900000,BCA
"PASAR ATUM MALL CRM 1 JL STASIUN KOTA 7A, PASAR ATUM MALL LANTAI 2 STAND BA 1-7 SURABAYA",-7.242424654,112.744603200,BCA
"PASAR ATUM MALL CRM 2 JL STASIUN KOTA 7A, PASAR ATUM MALL LANTAI 2 STAND BA 1-7 SURABAYA",-7.242424654,112.744603200,BCA
ALFAMART BASUKI RAHMAT II SBY JL BASUKI RAHMAT NO 42-43 TEGALSARI SURABAYA,-7.266000000,112.740800000,BCA
"EBC PASAR ATUM MALL II CRM 6 JL STASIUN KOTA 7A, PASAR ATUM MALL LANTAI 1 NO A86 SURABAYA",-7.242673000,112.744905000,BCA
INDOMARET GRIYA PERMATA GEDANGAN SIDOARJO BAL DS GEDANGAN KEL KEBOAN SIKAP GEDANGAN SDA,-7.388400000,112.718100000,BCA
INDOMARET RAYA KETINTANG 177(T8II ) SURABAYA JL RAYA KETINTANG 177 SURABAYA,-7.309682000,112.733083000,BCA
"ALFAMART CILIWUNG JL. CILIWUNG NO.17, SURABAYA",-7.293100000,112.736100000,BCA
"INDOMARET KARANG PLOSO MALANG JL. RAYA BUKIT TIDAR, MALANG",-7.893700000,112.595900000,BCA
RKZ SURABAYA JL. DIPONEGORO NO. 51,-7.291900000,112.736600000,BCA
"EBC PASAR ATUM MALL II CRM 7 JL STASIUN KOTA 7A, PASAR ATUM MALL LANTAI 1 NO A86 SURABAYA",-7.243580000,112.745127000,BCA
"EBC PASAR ATUM MALL II CRM 8 JL STASIUN KOTA 7A, PASAR ATUM MALL LANTAI 1 NO A86 SURABAYA",-7.243580000,112.745127000,BCA
"EBC PASAR ATUM MALL II CRM 10 JL STASIUN KOTA 7A, PASAR ATUM MALL LANTAI 1 NO A86 SURABAYA",-7.243580000,112.745127000,BCA
"EBC PASAR ATUM MALL II CRM 11 JL STASIUN KOTA 7A, PASAR ATUM MALL LANTAI 1 NO A86 SURABAYA",-7.243580000,112.745127000,BCA
"EBC PASAR ATUM MALL II CRM 12 JL STASIUN KOTA 7A, PASAR ATUM MALL LANTAI 1 NO A8",-7.243580000,112.745127000,BCA
"ALFAMIDI TAMAN PINANG SIDOARJO II JL TAMAN PINANG INDAH BLOK E1 NO 1, SIDOARJO",-7.454000000,112.705200000,BCA
INDOMARET CONVINEANCE DIPONEGORO JL DIPONEGORO NO 41 SURABAYA,-7.291900000,112.736700000,BCA
ALFAMART BULOG JL. A. YANI NO. 146 - 148 SURABAYA,-7.327100000,112.730500000,BCA
INDOMARET UNDAAN KULON JL. UNDAAN KULON NO. 47 SURABAYA,-7.252000000,112.744200000,BCA
ROYAL PLAZA CRM 1 JL ACHMAD YANI NO 16-18 SURABAYA,-7.309100000,112.734100000,BCA
ROYAL PLAZA CRM 2 JL ACHMAD YANI NO 16-18 SURABAYA,-7.309100000,112.734100000,BCA
ROYAL PLAZA CRM 3 JL ACHMAD YANI NO 16-18 SURABAYA,-7.309100000,112.734100000,BCA
ROYAL PLAZA CRM 4 JL ACHMAD YANI NO 16-18 SURABAYA,-7.309100000,112.734100000,BCA
ROYAL PLAZA CRM 5 JL ACHMAD YANI NO 16-18 SURABAYA,-7.309100000,112.734100000,BCA
CIRCLE K GRAHADI JL. GUBERNUR SURYO NO. 142,-7.263400000,112.742300000,BCA
"RS BHAYANGKARA JL. AHMAD YANI, SURABAYA",-7.325100000,112.731200000,BCA
INDOMARET YANI JL. A. YANI 23-SURABAYA,-7.334800000,112.729400000,BCA
ALFAMIDI UNDAAN KULON CRM JL UNDAAN KULON NO 21 SURABAYA,-7.253800000,112.744100000,BCA
"A. YANI, SBY CRM 1 JL JEND ACHMAD YANI 208 - SURABAYA",-7.333654086,112.729878200,BCA
"A. YANI, SBY CRM 2 JL JEND ACHMAD YANI 208 - SURABAYA",-7.333654086,112.729878200,BCA
EBC GAYUNGSARI SBY CRM 1 JL GAYUNGSARI TIMUR GAYUNGAN SURABAYA 60235,-7.333654086,112.729878200,BCA
EBC GAYUNGSARI SBY CRM 2 JL GAYUNGSARI TIMUR GAYUNGAN SURABAYA 60235,-7.333654086,112.729878200,BCA
EBC GAYUNGSARI SBY CRM 3 JL GAYUNGSARI TIMUR GAYUNGAN SURABAYA 60235,-7.333654086,112.729878200,BCA
EBC GAYUNGSARI SBY CRM 4 JL GAYUNGSARI TIMUR GAYUNGAN SURABAYA 60235,-7.333654086,112.729878200,BCA
EBC GAYUNGSARI SBY CRM 5 JL GAYUNGSARI TIMUR GAYUNGAN SURABAYA 60235,-7.333654086,112.729878200,BCA
EBC GAYUNGSARI SBY CRM 6 JL GAYUNGSARI TIMUR GAYUNGAN SURABAYA 60235,-7.333654086,112.729878200,BCA
EBC GAYUNGSARI SBY CRM 7 JL GAYUNGSARI TIMUR GAYUNGAN SURABAYA 60235,-7.333654086,112.729878200,BCA
"CARREFOUR ITC MEGA GROSIR JL. GEMBONG NO. 20 - 30, SURABAYA",-7.241100000,112.746500000,BCA
EBC CITY OF TOMMOROW CRM 2 JL A YANI 28 SURABAYA,-7.344878000,112.727844000,BCA
EBC CITY OF TOMMOROW CRM 3 JL A YANI 28 SURABAYA,-7.344878000,112.727844000,BCA
EBC CITY OF TOMMOROW CRM 4 JL A YANI 28 SURABAYA,-7.344878000,112.727844000,BCA
EBC CITY OF TOMMOROW CRM 1 JL A YANI 28 SURABAYA,-7.344878000,112.727844000,BCA
INDOMARET LETJEN SUTOYO 64 SIDOARJO JL RAYA LETJEN SUTOYO NO. 64 SIDOARJO,-7.354900000,112.726000000,BCA
GRAHA PENA JL. A. YANI NO. 88 SURABAYA,-7.319900000,112.732700000,BCA
INDOMARET BASUKI RAHMAD 88 SURABAYA JL RAYA BASUKI RAHMAD NO. 88 EMBONG KALIASIN GENTENG SURABAYA,-7.270100000,112.741700000,BCA
"MEGA GROSIR SURABAYA CRM 1 ITCBLOK H 2 NO 6-7-8, JL GEMBONG NO 20-30SBY",-7.242641200,112.746529500,BCA
"MEGA GROSIR SURABAYA CRM 2 ITCBLOK H 2 NO 6-7-8, JL GEMBONG NO 20-30SBY",-7.242641200,112.746529500,BCA
"MEGA GROSIR SURABAYA CRM 3 ITCBLOK H 2 NO 6-7-8, JL GEMBONG NO 20-30SBY",-7.242641200,112.746529500,BCA
"MEGA GROSIR SURABAYA CRM 4 ITCBLOK H 2 NO 6-7-8, JL GEMBONG NO 20-30SBY",-7.242641200,112.746529500,BCA
"MAKRO PEPELEGI CRM 1 JLPEPELEGI PERMAI, WARU SIDOARJO",-7.365783100,112.724115300,BCA
"MAKRO PEPELEGI CRM 2 JLPEPELEGI PERMAI, WARU SIDOARJO",-7.365783100,112.724115300,BCA
INDOMARET A YANI 3 SBY JL FRONTAGE AHMAD YANI SIWALANKERTO 261 SBY,-7.337600000,112.729500000,BCA
"INDOMARET AHMAD YANI II JL. AHMAD YANI NO. 229-231, SURABAYA",-7.335600000,112.729900000,BCA
KAPASAN CRM 1 JL KAPASAN 155 - SURABAYA - 60141,-7.239482694,112.747159100,BCA
KAPASAN CRM 2 JL KAPASAN 155 - SURABAYA - 60141,-7.239482694,112.747159100,BCA
KAPASAN CRM 3 JL KAPASAN 155 - SURABAYA - 60141,-7.239482694,112.747159100,BCA
INDOMARET WONOSARI LOR JL. WONOSARI LOR NO. 62 SURABAYA,-7.221010000,112.750302000,BCA
"INDOMARET TANGGULANGIN KLUDAN SIDOARJO JL KLUDAN RT2/3, TANGGULANGIN, SIDOARJO",-7.498400000,112.697100000,BCA
INDOMARET WONOSARI LOR II SURABAYA JL WONOSARI LOR NO 88 SEMAMPIR SURABAYA,-7.217800000,112.750900000,BCA
"ADI HUSADA RS ADI HUSADA, JL. UNDAAN",-7.251630000,112.745200000,BCA
ALFAMART JAGALAN JL JAGALAN NO 24 SURABAYA,-7.248000000,112.745900000,BCA
RS DARMO JL. RAYA DARMO SURABAYA,-7.286800000,112.739100000,BCA
"LOTTEMART SIDOARDJO JL. RAYA PEPELEGI INDAH KAV. 4, GEDANGAN",-7.367859500,112.724244800,BCA
INDOMARET A YANI FRONTAGE (T3RX) SURABAYA JL A YANI FRONTAGE SURABAYA,-7.336300000,112.730300000,BCA
INDOMARET A YANI FRONTAGE 127 JL A YANI FRONTAGE NO 127 JEMUR WONOSARI WONOCOLO SURABAYA,-7.325700000,112.732400000,BCA
ALFAMIDI SIDOKARE JL KAPASAN SIDOKARE ASRI NO 102 SIDOARJO,-7.459300000,112.706200000,BCA
PETRA EMBONG WUNGU JL. EMBONG WUNGU SURABAYA,-7.266000000,112.743400000,BCA
"INDOMARET SARINADE SIDOARJO JL WISMA SARINADE BLOK Q/17A, SIDOARJO",-7.446548000,112.708891000,BCA
UNDAAN CRM 1 JL UNDAAN WETAN 46 F - SURABAYA,-7.250338621,112.746166400,BCA
UNDAAN CRM 2 JL UNDAAN WETAN 46 F - SURABAYA,-7.250338621,112.746166400,BCA
UNDAAN CRM 3 JL UNDAAN WETAN 46 F - SURABAYA,-7.250338621,112.746166400,BCA
INDOMARET POINT DARMO 83 JL RAYA DARMO NO 83 SURABAYA,-7.287600000,112.739700000,BCA
INDOMARET PEPELEGI SDA CRM 1 JL RAYA PEPELEGI 24 SIDOARJO,-7.367151000,112.724900000,BCA
FAJAR FARMATAMA JL JEMUR ANDAYANI II/1 SURABAYA,-7.331400000,112.731700000,BCA
DARMO CRM 6 JL RAYA DARMO 5 SURABAYA,-7.278508190,112.741386900,BCA
UNIVERSITAS WIDYA MANDARA CRM GEDUNG SERBAGUNAJL DINOYO NO 42-44,-7.278508190,112.741386900,BCA
DARMO CRM 5 JL RAYA DARMO 5 SURABAYA,-7.278508190,112.741386900,BCA
DARMO CRM 1 JL RAYA DARMO 5 SURABAYA,-7.278508190,112.741386900,BCA
DARMO CRM 2 JL RAYA DARMO 5 SURABAYA,-7.278508190,112.741386900,BCA
DARMO CRM 3 JL RAYA DARMO 5 SURABAYA,-7.278508190,112.741386900,BCA
DARMO CRM 4 JL RAYA DARMO 5 SURABAYA,-7.278508190,112.741386900,BCA
AMBENGAN CRM 1 PERT AMBENGAN PLAZA JL NGEMPLAK 30 BLOKA15 SBY,-7.278508190,112.741386900,BCA
INDOMARET PENGAMPON SURABAYA JL PENGAMPON NO 89 SURABAYA,-7.245900000,112.747100000,BCA
ALFAMART BASUKI RAHMAT SBY JL BASUKI RAHMAT NO 174-176 TEGALSARI SURABAYA,-7.273500000,112.742400000,BCA
MOBILE ATM SURABAYA 1 JL RAYA SUKOREJO NO 1 SUKOREJO,-7.278274355,112.741640100,BCA
MOBILE ATM SURABAYA 2 JL RAYA SUKOREJO NO 1 SUKOREJO,-7.278274355,112.741640100,BCA
MOBILE ATM SURABAYA CRM 2 JL RAYA SUKOREJO NO 1 SUKOREJO,-7.278274355,112.741640100,BCA
MOBILE ATM SURABAYA CRM 1 JL RAYA SUKOREJO NO 1 SUKOREJO,-7.278274355,112.741640100,BCA
"DARMO TRADE CENTER CRM 1 DARMO TRADE CENTER, JL RAYA WONOKROMO, SURABAYA",-7.301860000,112.737613000,BCA
"DARMO TRADE CENTER 1 DARMO TRADE CENTER, JL RAYA WONOKROMO, SURABAYA",-7.301860000,112.737613000,BCA
DARMO CRM 7 JL RAYA DARMO 5 SURABAYA,-7.278399600,112.741826300,BCA
"ALFAMIDI SUGIHWARAS SIDOARJO JL SUGIHWARAS NO 29, SUGIHWARAS, CANDI, SIDOARJO",-7.477500000,112.703100000,BCA
INDOMARET LETJEN SOETOYO SIDOARJO (TY7C) JL LETNAN SOETOYO NO 15 WARU SIDOARJO,-7.355600000,112.727900000,BCA
SPBU 54.601.104 AMBENGAN CRM 1 JL AMBENGAN 16 SURABAYA,-7.256000000,112.746400000,BCA
ALFAMART RAYA SUKODONO CRM 1 JL RAYA SUKODONO NO 45 SIDOARJO,-7.391000000,112.721400000,BCA
ALFAMART RAYA SUKODONO CRM 2 JL RAYA SUKODONO NO 45 SIDOARJO,-7.391000000,112.721400000,BCA
INDOMARET PAHLAWAN II SIDOARJO (TH25 ) JL PAHLAWAN NO 96 SIDOARJO,-7.449700000,112.709600000,BCA
"MASPION SQUARE JL. AHMAD YANI NO. 73, SURABAYA",-7.316000000,112.736000000,BCA
INDOMARET SIDODADI BARU JL. SIDODADI NO. 25 SURABAYA,-7.235935000,112.750300000,BCA
"INDOMARET WONOKUSUMO III SURABAYA JL WONOKUSUMO NO 64-66, SURABAYA",-7.223600000,112.752500000,BCA
SMA PETRA KALIANYAR JL. KALIANYAR NO. 43 SURABAYA,-7.248700000,112.748300000,BCA
SHELL WARU SIDOARJO JL RY ALOHA 1 DUSUN SAWOTRATAP GEDANGAN SIDOARJO,-7.369644400,112.726313400,BCA
TRANSMART SIDOARJO JL MAYJEN SUNGKONO PAGERWEJO BUDUDURAN SIDOARJO,-7.439769100,112.712629200,BCA
CIRCLE K WARU SIDOARJO JL WARU NO 44 SIDOARJO,-7.359300000,112.728800000,BCA
INDOMARET DARMO KALI SURABAYA JL DARMO KALI NO 70 SURABAYA,-7.295774000,112.740792000,BCA
INDOMARET DOHO JL DOHO NO 55 KELURAHAN KEPUTRAN KECAMATAN TEGALSARI SURABAYA,-7.284300000,112.742900000,BCA
MARGOREJO CRM 1 JL RAYA MARGOREJO INDAH 10-11 SURABAYA,-7.317249730,112.737161500,BCA
MARGOREJO CRM 2 JL RAYA MARGOREJO INDAH 10-11 SURABAYA,-7.317249730,112.737161500,BCA
INDOMARET RAYA MARGOREJO II JL RAYA MARGOREJO NO 18 B SURABAYA,-7.316700000,112.737300000,BCA
UNIV. MUHAMADYAH 1 JL. RAYA TLOGOMAS NO. 246 MALANG,-7.920600000,112.593500000,BCA
UNIV. MUHAMADYAH 2 JL. RAYA TLOGOMAS NO. 246 MALANG,-7.920600000,112.593500000,BCA
SUNCITY SIDOARJO CRM 1 JL PAHLAWAN-RUKO SUNCITY MAL B/30-31 SIDOARJO,-7.449778309,112.711405100,BCA
SUNCITY SIDOARJO CRM 2 JL PAHLAWAN-RUKO SUNCITY MAL B/30-31 SIDOARJO,-7.449778309,112.711405100,BCA
SUNCITY SIDOARJO CRM 3 JL PAHLAWAN-RUKO SUNCITY MAL B/30-31 SIDOARJO,-7.449778309,112.711405100,BCA
RS INT MITRA KELUARGA SIDOARJO CRM 1 JL. RAYA WARU SIDOARJO,-7.362773000,112.728800000,BCA
INDOMARET WONOKUSUMO II JL. WONOKUSUMO NO. 92-94 SURABAYA,-7.224000000,112.753800000,BCA
"INDOMARET HYBRID TENGGULUNAN SIDOARJO JL RAYA TENGGULUNAN, TENGGULUNAN, CANDI SIDOARJO",-7.468260000,112.707648000,BCA
INDOMARET POINT CONVENIENCE MOJOPAHIT SBY JL MOJOPAHIT NO 01 KEPUTIHAN TEGALSARI SBY,-7.281100000,112.744100000,BCA
PT MUNTJUL DIAMOND CRM 1 JL KESATRIA NO 18 BUDURAN SIDOARJO,-7.427935000,112.716113000,BCA
INDOMARET SIMOKERTO JL. SIDOTOPO LOR NO.50 SIMOKERTO - SURABAYA,-7.231100000,112.752900000,BCA
INDOMARET S. PARMAN WARU SIDOARJO CRM 1 JL JEND S PARMAN NO 16 WARU SIDOARJO,-7.362119000,112.729252000,BCA
"UNIVERSITAS WIDYA MANDALA JL. DINOYO NO. 44, SURABAYA",-7.281407000,112.744327000,BCA
INDOMARET KUSUMA BANGSA JL KUSUMA BANGSA NO 49 SURABAYA,-7.252600000,112.749400000,BCA
"ALFAMIDI SIWALAN KERTO CRM 1 JL SIWALANKERTO NO 150, RT 04, SIWALANKERTO, WONOC",-7.339401000,112.733784000,BCA
"GIANT WARU JL. WARU NO. 2, SIDOARJO",-7.366337000,112.728680000,BCA
"ALFAMIDI BHAYANGKARI PORONG SIDOARJO JL BHAYANGKARI NO 198, PORONG, SIDOARJO",-7.540400000,112.692500000,BCA
DELTA PLAZA CRM 1 LANTAI 1 JL PEMUDA NO 31-37 SURABAYA,-7.262700500,112.747792200,BCA
CIRCLE K DEMIRA HOTEL SURABAYA JL SUMATRA NO 92A GUBENG SURABAYA,-7.273700000,112.745900000,BCA
ALFAMART TENGGULUNGAN SIDOARJO JL DURIAN NO 19 CANDI - SIDOARJO,-7.469000000,112.708100000,BCA
"EBC WORLD TRADE CENTER CRM 4 JL PEMUDA NO 27-31, SURABAYA",-7.263100000,112.747800000,BCA
"EBC WORLD TRADE CENTER CRM 3 JL PEMUDA NO 27-31, SURABAYA",-7.263100000,112.747800000,BCA
"EBC WORLD TRADE CENTER CRM 1 JL PEMUDA NO 27-31, SURABAYA",-7.263100000,112.747800000,BCA
"EBC WORLD TRADE CENTER CRM 2 JL PEMUDA NO 27-31, SURABAYA",-7.263100000,112.747800000,BCA
"INDOMARET SULAWESI SURABAYA JL SULAWESI NO 01, SURABAYA",-7.277300000,112.745400000,BCA
"KAPASARI, SBY CRM JL KAPASARI 81 - SURABAYA - 60141",-7.245051541,112.751028100,BCA
PETRA JEMUR ANDAYANI JL. MANYAR TIRTOSARI,-7.329700000,112.735900000,BCA
KUSUMA BANGSA CRM 1 JL KUSUMABANGSA 37 - SURABAYA - 60272,-7.253623819,112.749681700,BCA
KUSUMA BANGSA CRM 2 JL KUSUMABANGSA 37 - SURABAYA - 60272,-7.253623819,112.749681700,BCA
KUSUMA BANGSA CRM 3 JL KUSUMABANGSA 37 - SURABAYA - 60272,-7.253623819,112.749681700,BCA
KUSUMA BANGSA CRM 4 JL KUSUMABANGSA 37 - SURABAYA - 60272,-7.253623819,112.749681700,BCA
KUSUMA BANGSA CRM 5 JL KUSUMABANGSA 37 - SURABAYA - 60272,-7.253623819,112.749681700,BCA
"ALFAMIDI KUTUK BARAT SIDOARJO JL KUTUK BARAT NO 353A, SIDOKARE, SIDOARJO",-7.459300000,112.710400000,BCA
INDOMARET SIWALAKERTO CRM 1 JL SIWALAKERTO NO 101 SURABAYA,-7.339162000,112.734348000,BCA
"TRANSMART NGAGEL SURABAYA JL NGAGEL RAYA NO 137-141, SURABAYA",-7.290700000,112.743300000,BCA
ADHI HUSADA KAPASARI JL. KAPASARI 97-101 SURABAYA,-7.242500000,112.751800000,BCA
"RS BUDI MULIA JL. RAYA GUBENG 70, SURABAYA",-7.273900000,112.746400000,BCA
INDOMARET MAYJEN SUNGKONO SIDOARJO JL MAYJEND SUNGKONO SIDOARJO,-7.441800000,112.714300000,BCA
ALFAMART KUSUMA BANGSA JL KUSUMA BANGSA NO 108 SURABAYA,-7.253800000,112.750100000,BCA
CIRCLE K JEMUR ANDAYANI SBY JL JEMUR ANDAYANI NO 15 SURABAYA,-7.327800000,112.736900000,BCA
"EBC PLAZA SURABAYA CRM 1 JL PEMUDA 33-37, LT 3, NO 3 A, SURABAYA",-7.264200000,112.748400000,BCA
"EBC PLAZA SURABAYA CRM 2 JL PEMUDA 33-37, LT 3, NO 3 A, SURABAYA",-7.264200000,112.748400000,BCA
"EBC PLAZA SURABAYA CRM 3 JL PEMUDA 33-37, LT 3, NO 3 A, SURABAYA",-7.264200000,112.748400000,BCA
"EBC PLAZA SURABAYA CRM 4 JL PEMUDA 33-37, LT 3, NO 3 A, SURABAYA",-7.264200000,112.748400000,BCA
"EBC PLAZA SURABAYA CRM 5 JL PEMUDA 33-37, LT 3, NO 3 A, SURABAYA",-7.264200000,112.748400000,BCA
INDOMARET KAPASAN CRM 1 JL KAPASAN NO 45 SURABAYA,-7.243400000,112.752000000,BCA
INDOMARET KAPASAN JL KAPASAN NO 45 SURABAYA,-7.243400000,112.752000000,BCA
TOKO ROTI SUZANA JL. DINOYO NO. 146 SURABAYA,-7.287400000,112.744300000,BCA
TOKO ROTI SUZANA CRM 1 JL DINOYO NO 146-148 SURABAYA,-7.287400000,112.744300000,BCA
INDOMARET RAYA MARGOREJO JL RAYA MARGOREJO NO 02 WONOCOLO SURABAYA,-7.317400000,112.738900000,BCA
SPBU SULAWESI JL SULAWESI NO 8 SURABAYA,-7.277000000,112.746300000,BCA
"INDOMARET RAYA NGAGEL 209 SURABAYA JL RAYA NGAGEL NO 209, SURABAYA",-7.299325000,112.742430000,BCA
"PORONG CRM 1 JL BHAYANGKARI JUWET KENONGO PORONG, SIDOARJO",-7.540387245,112.693748400,BCA
"PORONG CRM 2 JL BHAYANGKARI JUWET KENONGO PORONG, SIDOARJO",-7.540387245,112.693748400,BCA
"PORONG CRM 3 JL BHAYANGKARI JUWET KENONGO PORONG, SIDOARJO",-7.540387245,112.693748400,BCA
"PORONG CRM 4 JL BHAYANGKARI JUWET KENONGO PORONG, SIDOARJO",-7.540387245,112.693748400,BCA
INDOMARET RAYA GUBENG 64 JL RAYA GUBENG 64 KEL GUBENG KEC GUBENG SURABAYA,-7.273300000,112.747300000,BCA
CIRCLE K KAYUN SUB0105 SURABAYA JL KAYOON NO 26A RT/RW 02/05 SURABAYA,-7.268400000,112.748200000,BCA
INDOMARET SIMOKERTO SURABAYA JL SIMOKERTO NO 29-33 SURABAYA,-7.239400000,112.753300000,BCA
INDOMARET SUMORAME SIDOARJO JL SUMORAME RT 02 RW 04 SIDOARJO,-7.492900000,112.704500000,BCA
"INDOMARET DINOYO SURABAYA JL DINOYO NO 92,KEPUTRAN, TEGALSARI, SURABAYA",-7.284700000,112.745700000,BCA
INDOMARET NGAGEL JL NGAGEL 75 PUCANG SEWU SURABAYA,-7.280500000,112.746500000,BCA
EBC GRAND CITY II CRM 7 JL GUBENG POJOK 1 SURABAYA,-7.262290000,112.749890000,BCA
EBC GRAND CITY II CRM 8 JL GUBENG POJOK 1 SURABAYA,-7.262290000,112.749890000,BCA
