address,latitude,longitude,Bank
"MRT BUNDARAN HOTEL INDONESIA 1 GONDANGDIA, KEC MENTENG, JAKARTA PUSAT",-6.191577000,106.823058000,BCA
"PLAZA INDONESIA CRM 1 JL MH THAMRIN, JAKARTA PUSAT",-6.193526000,106.821965000,BCA
"PLAZA INDONESIA CRM 2 JL MH THAMRIN, JAKARTA PUSAT",-6.193526000,106.821965000,BCA
"PLAZA INDONESIA CRM 3 JL MH THAMRIN, JAKARTA PUSAT",-6.193526000,106.821965000,BCA
"PLAZA INDONESIA CRM 4 JL MH THAMRIN, JAKARTA PUSAT",-6.193526000,106.821965000,BCA
"PLAZA INDONESIA CRM 5 JL MH THAMRIN, JAKARTA PUSAT",-6.193526000,106.821965000,BCA
"MENARA THAMRIN 1 JL. MH. THAMRIN KAV. 3, JAKARTA 10250",-6.192000000,106.820600000,BCA
"MENARA THAMRIN 2 JL. MH. THAMRIN KAV. 3, JAKARTA 10250",-6.192000000,106.820600000,BCA
INDOMARET KEBON KACANG 30 2 JL KEBON KACANG 30 NO 19 JAKARTA PUSAT,-6.193700000,106.820600000,BCA
INDOMARET KEBON KACANG IX JL KEBON KACANG IX NO 59 KEBON KACANG TANAH ABANG JAKARTA PUSAT,-6.192400000,106.818700000,BCA
"MAL GRAND INDONESIA CRM 5 GI MAL A LOWER GROUND 20-21, JL MH THAMRIN",-6.195587400,106.820459300,BCA
"MAL GRAND INDONESIA CRM 2 GI MAL A LOWER GROUND 20-21, JL MH THAMRIN",-6.195587400,106.820459300,BCA
"MAL GRAND INDONESIA CRM 3 GI MAL A LOWER GROUND 20-21, JL MH THAMRIN",-6.195587400,106.820459300,BCA
"MAL GRAND INDONESIA CRM 4 GI MAL A LOWER GROUND 20-21, JL MH THAMRIN",-6.195587400,106.820459300,BCA
"MAL GRAND INDONESIA CRM 6 GI MAL A LOWER GROUND 20-21, JL MH THAMRIN",-6.195587400,106.820459300,BCA
"MAL GRAND INDONESIA CRM 1 GI MAL A LOWER GROUND 20-21, JL MH THAMRIN",-6.195587400,106.820459300,BCA
KEDUTAAN JERMAN JAKARTA JL MH THAMRIN 1 JAKPUS,-6.196500000,106.822900000,BCA
SARINAH THAMRIN CRM 1 JL. M.H. THAMRIN 11- JAKARTA - 10350,-6.187100000,106.824100000,BCA
"PLAZA INDEX CRM 2 GEDUNG PLAZA BANK INDEX GF21, JL MH THAMRIN NO 57",-6.197111300,106.822799900,BCA
"PLAZA INDEX CRM 1 GEDUNG PLAZA BANK INDEX GF21, JL MH THAMRIN NO 57 JAKARTA",-6.197111300,106.822799900,BCA
THAMRIN CITY CRM 1 JL MH THAMRIN BOULEVARD JAKARTA PUSAT,-6.197111300,106.822799900,BCA
THAMRIN CITY CRM 2 JL MH THAMRIN BOULEVARD JAKARTA PUSAT,-6.197111300,106.822799900,BCA
THAMRIN CITY CRM 3 JL MH THAMRIN BOULEVARD JAKARTA PUSAT,-6.197111300,106.822799900,BCA
THAMRIN CRM 2 GED MENARA BCA GI JL MH THAMRIN NO1 JAKARTA,-6.197111300,106.822799900,BCA
"MENARA BCA LT 18 GEDUNG MENARA BCA GRAND INDONESIA LT 18, JL. MH THAMRIN NO.1 JAKARTA 10310",-6.197111300,106.822799900,BCA
THAMRIN CRM 1 GED MENARA BCA GI JL MH THAMRIN NO1 JAKARTA,-6.197111300,106.822799900,BCA
THAMRIN 1 GED MENARA BCA GI JL MH THAMRIN NO1 JAKARTA,-6.197111300,106.822799900,BCA
THAMRIN 2 GED MENARA BCA GI JL MH THAMRIN NO1 JAKARTA,-6.197111300,106.822799900,BCA
SABANG CRM 1 JL H AGUS SALIM 57 B - JAKARTA,-6.186537000,106.825284000,BCA
SABANG CRM 2 JL H AGUS SALIM 57 B - JAKARTA,-6.186537000,106.825284000,BCA
INDOMARET KEBON KACANG II ( T24 B ) JAKPUS JL RAYA KEBON KACANG NO 21 KEBON KACANG TANAH ABANG JAKARTA PUSAT,-6.194500000,106.817700000,BCA
THAMRIN CRM 3 GED MENARA BCA GI JL MH THAMRIN NO1 JAKARTA,-6.197580000,106.822285000,BCA
THAMRIN CRM 4 GED MENARA BCA GI JL MH THAMRIN NO1 JAKARTA,-6.197580000,106.822285000,BCA
THAMRIN CRM 5 GED MENARA BCA GI JL MH THAMRIN NO1 JAKARTA,-6.197580000,106.822285000,BCA
"GEDUNG M@COKRO 49 1 JL HOS COKROAMINOTO NO 49, KELURAHAN GONDANGDIA, KECAMATAN MENTENG, JAKARTA PUSAT",-6.192200000,106.829000000,BCA
"INDOMARET WAHID HASYIM JL. KH. WAHID HASYIM 200, JAKARTA 10340",-6.187300000,106.818200000,BCA
APARTEMEN THAMRIN RESIDENCE JL. KEBON KACANG RAYA TANAH ABANG JAKPUS,-6.196914000,106.818254000,BCA
INDOMARET AGUS SALIM 32 (TO73) CRM JL HAJI AGUS SALIM NO 32,-6.184775000,106.822474300,BCA
WAHID HASYIM KCP CRM 1 JL KH WAHID HASYIM 177 D - JAKARTA - 10350,-6.186814000,106.827869000,BCA
WAHID HASYIM KCP CRM 2 JL KH WAHID HASYIM 177 D - JAKARTA - 10350,-6.186814000,106.827869000,BCA
WAHID HASYIM KCP CRM 3 JL KH WAHID HASYIM 177 D - JAKARTA - 10350,-6.186814000,106.827869000,BCA
WAHID HASYIM KCP CRM 4 JL KH WAHID HASYIM 177 D - JAKARTA - 10350,-6.186814000,106.827869000,BCA
THAMRIN CITY CRM 1 JL MH THAMRIN BOULEVARD - D/H KEBON KACANG RY,-6.193375000,106.815948000,BCA
THAMRIN CITY CRM 2 JL MH THAMRIN BOULEVARD - D/H KEBON KACANG RY,-6.193375000,106.815948000,BCA
THAMRIN CITY CRM 3 JL MH THAMRIN BOULEVARD - D/H KEBON KACANG RY,-6.193375000,106.815948000,BCA
THAMRIN CITY CRM 4 JL MH THAMRIN BOULEVARD - D/H KEBON KACANG RY,-6.193375000,106.815948000,BCA
FAMILYMART THAMRIN RESIDENCE JL KEBON KACANG TANAH ABANG JAKARTA PUSAT,-6.196849000,106.817510000,BCA
"CITY TOWER CRM 1 GED THE CITY TOWER, JL MH THAMRIN NO 81 JKT",-6.199065000,106.823598000,BCA
"CITY TOWER CRM 2 GED THE CITY TOWER, JL MH THAMRIN NO 81 JKT",-6.199065000,106.823598000,BCA
"CITY TOWER CRM 3 GED THE CITY TOWER, JL MH THAMRIN NO 81 JKT",-6.199065000,106.823598000,BCA
"MENARA THAMRIN CRM JL MH THAMRIN KAV 3, JAKARTA 10250",-6.199065000,106.823598000,BCA
PASAR TANAH ABANG BLOK B LANTAI LG CRM 1 PASAR TANAH ABANG BLOK B LANTAI G JAKARTA,-6.187387000,106.816771000,BCA
"TANAH ABANG BLOK A CRM 1 PASAR TANAH ABANG BLOK A, JAKARTA PUSAT",-6.187387000,106.816771000,BCA
"TANAH ABANG BLOK A CRM 2 PASAR TANAH ABANG BLOK A, JAKARTA PUSAT",-6.187387000,106.816771000,BCA
"TANAH ABANG BLOK A CRM 3 PASAR TANAH ABANG BLOK A, JAKARTA PUSAT",-6.187387000,106.816771000,BCA
METRO TANAH ABANG LT LG CRM 2 PUSAT GROSIR METRO TANAH ABANG LT LG BLOK A,-6.187387000,106.816771000,BCA
"TANAH ABANG BLOK B CRM 5 TANAH ABANG BLOK B, JL KH FACHRUDIN",-6.187387000,106.816771000,BCA
"WAHID HASYIM CRM 2 JL KH WAHID HASYIM 183 A-B, JAKARTA PUSAT",-6.187387000,106.816771000,BCA
"WAHID HASYIM CRM 3 JL KH WAHID HASYIM 183 A-B, JAKARTA PUSAT",-6.187387000,106.816771000,BCA
"WAHID HASYIM CRM 4 JL KH WAHID HASYIM 183 A-B, JAKARTA PUSAT",-6.187387000,106.816771000,BCA
INDOMARET THAMRIN RESIDENCES II JL KEBON KACANG RAYA TANAH ABANG JAKPUS,-6.197273000,106.817710000,BCA
"THAMRIN NINE CRM 1 THAMRIN NINE, JL MH THAMRIN NO 10, JAKARTA",-6.199432000,106.822763000,BCA
"THAMRIN NINE CRM 2 THAMRIN NINE, JL MH THAMRIN NO 10, JAKARTA",-6.199432000,106.822763000,BCA
"THAMRIN NINE CRM 3 THAMRIN NINE, JL MH THAMRIN NO 10, JAKARTA",-6.199432000,106.822763000,BCA
"THAMRIN NINE CRM 4 THAMRIN NINE, JL MH THAMRIN NO 10, JAKARTA",-6.199432000,106.822763000,BCA
"MENTENG CRM 1 JL HOS COKROAMINOTO NO 83, RT 03 RW 05, KEL MENTENG KEC MENTENG, JAKARTA PUSAT",-6.197455000,106.828705000,BCA
"MENTENG CRM 2 JL HOS COKROAMINOTO NO 83, RT 03 RW 05, KEL MENTENG KEC MENTENG, JAKARTA PUSAT",-6.197455000,106.828705000,BCA
"MENTENG CRM 3 JL HOS COKROAMINOTO NO 83, RT 03 RW 05, KEL MENTENG KEC MENTENG, JAKARTA PUSAT",-6.197455000,106.828705000,BCA
METRO TANAH ABANG 2 JEMBATAN METRO TANAH ABANG LT 3 NO 2 JAKPUS,-6.188122000,106.815246000,BCA
METRO TANAH ABANG 1 JEMBATAN METRO TANAH ABANG LT 3 NO 2 JAKPUS,-6.188122000,106.815246000,BCA
METRO TANAH ABANG LT LG CRM 1 PUSAT GROSIR METRO TANAH ABANG LT LG BLOK A,-6.188100000,106.815200000,BCA
"WISMA PENTA KEBON SIRIH CRM 1 JL KEBON SIRIH NO 65, RT 4/RW 2, KEBON SIRIH, KEC MENTENG JAKARTA PUSAT",-6.183409800,106.824568800,BCA
ALFAMART KEBON SIRIH JL TAMAN KEBON SIRIH III NO 5A K JAK-PUS,-6.183800000,106.819700000,BCA
INDOMARET MAS MANSYUR II JL KH MAS MANSYUR NO 39 C - D TANAH ABANG KEL KEBON MELATI KEC TANAH ABANG JAKARTA PUSAT,-6.194496000,106.814589000,BCA
INDOMARET LONTAR ATAS ( T09D ) JAKARTA PUSAT JL LONTAR ATAS NO 108 KEBON MELATITNH ABANG,-6.192500000,106.814100000,BCA
CIRCLE K JAK0108 WAHID HASYIM II CRM 1 JL KH WAHID HASYIM NO 56 JAKPUS,-6.187000000,106.830300000,BCA
ALFAMART LONTAR RAYA JL LONTAR KEBON KACANG TANAH ABANG JAKPUS,-6.192510000,106.813926000,BCA
"MRT DUKUH ATAS 1 KB MELATI, TANAHABANG, KOTA JAKARTA PUSAT",-6.200738000,106.822811000,BCA
"PASAR REGIONAL TANAH ABANG PASAR TANAH ABANG BLOK A, JAKARTA PUSAT 10240",-6.187323000,106.814862000,BCA
"PASAR REGIONAL TANAH ABANG 2 PASAR TANAH ABANG BLOK A, JAKARTA PUSAT 10240",-6.187323000,106.814862000,BCA
"PASAR REGIONAL TANAH ABANG 3 PASAR TANAH ABANG BLOK A, JAKARTA PUSAT 10240",-6.187323000,106.814862000,BCA
"TANAH ABANG BLOK A - 1 PASAR TANAH ABANG BLOK A, JAKARTA PUSAT 10240",-6.187323000,106.814862000,BCA
"TANAH ABANG BLOK A - 2 PASAR TANAH ABANG BLOK A, JAKARTA PUSAT 10240",-6.187323000,106.814862000,BCA
METRO TANAH ABANG CRM 1 PASAR GROSIR METRO TANAH ABANG 2JAKARTA,-6.185772200,106.815876800,BCA
METRO TANAH ABANG CRM 2 PASAR GROSIR METRO TANAH ABANG 2JAKARTA,-6.185772200,106.815876800,BCA
METRO TANAH ABANG CRM 3 PASAR GROSIR METRO TANAH ABANG 2JAKARTA,-6.185772200,106.815876800,BCA
METRO TANAH ABANG CRM 4 PASAR GROSIR METRO TANAH ABANG 2JAKARTA,-6.185772200,106.815876800,BCA
"TANAH ABANG ZONA 3 CRM 1 JL K H FACHRUDIN/ WAHID HASYIM, TN ABANG, JKT",-6.186590000,106.815150000,BCA
"TANAH ABANG ZONA 3 CRM 2 JL K H FACHRUDIN/ WAHID HASYIM, TN ABANG, JKT",-6.186590000,106.815150000,BCA
"TANAH ABANG BLOK B CRM 1 TANAH ABANG BLOK B, JL KH FACHRUDIN",-6.187751000,106.814456000,BCA
"TANAH ABANG BLOK B CRM 2 TANAH ABANG BLOK B, JL KH FACHRUDIN",-6.187751000,106.814456000,BCA
"TANAH ABANG BLOK B CRM 3 TANAH ABANG BLOK B, JL KH FACHRUDIN",-6.187751000,106.814456000,BCA
"TANAH ABANG BLOK B CRM 4 TANAH ABANG BLOK B, JL KH FACHRUDIN",-6.187751000,106.814456000,BCA
ALFAMART MARTAPURA JAKARTA PUSAT CRM JL MARTAPURA NO 6A RT 10/02 KEBON MELATI TANAH ABA,-6.200500000,106.819900000,BCA
"INDOMARET GUNTUR 42 1 JL GUNTUR NO 42, JAKARTA SELATAN",-6.200500000,106.819900000,BCA
INDOMARET JALAN JAKSA JL. JAKSA JAKARTA PUSAT,-6.184721000,106.829297500,BCA
"CERIAMART JATI BUNDER JAKARTA PUSAT JL JATI BUNDER JEMBATAN TINGGI NO 9, KEBON KACANG, JAKARTA PUSAT",-6.188700000,106.813700000,BCA
TANAH ABANG CRM 1 JL KH FACHRUDIN 36 BLOK D/23 - JAKARTA,-6.185926000,106.815121000,BCA
TANAH ABANG CRM 2 JL KH FACHRUDIN 36 BLOK D/23 - JAKARTA,-6.185926000,106.815121000,BCA
TANAH ABANG CRM 3 JL KH FACHRUDIN 36 BLOK D/23 - JAKARTA,-6.185926000,106.815121000,BCA
"CRM BANK INDONESIA JAKARTA 1 GEDUNG BI, JL MH THAMRIN NO 2, JAKPUS",-6.182100000,106.821400000,BCA
TANAH ABANG BLOK F CRM 1 JL PSR REGIONAL TANAH ABANG BLOK F/31 LOS AKS,-6.188258000,106.813658000,BCA
TANAH ABANG BLOK F CRM 2 JL PSR REGIONAL TANAH ABANG BLOK F/31 LOS AKS,-6.188258000,106.813658000,BCA
TANAH ABANG BLOK F CRM 3 JL PSR REGIONAL TANAH ABANG BLOK F/31 LOS AKS,-6.188258000,106.813658000,BCA
TANAH ABANG BLOK F CRM 4 JL PSR REGIONAL TANAH ABANG BLOK F/31 LOS AKS,-6.188258000,106.813658000,BCA
"GEDUNG TANAH ABANG CENTER JL. FACHRUDDIN, TANAH ABANG, JAKARTA PUSAT",-6.185894000,106.814937000,BCA
BANK CCBI TANAH ABANG JL KH FACHRUDIN BLOK C7 TANAH ABANG BUKIT JKT,-6.185300000,106.815000000,BCA
"STASIUN RAILINK SUDIRMAN BARU ( BNI CITY ) JL TANJUNG KARANG RT 13/04, KEBON MELATI, TANAH ABANG, JAKARTA PUSAT",-6.201700000,106.820400000,BCA
"ALFAMIDI BLORA CRM 1 JL BLORA NO 24 RT 002/05, MENTENG, MENTENG, JAKPUS",-6.202000000,106.822700000,BCA
GEDUNG WISMA ANTARA JL MERDEKA SELATAN 17 JAKARTA PUSAT,-6.181436000,106.824051000,BCA
"INDOMARET JOHAR MENTENG JL JOHAN NO 6 C-D, JOHAR, JAKARTA PUSAT",-6.187005000,106.832161000,BCA
"OJK JAKARTA 1 JL MH THAMRIN NO2, RT2/RW3, GAMBIR, JAKARTA PUSAT",-6.181732700,106.819401500,BCA
"INDOMARET PLUS TAMAN KEBON SIRIH I JL KEBON SIRIH 1 NO 20, KAMPUNG BALI, TANAH ABANG, JAKARTA PUSAT",-6.182400000,106.817400000,BCA
PASAR GONDANGDIA 1 JL SRI KAYA RAYA KEL KEBON SIRIH KEC MENTENG JAKARTA PUSAT,-6.186700000,106.832500000,BCA
"APARTEMEN BOULEVARD JL. FACHRUDIN RAYA NO.5, JAKARTA PUSAT",-6.182108000,106.816459000,BCA
"GEDUNG INDOSAT JL. MEDAN MERDEKA BARAT NO. 21, JAKARTA PUSAT",-6.180200000,106.821400000,BCA
"ALFAMART AWALUDIN CRM 1 JL AWALUDIN II NO 8 RT01/RW17, KEBON MELATI, TANAH",-6.199291000,106.813932000,BCA
"GEDUNG SARANA JAYA JL. BUDI KEMULIAAN I/1, JAKARTA PUSAT 10110",-6.179600000,106.820400000,BCA
"RSIA BUDI KEMULIAAN JL. BUDI KEMULIAAN NO. 25, JAKARTA 10110",-6.179700000,106.819600000,BCA
"KOPERASI PEGAWAI BANK INDONESIA 1 JL KEBON SIRIH 82-84, JAKPUS",-6.179700000,106.819600000,BCA
KEBON SIRIH PLAZA PUPUK KALTIM CRM 1 PLAZA PUPUK KALTIM GEDUNG B LANTAI 1 JAKPUS,-6.182471000,106.831584000,BCA
KEBON SIRIH PLAZA PUPUK KALTIM CRM 2 PLAZA PUPUK KALTIM GEDUNG B LANTAI 1 JAKPUS,-6.182471000,106.831584000,BCA
SPBU SHELL MENTENG JL MENTENG RAYA NO 23-25,-6.185187000,106.833820300,BCA
"ALFAMART JATI BARU CRM JL JATIBARU NO 45 RT 001/03, KEL KAMPUNG BALI, KEC TANAH ABANG, JAKPUS",-6.183620000,106.812430000,BCA
HERO MENTENG JL. GONDANGDIA LAMA NO. 30,-6.190600000,106.836000000,BCA
"WISMA INDOCEMENT CRM 2 JL JEND SUDIRMAN KAV 70-71, JAKARTA 12910",-6.205066000,106.823236000,BCA
"WISMA INDOCEMENT CRM 1 JL JEND SUDIRMAN KAV 70-71, JAKARTA 12910",-6.205066000,106.823236000,BCA
"WISMA INDOCEMENT LOBBY TIMUR, JL. JEND. SUDIRMAN KAV. 70-71,",-6.205066000,106.823236000,BCA
GONDANGDIA LAMA CRM 1 JL GONDANGDIA LAMA 25 - JAKARTA,-6.191423000,106.836229000,BCA
GONDANGDIA LAMA CRM 2 JL GONDANGDIA LAMA 25 - JAKARTA,-6.191423000,106.836229000,BCA
"STASIUN KAI TANAH ABANG JL JATIBARU RAYA, TANAH ABANG, JAKARTA PUSAT",-6.184500000,106.811100000,BCA
"SPBU COCO ABDUL MUIS JL. ABDUL MUIS RAYA, JAKARTA PUSAT",-6.178545000,106.818742000,BCA
"APARTEMEN MENTENG PARK CRM 1 JL CIKINI RAYA NO 79, CIKINI, JAKARTA PUSAT",-6.192079700,106.836682200,BCA
SEKOLAH KANISIUS 1 JL MENTENG RAYA NO 64 JAKARTA PUSAT,-6.185500000,106.835300000,BCA
INDOMARET KS TUBUN V JL KS TUBUN NO 5 KEL PERTAMBURAN TANAH ABANG JAKARTA PUSAT,-6.188100000,106.809300000,BCA
"APARTEMEN SUDIRMAN PARK 2 JL. KH MAS MANSYUR KAV. 35, JAKARTA PUSAT",-6.205200000,106.818900000,BCA
"WISMA KYOEI CRM 2 JL. JEND. SUDIRMAN KAV. 3, JAKARTA 10220",-6.205786900,106.822003400,BCA
"WISMA KYOEI CRM 1 JL. JEND. SUDIRMAN KAV. 3, JAKARTA",-6.205901000,106.821788000,BCA
"APARTEMEN SUDIRMAN PARK JL. KH MAS MANSYUR KAV. 35, JAKARTA PUSAT",-6.205422000,106.818806000,BCA
"RS BUNDA MENTENG JL TEUKU CIK DITIRO NO. 28, MENTENG, JAKPUS",-6.196189000,106.836588000,BCA
"GEDUNG LPPM JL. MENTENG RAYA 9, JAKARTA 10340",-6.184200000,106.835800000,BCA
"FOUR SEASONS JL. SETIABUDI TENGAH, JAKARTA 12910",-6.206299000,106.827119000,BCA
"INDOMARET TANAH ABANG III - 6 A JL TANAH ABANG III NO 6, PETOJO SELATAN, GAMBIR, JAKARTA PUSAT",-6.177100000,106.818300000,BCA
INDOMARET SUTAN SYAHRIR JL SUTAN SYAHRIR NO 1C 3-4 KEL GONDANGDIA KEC MENTENG JAKPUS 10350,-6.196700000,106.837300000,BCA
WISMA BUMIPUTERA JL. JENDRAL SUDIRMAN KAV 57 JAKARTA SELATAN,-6.207332000,106.822473000,BCA
JAKARTA EYE CENTRE JL. CIK DITIRO 46 MENTENG,-6.198600000,106.837200000,BCA
PENJERNIHAN CRM 2 JL PENJERNIHAN I NO 23 - JAKARTA,-6.201069000,106.809760000,BCA
PENJERNIHAN CRM 3 JL PENJERNIHAN I NO 23 - JAKARTA,-6.201069000,106.809760000,BCA
PENJERNIHAN CRM 1 JL PENJERNIHAN I NO 23 - JAKARTA,-6.201069000,106.809760000,BCA
"WISMA 46 CRM 1 WISMA 46, LT DASAR, JL JEND SUDIRMAN KAV 1",-6.207519100,106.819300000,BCA
"WISMA 46 CRM 2 WISMA 46, LT DASAR, JL JEND SUDIRMAN KAV 1",-6.207519100,106.819300000,BCA
"WISMA 46 CRM 3 WISMA 46, LT DASAR, JL JEND SUDIRMAN KAV 1",-6.207519100,106.819300000,BCA
"WISMA 46 CRM 4 WISMA 46, LT DASAR, JL JEND SUDIRMAN KAV 1",-6.207519100,106.819300000,BCA
"WISMA 46 CRM 5 WISMA 46, LT DASAR, JL JEND SUDIRMAN KAV 1",-6.207519100,106.819300000,BCA
SENTRAL CIKINI CRM 1 JL PEGANGSAAN TIMUR NO 1 MENTENG JAKARTA PUSAT,-6.193377000,106.838945000,BCA
SENTRAL CIKINI CRM 2 JL PEGANGSAAN TIMUR NO 1 MENTENG JAKARTA PUSAT,-6.193377000,106.838945000,BCA
SENTRAL CIKINI CRM 3 JL PEGANGSAAN TIMUR NO 1 MENTENG JAKARTA PUSAT,-6.193377000,106.838945000,BCA
SENTRAL CIKINI CRM 4 JL PEGANGSAAN TIMUR NO 1 MENTENG JAKARTA PUSAT,-6.193377000,106.838945000,BCA
HOTEL BIMO - KS TUBUN JARTA BARAT JL KS TUBUN NO 10 JAKARTA BARAT,-6.188400000,106.806800000,BCA
ALFAMART KS TUBUN II JL KS TUBUN NO 55 A RT 04/04 KEL PETAMBURAN KEC TANAH ABANG JAKARTA PUSAT,-6.191300000,106.806300000,BCA
INDOMARET PENJERNIHAN NO2 JAKPUS JL PENJERNIHAN 1 NO2 BENHIL TNABANG JAKPUS,-6.201280000,106.809330000,BCA
"ALFAMART PETAMBURAN CRM JL PETAMBURAN IV NO 9, PETAMBURAN, TANAH ABANG, JAKARTA PUSAT",-6.196200000,106.806900000,BCA
"INDOMARET KS TUBUN 78 CRM JL KS TUBUN NO78, SLIPI, PALMERAH, JAKARTA BARAT",-6.191520600,106.806127600,BCA
"SUDIRMAN PLAZA SUDIRMAN PLAZA, JL JENDSUDIRMAN KAV 76-78",-6.208302000,106.820971000,BCA
"SUDIRMAN PLAZA 2 SUDIRMAN PLAZA, JL JENDSUDIRMAN KAV 76-78",-6.208302000,106.820971000,BCA
ALFAMART PENJERNIHAN CRM JL PENJERNIHAN I NO 10 JAKARTA PUSAT,-6.201259000,106.809112000,BCA
INDOMARET MAS MANSYUR 1 JL KARET TENGSIN RT 01 RW 05 NO 48 TN ABANG JAKARTA PUSAT,-6.207800000,106.817900000,BCA
ALFAMART KOTA BAMBU CRM JL KOTA BAMBU UTARA RAYA 45 JAKARTA BARAT,-6.186276000,106.806832000,BCA
"INDOMARET KOTA BAMBU UTARA II JL KOTA BAMBU RAYA RT04/04 BAMBU SELATAN, PALMERAH, JAKARTA BARAT",-6.186100000,106.806800000,BCA
INDOMARET KS TUBUN II 2 JL AIPDA KS TUBUN NO 63 PETAMBURAN JAKARTA PUSAT,-6.192700000,106.805700000,BCA
INDOMARET KS TUBUN II JL AIPDA KS TUBUN NO 63 PETAMBURAN JAKARTA PUSAT,-6.192700000,106.805700000,BCA
KANTOR PUSAT PD PASAR JAYA 1 JL CIKINI RAYA NO 90 KEL CIKINI KEC MENTENG JAKARTA PUSAT,-6.196500000,106.839400000,BCA
ALFAMIDI KALI PASIR JAKPUS JL KALI PASIRGG PENGARENGAN 2 RT14/01JAKPUS,-6.187200000,106.839500000,BCA
ALFAMIDI KALI PASIR JAKPUS 2 JL KALI PASIRGG PENGARENGAN 2 RT14/01JAKPUS,-6.187200000,106.839500000,BCA
"ALFAMART KEMBANG RAYA JL. KEMBANG RAYA NO 41, KWITANG, JAKPUS",-6.184800000,106.838800000,BCA
"ALFAMIDI SETIABUDI TENGAH JL SETIABUDI VII NO 2, SETIABUDI, KUNINGAN, JAKSEL",-6.209399000,106.824352000,BCA
MD TOWER CRM 1 GED MD TOWER JL SETIABUDI SELATAN NO 7 JAKSEL,-6.208217000,106.829391000,BCA
MD TOWER CRM 2 GED MD TOWER JL SETIABUDI SELATAN NO 7 JAKSEL,-6.208217000,106.829391000,BCA
TOKO KELONTONG SETIABUDI JL SETIABUDI TENGAH NO 11 SETIABUDI JAKSEL,-6.209244000,106.826227000,BCA
TANAH ABANG II CRM 1 JL TANAH ABANG II NO 49 & 51 JAKPUS,-6.175651000,106.814954000,BCA
TANAH ABANG II CRM 2 JL TANAH ABANG II NO 49 & 51 JAKPUS,-6.175651000,106.814954000,BCA
TANAH ABANG II CRM 3 JL TANAH ABANG II NO 49 & 51 JAKPUS,-6.175651000,106.814954000,BCA
TANAH ABANG II CRM 4 JL TANAH ABANG II NO 49 & 51 JAKPUS,-6.175651000,106.814954000,BCA
"CITY WALK SUDIRMAN CRM 1 JL. KH MAS MANSYUR, JAKARTA PUSAT",-6.209000000,106.818000000,BCA
CITY CENTER CRM 1 THE CITY CENTER GEDUNG PERKANTORAN ONE FROUND FLOOR JL KH MAS MANSYUR KAV 126 JAKARTA PUSAT,-6.209316900,106.819173800,BCA
CITY CENTER CRM 2 THE CITY CENTER GEDUNG PERKANTORAN ONE FROUND FLOOR JL KH MAS MANSYUR KAV 126 JAKARTA PUSAT,-6.209316900,106.819173800,BCA
SPBU COCO 31.103.03 CIKINI JL CIKINI RAYA KEC MENTENG JAKPUS,-6.195700000,106.840400000,BCA
STASIUN GAMBIR CRM 1 STASIUN KERETA API BESAR GAMBIR JAKARTA PUSAT,-6.175558000,106.830910000,BCA
STASIUN GAMBIR CRM 2 STASIUN KERETA API BESAR GAMBIR JAKARTA PUSAT,-6.175558000,106.830910000,BCA
ABDUL MUIS CRM 1 JL ABDUL MUIS NO 24-26 - JAKARTA,-6.173697000,106.820772000,BCA
ABDUL MUIS CRM 2 JL ABDUL MUIS NO 24-26 - JAKARTA,-6.173697000,106.820772000,BCA
ABDUL MUIS CRM 3 JL ABDUL MUIS NO 24-26 - JAKARTA,-6.173697000,106.820772000,BCA
"KWITANG CRM 2 JL KWITANG RAYA NO 17, JAKARTA PUSAT",-6.180563900,106.837770300,BCA
BSI BENHIL JL BENDUNGAN HILIR RAYA BLOK G1/3A JAKPUS,-6.206700000,106.811500000,BCA
INDOMARET SETIABUDI 17 1 JL SETIABUDI RAYA NO 17,-6.210503000,106.823101000,BCA
"AUDAH GUEST HOUSE SYARIAH CRM 1 JL TAMAN SETIABUDI NO 5, RT.02 RW.02, SETIABUDI, J",-6.210254000,106.826108500,BCA
"ALFAMART CIDENG BARAT JL CIDENG BARAT NO 70B, CIDENG, GAMBIR,JAKPUS",-6.176100000,106.812200000,BCA
"ALFAMART CIDENG BARAT 2 JL CIDENG BARAT NO 70B, CIDENG, GAMBIR,JAKPUS",-6.176100000,106.812200000,BCA
INDOMARET PENJERNIHAN 12 JL PENJERNIHAN II NO12 RT11/02 TANAH ABANG JAKARTA PUSAT,-6.205500000,106.809700000,BCA
INDOMARET RADEN SALEH 37 JL RADEN SALEH NO 37 JAKARTA,-6.191800000,106.841900000,BCA
SAHID SUDIRMAN RESIDENCE CRM 1 JL JEND SUDIRMAN KAV 86 JAKARTA PUSAT,-6.210522000,106.819205000,BCA
SAHID SUDIRMAN RESIDENCE CRM 2 JL JEND SUDIRMAN KAV 86 JAKARTA PUSAT,-6.210522000,106.819205000,BCA
"SUDIRMAN CRM 1 GED CHASE PLAZA, JL JEND SUDIRMAN KAV 21 JKT",-6.210901000,106.821750000,BCA
"SUDIRMAN CRM 2 GED CHASE PLAZA, JL JEND SUDIRMAN KAV 21 JKT",-6.210901000,106.821750000,BCA
"SUDIRMAN CRM 3 GED CHASE PLAZA, JL JEND SUDIRMAN KAV 21 JKT",-6.210901000,106.821750000,BCA
"SUDIRMAN CRM 4 GED CHASE PLAZA, JL JEND SUDIRMAN KAV 21 JKT",-6.210901000,106.821750000,BCA
"SUDIRMAN CRM 5 GED CHASE PLAZA, JL JEND SUDIRMAN KAV 21 JKT",-6.210901000,106.821750000,BCA
"SUDIRMAN CRM 6 GED CHASE PLAZA, JL JEND SUDIRMAN KAV 21 JKT",-6.210901000,106.821750000,BCA
"SAHID SUDIRMAN CENTER CRM 3 GED SAHID SUDIRMAN CENTER LT DASAR, JL JEND SUDIRMAN 1 NO 86, JAKARTA PUSAT",-6.210901000,106.821750000,BCA
INDOMARET ALAM SUTERA NIAGA CRM 1 RUKO PSR DELAPAN BL RC 01 ALAM SUTERA TANGSEL,-6.202646000,106.806933000,BCA
ALFAMART BENHIL II JL BENDUNGAN HILIR RAYA RT 01 RW 04 KEL BENDUNGAN HILIR KEC TANAH ABANG JAKARTA PUSAT,-6.206100000,106.809800000,BCA
ALFAMART BENHIL II 2 JL BENDUNGAN HILIR RAYA RT 01 RW 04 KEL BENDUNGAN HILIR KEC TANAH ABANG JAKARTA PUSAT,-6.206158000,106.809797000,BCA
"SAHID SUDIRMAN CENTER CRM 1 GED SAHID SUDIRMAN CENTER LT DASAR, JL JEND SUDIRMAN 1 NO 86, JAKARTA PUSAT",-6.210860000,106.818590000,BCA
"SAHID SUDIRMAN CENTER CRM 2 GED SAHID SUDIRMAN CENTER LT DASAR, JL JEND SUDIRMAN 1 NO 86, JAKARTA PUSAT",-6.210860000,106.818590000,BCA
RS CIKINI JL. CIKINI RAYA 119,-6.191200000,106.842400000,BCA
ALFAMART PENJERNIHAN II JL PENJERNIHAN NO 16 TANAH ABANG JAKARTA PUSAT,-6.202715000,106.806542000,BCA
INDOMARET BENHIL 136 (TKLG) JL BENDUNGAN HILIR RAYA NO136 RT012 RW006 KEL BENDUNGAN HILIR KEC TANAH ABANG JAKPUS,-6.207300000,106.810600000,BCA
PASAR CIKINI CRM GED PERMATA HIJAU LT 2 JL PEGANGSAAN BARAT 7A,-6.198200000,106.841690000,BCA
"INDOMARET SEMANGKA PALMERAH ( TRV9 ) JAKBAR JL SEMANGKA NO 21 BLK A XII JATIPULO,PALMERAH",-6.180737000,106.806060000,BCA
"INDOMARET BENHIL III (T985) CRM JL BENDUNGAN HILIR G 11/11, KEL BENDUNGAN HILIR, KEC TANAH ABANG",-6.208100000,106.811200000,BCA
THE PEAK AT SUDIRMAN JL SETIABUDI RAYA NO 9 JAKARTA SELATAN,-6.211769000,106.823836000,BCA
ALLIANZ TOWER 1 JL HR RASUNA SAID KAWASAN KUNINGAN PERSADA SUPER BLOK 2 JAKARTA,-6.210000000,106.831100000,BCA
ALFAMART BENHIL IV CRM 1 JL BENDUNGAN HILIR NO 122 JAKARTA PUSAT,-6.208680000,106.811750000,BCA
MENARA IMPERIUM CRM 1 JL HR RASUNA SAID KAV 01 - JAKARTA,-6.210149000,106.831541000,BCA
MENARA IMPERIUM CRM 2 JL HR RASUNA SAID KAV 01 - JAKARTA,-6.210149000,106.831541000,BCA
"KWITANG CRM 1 JL KWITANG RAYA NO 17, JAKARTA PUSAT",-6.180433000,106.840058000,BCA
"MILLENIUM CENTENNIAL CENTER CRM 2 JL JENDRAL SUDIRMAN NO 86 KAV 25, KUNINGAN, KARET",-6.212330000,106.820580000,BCA
ALFAMIDI BENDUNGAN HILIR CRM 1 JL BENDUNGAN HILIR TANAH ABANG JAKARTA PUSAT,-6.209600000,106.812200000,BCA
RSPAD GATOT SUBROTO JL DR ABDUL RACHMAN SALEH NO 24 JAKARTA PUSAT,-6.176378000,106.836988000,BCA
INDOMARET KS TUBUN III JL KS TUBUN RAYA NO 2 JAKARTA BARAT,-6.198100000,106.802900000,BCA
INDOMARET KS TUBUN III 2 JL KS TUBUN RAYA NO 2 JAKARTA BARAT,-6.198100000,106.802900000,BCA
"RADEN SALEH CRM 1 JL RADEN SALEH NO 13,15,17 A JAKARTA PUSAT",-6.190322000,106.843729000,BCA
"RADEN SALEH CRM 2 JL RADEN SALEH NO 13,15,17 A JAKARTA PUSAT",-6.190322000,106.843729000,BCA
"RADEN SALEH CRM 3 JL RADEN SALEH NO 13,15,17 A JAKARTA PUSAT",-6.190322000,106.843729000,BCA
"SONA TOPAS TOWER JL. JEND. SUDIRMAN KAV. 26, JAKARTA SELATAN",-6.212766000,106.820316000,BCA
FORTUNE HOTEL SPA KARAOKE & CLUB JL KH MAS MANSYUR NO 13 JARTA PUSAT,-6.212234000,106.817413000,BCA
"ALFAMIDI PENJERNIHAN JL PENJERNIHAN 1 NO 5B, BENDUNGAN HILIR, TANAH ABANG, JAKPUS",-6.203906100,106.805416300,BCA
MAYAPADA TOWER MAYAPADA TOWER JL JEND SUDIRMAN KAV 28 JAKSEL,-6.213002000,106.820629000,BCA
"KANTOR PUSAT PERTAMINA JL. MEDAN MERDEKA TIMUR NO. 1A, JAKARTA PUSAT",-6.172200000,106.831600000,BCA
"ALFAMART KS TUBUN JKT JL KS TUBUN NO 17, RT01/05, SLIPI, PALMERAH, JAKARTA BARAT",-6.199010000,106.802380000,BCA
SMAILING TOUR JL. MAJAPAHIT NO. 28,-6.170000000,106.821200000,BCA
CIDENG BARAT I CRM 1 JL CIDENG BARAT 53 - JAKARTA,-6.173245000,106.811175000,BCA
CIDENG BARAT I CRM 2 JL CIDENG BARAT 53 - JAKARTA,-6.173245000,106.811175000,BCA
CIDENG BARAT I CRM 3 JL CIDENG BARAT 53 - JAKARTA,-6.173245000,106.811175000,BCA
CIDENG BARAT I CRM 4 JL CIDENG BARAT 53 - JAKARTA,-6.173245000,106.811175000,BCA
CIDENG BARAT I CRM 5 JL CIDENG BARAT 53 - JAKARTA,-6.173245000,106.811175000,BCA
"PRASADA MANSION JL KOMANDO RAYA NO 6 SETIABUDI, JAKSEL",-6.213489400,106.819734400,BCA
"ALFAMART KOTA BAMBU SELATAN JL KOTA BAMBU SELATAN, RT10/09, KOTA BAMBU SELATAN, PALMERAH, JAKARTA BARAT",-6.183900000,106.802200000,BCA
"BCA EXPRESS UNIV ATMA JAYA CRM 1 JL JENDRAL SUDIRMAN 51, JAKARTA",-6.196838800,106.801070800,BCA
"BSI KRAMAT 18 JL. KRAMAT RAYA NO. 18, JAKARTA PUSAT",-6.180458000,106.842232000,BCA
SURYOPRANOTO CRM 1 JL SURYOPRANOTO 40 - JAKARTA,-6.170518000,106.814389000,BCA
SURYOPRANOTO CRM 2 JL SURYOPRANOTO 40 - JAKARTA,-6.170518000,106.814389000,BCA
SURYOPRANOTO CRM 3 JL SURYOPRANOTO 40 - JAKARTA,-6.170518000,106.814389000,BCA
SURYOPRANOTO CRM 4 JL SURYOPRANOTO 40 - JAKARTA,-6.170518000,106.814389000,BCA
SURYOPRANOTO CRM 5 JL SURYOPRANOTO 40 - JAKARTA,-6.170518000,106.814389000,BCA
GRAHA SURYA CRM 1 GEDUNGGRAHA SURYA JL SETIABUDI SLTN I KAV9JKT,-6.214066600,106.827677400,BCA
GRAHA SURYA CRM 2 GEDUNGGRAHA SURYA JL SETIABUDI SLTN I KAV9JKT,-6.214066600,106.827677400,BCA
METROPOLE XXI 1 JL PEGANGSAAN TIMUR NO 21 JAKARTA PUSAT,-6.199500000,106.844500000,BCA
INDOMARET BENHIL 78 JL BENDUNGAN HILIR RAYA NO78 JAKPUS,-6.212300000,106.812200000,BCA
MEGA PLAZA JL HR RASUNA SAID KAV C-3 JAKARTA SELATAN,-6.213743000,106.830168000,BCA
WTC SUDIRMAN CRM 1 JL JENDRAL SUDIRMAN KAV 29-31 JAKARTA SELATAN,-6.214829000,106.820051000,BCA
WTC SUDIRMAN CRM 2 JL JENDRAL SUDIRMAN KAV 29-31 JAKARTA SELATAN,-6.214829000,106.820051000,BCA
WTC SUDIRMAN CRM 3 JL JENDRAL SUDIRMAN KAV 29-31 JAKARTA SELATAN,-6.214829000,106.820051000,BCA
"HARMONI PLAZA CRM 1 APT ISTANA HARMONI BLOK E, JL SURYOPRANOTO 2",-6.168585000,106.819354000,BCA
"HARMONI PLAZA CRM 2 APT ISTANA HARMONI BLOK E, JL SURYOPRANOTO 2",-6.168585000,106.819354000,BCA
KYAI CARINGIN CRM 1 JL BALIKPAPAN NO 21 A-B JAKARTA PUSAT,-6.170840000,106.812120000,BCA
KYAI CARINGIN CRM 2 JL BALIKPAPAN NO 21 A-B JAKARTA PUSAT,-6.170840000,106.812120000,BCA
"RSCM INTERNATIONAL JL. DIPONEGORO 71, JAKARTA PUSAT",-6.198800000,106.845200000,BCA
INDOMARET KS TUBUN VI A JAKPUS JL KS TUBUN NO 6 -6A KEL PERTAMBURAN KEC TANAH ABANG JAKARTA PUSAT,-6.200000000,106.800700000,BCA
INDOMARET KATAMSO JAKARTA BARAT JL BRIGJEN KATAMSO NO 12B RT 006/009 KOTA BAMBU UTARA PALMERAH JAKARTA BARAT,-6.189400000,106.799300000,BCA
EBC ATRIUM PLAZA CRM 1 ATRIUM PLAZA LANTAI LG JL RAYA SENEN 135,-6.177600000,106.841800000,BCA
EBC ATRIUM PLAZA CRM 2 ATRIUM PLAZA LANTAI LG JL RAYA SENEN 135,-6.177600000,106.841800000,BCA
EBC ATRIUM PLAZA CRM 3 ATRIUM PLAZA LANTAI LG JL RAYA SENEN 135,-6.177600000,106.841800000,BCA
EBC ATRIUM PLAZA CRM 4 ATRIUM PLAZA LANTAI LG JL RAYA SENEN 135,-6.177600000,106.841800000,BCA
EBC ATRIUM PLAZA CRM 5 ATRIUM PLAZA LANTAI LG JL RAYA SENEN 135,-6.177600000,106.841800000,BCA
EBC ATRIUM PLAZA CRM 7 ATRIUM PLAZA LANTAI LG JL RAYA SENEN 135,-6.177600000,106.841800000,BCA
EBC ATRIUM PLAZA CRM 6 ATRIUM PLAZA LANTAI LG JL RAYA SENEN 135,-6.177600000,106.841800000,BCA
KUNINGAN VILLAGE JL. KARBELA TIMUR NO. 1 JAKARTA SELATAN,-6.214682000,106.828556000,BCA
"PERMATA KUNINGAN 1 JL KUNINGAN MULIA 9C KELURAHAN GUNTUR, KECAMATAN SETIABUDI, JAKARTA SELATAN",-6.212600000,106.834000000,BCA
STT JAKARTA JL PROKLAMASI NO 27 JAKARTA PUSAT,-6.201300000,106.844600000,BCA
INDOMARET KOTA BAMBU SELATAN JL KOTA BAMBU SELATAN NO 1 TOMANG GROGOL PETAMBURAN JAKARTA BARAT,-6.185500000,106.799800000,BCA
SETIABUDI ATRIUM CRM 1 GDG SETIABUDI ATRIUM JL HR RASUNA SAID KAV 62,-6.214557300,106.829994800,BCA
SETIABUDI ATRIUM CRM 2 GDG SETIABUDI ATRIUM JL HR RASUNA SAID KAV 62,-6.214557300,106.829994800,BCA
"ALFAMART KRAMAT PULO IV JL KRAMAT PULO BARAT BLOK B6 RT 003/004, KRAMAT, SENEN, JAKARTA PUSAT",-6.182800000,106.845100000,BCA
"CIRCLE K JAK0101 BENDUNGAN HILIR CRM JL. BENDUNGAN HILIR NO.19, JAKARTA PUSAT",-6.213941000,106.813553000,BCA
ALFAMART KARBELA II CRM 1 JL KARBELA / GG ANGGREK XII 10 KEL KARET KUNINGAN KEC SETIABUDI J AK-SEL,-6.215290000,106.828090000,BCA
"BENDUNGAN HILIR CRM 1 JL BENDUNGAN HILIR NO 44 B RT 009/ RW 001, KEL BENDUNGAN HILIR, KEC TANAH ABANG, JAKARTA PUSAT",-6.214732000,106.815288000,BCA
"BENDUNGAN HILIR CRM 2 JL BENDUNGAN HILIR NO 44 B RT 009/ RW 001, KEL BENDUNGAN HILIR, KEC TANAH ABANG, JAKARTA PUSAT",-6.214732000,106.815288000,BCA
"BENDUNGAN HILIR CRM 3 JL BENDUNGAN HILIR NO 44 B RT 009/ RW 001, KEL BENDUNGAN HILIR, KEC TANAH ABANG, JAKARTA PUSAT",-6.214732000,106.815288000,BCA
ALFAMART KAMBOJA JAKBAR JL KAMBOJA NO 32 RT 10/01 KEL JATIPULO KEC PALMERAH JAKBAR,-6.178600000,106.802400000,BCA
INDOMARET KARBELA JL FLAMBOYAN NO 1 KEL KARET JAKSEL,-6.215989000,106.823061000,BCA
INDOMARET KARBELA 2 JL FLAMBOYAN NO 1 KEL KARET JAKSEL,-6.215989000,106.823061500,BCA
"GRAHA INDRA MAS CRM 1 GD GRAHA INDRAMAS, JLAIP II KS TUBUN RY NO77",-6.200174000,106.799838000,BCA
"GRAHA INDRA MAS CRM 2 GD GRAHA INDRAMAS, JLAIP II KS TUBUN RY NO77",-6.200174000,106.799838000,BCA
"GRAHA INDRA MAS CRM 3 GD GRAHA INDRAMAS, JLAIP II KS TUBUN RY NO77",-6.200174000,106.799838000,BCA
"GRAHA INDRA MAS CRM 4 GD GRAHA INDRAMAS, JLAIP II KS TUBUN RY NO77",-6.200174000,106.799838000,BCA
DUTA MERLIN 1 GRAHA GRAMALA JL GAJAH MADA NO 3-5 JAKARTA,-6.167308000,106.820425000,BCA
ALFAMART SENEN RAYA CRM JL SENEN RAYA NO 48A JAKARTA PUSAT,-6.176600000,106.842100000,BCA
INDOMARET KAMBOJA 2 JL KAMBOJA NO 29 JAKARTA BARAT,-6.178600000,106.802000000,BCA
INDOMARET KAMBOJA JL KAMBOJA NO 29 JAKARTA BARAT,-6.178600000,106.802000000,BCA
"WTC 1 WTC 1ST FLOOR, JL JEND. SUDIRMAN KAV. 29-31",-6.215749700,106.817445600,BCA
"DIPO TOWER 1 JL JEND GATOT SUBROTO KV 51-52, KELURAHAN PETAMBURAN, KECAMATAN TANAH ABANG, JAKARTA PUSAT",-6.202800000,106.800800000,BCA
ALFAMART KRAMAT PULO III JL KRAMAT PULO NO 35 KRAMAT SENEN JAKPUS,-6.181400000,106.845200000,BCA
"ALFAMIDI KAMBOJA 1 JL KAMBOJA BLOK A NO 6 RT 011/RW 006 KOTA BAMBU UTR, PALMERAH, JAKBAR",-6.180721600,106.800711500,BCA
"ALFAMIDI KAMBOJA JAKBAR CRM JL KAMBOJA BLOK A/6, KOTA BAMBU UTARA, PALMERAH, JAKBAR",-6.180721600,106.800711500,BCA
"INDOMARET KRAMAT SENTIONG JL. KRAMAT SENTIONG NO.2, JAKARTA PUSAT",-6.188000000,106.847300000,BCA
"WISMA 76 CRM 1 JL LETJEN S PARMAN KAV 76, JAKARTA BARAT",-6.190635000,106.798043000,BCA
"RSCM GEDUNG A JL. DIPONEGORO 71, JAKARTA PUSAT",-6.196900000,106.847100000,BCA
"SPBU COCO 3111401 S PARMAN JAKBAR JL S PARMAN KAVLING 70, JAKARTA BARAT",-6.193700000,106.798000000,BCA
"RS CIPTO MANGUNKUSUMO JL. DIPONEGORO 71, JAKARTA PUSAT",-6.197500000,106.847000000,BCA
"SEKOLAH SANTA MARIA PASAR BARU 1 JL IR H JUANDA NO 29, GAMBIR, JAKARTA PUSAT",-6.166793300,106.822251000,BCA
"WISMA 77 JL LETJEN. S. PARMAN KAV. 77 SLIPI, JAKARTA",-6.190500000,106.797900000,BCA
"WISMA DHARMALA SAKTI JL. JEND. SUDIRMAN KAV. 32, JAKARTA",-6.215914000,106.816525000,BCA
TOMANG RAYA CRM 7 JL. TOMANG RAYA 64 - JAKARTA - 11430,-6.175210000,106.804010000,BCA
INDOMARET POINT JUANDA JL JUANDA RAYA NO 31 A-B GAMBIR GAMBIR JAKARTA PUSAT,-6.166865000,106.825925000,BCA
"SETIABUDI BUILDING CRM 1 LOBBY SETIABUDI BUILDING 2, JL HR RASUNA SAID",-6.216010000,106.829032000,BCA
"SENEN CRM 1 PUSAT GROSIR SENEN JAYA BLOK A8-9 LT 2, JKT",-6.175984000,106.842361000,BCA
"SENEN CRM 2 PUSAT GROSIR SENEN JAYA BLOK A8-9 LT 2, JKT",-6.175984000,106.842361000,BCA
"SENEN CRM 3 PUSAT GROSIR SENEN JAYA BLOK A8-9 LT 2, JKT",-6.175984000,106.842361000,BCA
"STASIUN KAI JUANDA JL IR H JUANDA NO 1, JAKARTA PUSAT",-6.167700000,106.830400000,BCA
"ATRIUM CRM 1 RUKO ATRIUM BLOK E NO 12-13, JAKARTA 10410",-6.176504000,106.842884000,BCA
"ATRIUM CRM 2 RUKO ATRIUM BLOK E NO 12-13, JAKARTA 10410",-6.176504000,106.842884000,BCA
"ATRIUM CRM 3 RUKO ATRIUM BLOK E NO 12-13, JAKARTA 10410",-6.176504000,106.842884000,BCA
"SPBU SHELL S PARMAN JAKBAR 1 JALAN LETJEN S PARMAN KAV 38- 39, KEMANGGISAN, PALMERAH, JAKBAR",-6.198745500,106.798576400,BCA
"PASAR KENARI 1 JL SALEMBA RAYA, KENARI, SENEN, JAKARTA PUSAT",-6.192930000,106.848020000,BCA
WISMA BARITO CRM 1 JL LETJEN S PARMAN KAV 62-63 SLIPI JAK BAR,-6.195712500,106.797804300,BCA
WISMA BARITO CRM 2 JL LETJEN S PARMAN KAV 62-63 SLIPI JAK BAR,-6.195712500,106.797804300,BCA
"ALFAMART ANGGREK III JL ANGGREK III 25 B RT 19/02, JAKSEL",-6.216549400,106.827927800,BCA
ALFAMART BENHIL JATILUHUR 2 JL BENDUNGAN JATILUHUR NO 22 BENHIL JAKPUS,-6.215200000,106.813100000,BCA
ALFAMART BENHIL JATILUHUR JL BENDUNGAN JATILUHUR NO 22 BENHIL JAKPUS,-6.215200000,106.813100000,BCA
BENGKEL CATS JL TOMANG RAYA NO 69 BLOK MM JAKARTA,-6.174000000,106.804400000,BCA
WISMA ASIA CRM 1 JL S PARMAN KAV 79 JAKARTA,-6.189065000,106.797371000,BCA
WISMA ASIA II LT 12 CRM JL BRIGJEN KATAMSO KAV 1 JAKARTA,-6.189065000,106.797371000,BCA
WISMA ASIA I CRM 3 JL S PARMAN KAV 79 JAKARTA,-6.189065000,106.797371000,BCA
WISMA ASIA I CRM 4 JL S PARMAN KAV 79 JAKARTA,-6.189065000,106.797371000,BCA
WISMA ASIA I CRM 5 JL S PARMAN KAV 79 JAKARTA,-6.189065000,106.797371000,BCA
WISMA ASIA I CRM 6 JL S PARMAN KAV 79 JAKARTA,-6.189065000,106.797371000,BCA
WISMA ASIA I CRM 7 JL S PARMAN KAV 79 JAKARTA,-6.189065000,106.797371000,BCA
WISMA SLIPI CRM 1 JL LET JEND S PARMAN KAV 12 JAKARTA,-6.189065000,106.797371000,BCA
"BCA EXPRESS TRISAKTI CRM 1 UNIV TRISAKTI, JL KYAI TAPA NO 1 , JAKARTA",-6.189065000,106.797371000,BCA
WISMA ASIA I CRM 2 JL S PARMAN KAV 79 JAKARTA,-6.189065000,106.797371000,BCA
"UNIV. BINA NUSANTARA CRM 2 KAM II UNIV BINUS,JL ANGGREK CAKRA 10 JAKARTA",-6.189065000,106.797371000,BCA
"UNIV. BINA NUSANTARA CRM 3 KAM II UNIV BINUS,JL ANGGREK CAKRA 10 JAKARTA",-6.189065000,106.797371000,BCA
"UNIV. BINA NUSANTARA CRM 4 KAM II UNIV BINUS,JL ANGGREK CAKRA 10 JAKARTA",-6.189065000,106.797371000,BCA
"UNIV. BINA NUSANTARA CRM 5 KAM II UNIV BINUS,JL ANGGREK CAKRA 10 JAKARTA",-6.189065000,106.797371000,BCA
INDOMARET ANTARA PASAR BARU JL ANTARA NO 63 PASAR BARU SAWAH BESAR JAKPUS,-6.168500000,106.833600000,BCA
SAMPOERNA SQUARE CRM 1 JL JEND SUDIRMAN KAV 45-46 JAKARTA,-6.216852000,106.817848000,BCA
SAMPOERNA SQUARE CRM 2 JL JEND SUDIRMAN KAV 45-46 JAKARTA,-6.216852000,106.817848000,BCA
SAMPOERNA SQUARE CRM 3 JL JEND SUDIRMAN KAV 45-46 JAKARTA,-6.216852000,106.817848000,BCA
"ALFAMART KRAMAT SENTIONG JL. KRAMAT SENTIONG  NO.17, JAKARTA PUSAT",-6.187500000,106.848200000,BCA
LAWSON DR SATRIO JL DR SATRIO NO 64 RT 003/001 JAKSEL,-6.217316000,106.819348000,BCA
ALFAMIDI SALEMBA JL SALEMBA RAYA KEL PASEBANAN KEC SENEN,-6.193500000,106.848700000,BCA
"MENARA STANDARD CHARTERED CRM 1 JL PROF DR SATRIO NO 164, JAKARTA",-6.217569000,106.819017000,BCA
"INDOMARET CIDENG TIMUR JL CIDENG TIMUR NO 30A, JAKARTA PUSAT",-6.168400000,106.810900000,BCA
"GRAHA RAYA BINTARO CRM 1 KOMPLEK RUKO PASAR SEGAR BLOK RA-1 NO. 12 & 15, GRAHA RAYA BINTARO",-6.165585800,106.820196500,BCA
DUTA MERLIN CRM 2 PERTOK DUTA MERLIN BLOK A/24-25 JL GAJAH MADA,-6.165585800,106.820196500,BCA
DUTA MERLIN CRM 3 PERTOK DUTA MERLIN BLOK A/24-25 JL GAJAH MADA,-6.165585800,106.820196500,BCA
DUTA MERLIN CRM 4 PERTOK DUTA MERLIN BLOK A/24-25 JL GAJAH MADA,-6.165585800,106.820196500,BCA
DUTA MERLIN CRM 1 PERTOK DUTA MERLIN BLOK A/24-25 JL GAJAH MADA,-6.165585800,106.820196500,BCA
"INDOMARET FRESH TOMANG RAYA JL TOMANG RAYA NO 40, JAKBAR",-6.176290000,106.801450000,BCA
"SPBU COCO 31-11404 TOMANG JAKARTA JL. TOMANG RAYA, JAKARTA BARAT",-6.176200000,106.801500000,BCA
"ABFI PERBANAS STIE PERBANAS, JL GENTENG HIJAU, KUNINGAN",-6.217405000,106.828749000,BCA
MENARA KUNINGAN MNRA KNINGN JL HR R SAID BLOKX-7KAV 5JAKSEL,-6.217454000,106.828733000,BCA
"MAL KENARI MAS CRM 1 MAL KENARI MAS, JL SALEMBA RAYA NO 101, JKT",-6.191900000,106.849200000,BCA
"MAL KENARI MAS CRM 2 MAL KENARI MAS, JL SALEMBA RAYA NO 101, JKT",-6.191900000,106.849200000,BCA
"APARTEMEN SOUTH HILLS JL DENPASAR RAYA, KARET KUNINGAN, SETIABUDI, JAKSEL 12950",-6.216372300,106.832277800,BCA
SEKOLAH SANTA URSULA JL. POS 2 TROMOL 1098  JAKARTA,-6.167200000,106.832900000,BCA
WISMA SLIPI CRM 2 JL LET JEND S PARMAN KAV 12 JAKARTA,-6.186507700,106.796727100,BCA
WISMA SLIPI CRM 3 JL LET JEND S PARMAN KAV 12 JAKARTA,-6.186507700,106.796727100,BCA
WISMA SLIPI CRM 4 JL LET JEND S PARMAN KAV 12 JAKARTA,-6.186507700,106.796727100,BCA
ALFAMART PALMERAH UTARA I 2 JL PAMERAH UTARA 1 NO 2 RT 01/13 KEL PALMERAH KEC PALMERAH JAKBAR,-6.201900000,106.798200000,BCA
ALFAMART PALMERAH UTARA I JL PAMERAH UTARA 1 NO 2 RT 01/13 KEL PALMERAH KEC PALMERAH JAKBAR,-6.201900000,106.798200000,BCA
"GUDANG LISTRIK CRM 1 JL SALEMBA RAYA NO 19, JAKARTA PUSAT",-6.194100000,106.849400000,BCA
INDOMARET PECENONGAN JL PECENONGAN NO48 KEL KEBON KELAPA KEC GAMBIR JAKPUS,-6.165142000,106.826375000,BCA
SLIPI JAYA CRM 1 JL LETJEND S PARMAN KAV 17-18 JAKBAR,-6.189500000,106.796100000,BCA
SLIPI JAYA CRM 2 JL LETJEND S PARMAN KAV 17-18 JAKBAR,-6.189500000,106.796100000,BCA
SLIPI JAYA CRM 3 JL LETJEND S PARMAN KAV 17-18 JAKBAR,-6.189500000,106.796100000,BCA
"ALFAMART SALEMBA TENGAH II JL SALEMBA TENGAH NO 2B, PASEBAN SENEN JAKPUS",-6.193800000,106.849600000,BCA
SPBU BENZINE 34-11405 PALMERAH CRM JL PALMERAH UTARA RAYA NO 56 JAKARTA BARAT,-6.202619000,106.798082000,BCA
RS JAKARTA JL GARNISUN DALAM NO 1 KARET SEMANGGI SETIABUDI JAKSEL,-6.218003000,106.816452000,BCA
CENTRAL PLAZA CRM 1 JL JEND SUDIRMAN KAV 47 - JAKARTA,-6.217917000,106.815849000,BCA
CENTRAL PLAZA CRM 2 JL JEND SUDIRMAN KAV 47 - JAKARTA,-6.217917000,106.815849000,BCA
CENTRAL PLAZA CRM 3 JL JEND SUDIRMAN KAV 47 - JAKARTA,-6.217917000,106.815849000,BCA
CENTRAL PLAZA CRM 4 JL JEND SUDIRMAN KAV 47 - JAKARTA,-6.217917000,106.815849000,BCA
ALFAMART KRAMAT PULO GUNDUL JL KRAMAT PULO GUNDUL K9 JOHAR BARU JAKPUS,-6.182700800,106.848376400,BCA
"BANK CCBI KC SLIPI JL. LETJEN S. PARMAN KAV. 92, JAKARTA BARAT",-6.182817000,106.797181000,BCA
ALFAMART KAJI JL KAJI NO 20C-22 KEC GAMBIR JAKPUS,-6.165800000,106.814700000,BCA
PRIMA FRESHMART KRAMAT SENTIONG CRM 1 JL KRAMAT SENTIONG 53A RT11 RW06 KEL KRAMAT KEC SENEN JAKARTA PUSAT,-6.186793000,106.849486000,BCA
"ALFAMART MENTENG WADAS TIMUR JL MENTENG WADAS TIMUR NO18B,SETIABUDI,JAKSEL",-6.210807000,106.842104000,BCA
HASYIM ASHARI CRM 1 JL KH H ASHARI 5AA JAKARTA,-6.164772490,106.818433500,BCA
HASYIM ASHARI CRM 2 JL KH H ASHARI 5AA JAKARTA,-6.164772490,106.818433500,BCA
LEMBAGA ALKITAB INDONESIA JL SALEMBA RAYA NO 12 JAKARTA PUSAT,-6.196300000,106.849700000,BCA
LAWSON BENDUNGAN WALAHAR JL BENDUNGAN WALAHAR NO 30 JAKARTA PUSAT,-6.217300000,106.812900000,BCA
"WISMA HAYAM WURUK JL. HAYAM WURUK, JAKARTA",-6.170350000,106.840010000,BCA
"AIA CENTRAL CRM 1 JL JENDRAL SUDIRMAN KAV 48A, JAKSEL",-6.218041400,106.814795300,BCA
"SEMANGGI CRM 1 EQUITY TOWER, JL JEND SUDIRMAN KAV 52-53, JKT",-6.217438000,106.812883000,BCA
"SEMANGGI CRM 2 EQUITY TOWER, JL JEND SUDIRMAN KAV 52-53, JKT",-6.217438000,106.812883000,BCA
"SEMANGGI CRM 3 EQUITY TOWER, JL JEND SUDIRMAN KAV 52-53, JKT",-6.217438000,106.812883000,BCA
"SEMANGGI CRM 4 EQUITY TOWER, JL JEND SUDIRMAN KAV 52-53, JKT",-6.217438000,106.812883000,BCA
"SEMANGGI CRM 5 EQUITY TOWER, JL JEND SUDIRMAN KAV 52-53, JKT",-6.217438000,106.812883000,BCA
"INDOMARET TAMBAK 1 JL RAYA TAMBAK RT 7 / RW 6 PEGANGSAAN, MENTENG JAKARTA PUSAT",-6.205653000,106.846615900,BCA
"STASIUN KAI PASAR SENEN JL KRAMAT BUNDAR NO 1, JAKARTA PUSAT",-6.174800000,106.844700000,BCA
PLAZA SEMANGGI CRM 1 KWSN BISNISGRANADHA JL JEND SUDIRMAN KAV50JKT,-6.217475000,106.812674000,BCA
PLAZA SEMANGGI CRM 2 KWSN BISNISGRANADHA JL JEND SUDIRMAN KAV50JKT,-6.217475000,106.812674000,BCA
BIAK CRM 1 JL BIAK NO 44 A-B JAKARTA PUSAT,-6.168164000,106.808178000,BCA
BIAK CRM 2 JL BIAK NO 44 A-B JAKARTA PUSAT,-6.168164000,106.808178000,BCA
"ALFAMART ANGGREK NELLY MURNI II JL ANGGREK NELLY MURNI RAYA NO C 126, RT11/01, KEMANGGISAN, PALMERAH, JAKARTA BARAT",-6.187100000,106.795400000,BCA
ALFAMART KRAMAT SENTIONG II JL KRAMAT SENTIONG NO 45 RT 08/07 JAKPUS,-6.187000000,106.850200000,BCA
JUANDA III CRM 1 JL IR JUANDA III/34 - JAKARTA,-6.163805000,106.823638000,BCA
JUANDA III CRM 2 JL IR JUANDA III/34 - JAKARTA,-6.163805000,106.823638000,BCA
"INDOMARET MENTENG WADAS 2 JAKSEL JL MENTENGWADASTIMUR GGXI NO01 PSRMANGGIS, SETIABUDI, JAKSEL",-6.211700000,106.842300000,BCA
"HARMONI EXCHANGE 1 JL HAYAM WURUK 6, JAKARTA PUSAT",-6.164153600,106.818184100,BCA
"PT KERTA GAYA PUSAKA JL. AM. SANGAJI NO. 15B, JAKARTA 10130",-6.165400000,106.813300000,BCA
PINTU AIR CRM 3 JL PINTU AIR 36 Q - JAKARTA - 10710,-6.165251600,106.831906100,BCA
INDOMARET FRESH MANDALA JL MANDALA RAYA NO 4 KEL TOMANG JAKARTA BARAT,-6.176344000,106.799403000,BCA
PINTU AIR CRM 1 JL PINTU AIR 36 Q - JAKARTA - 10710,-6.165307000,106.832158000,BCA
PINTU AIR CRM 2 JL PINTU AIR 36 Q - JAKARTA - 10710,-6.165307000,106.832158000,BCA
ALFAMART ANGGREK GARUDA JL. ANGGREK GARUDA BLOK H 105 SLIPI,-6.195100000,106.795000000,BCA
INDOMARET POINT ROXY MAS CRM 1 JL KH HASYIM ASHARI BLOK D3 NO 15 JAKPUS,-6.168800000,106.806300000,BCA
INDOMARET POINT ROXY MAS CRM 2 JL KH HASYIM ASHARI BLOK D3 NO 15 JAKPUS,-6.168800000,106.806300000,BCA
ALAYDRUS CRM 1 JL ALAYDRUS 48 B - JAKARTA,-6.164228000,106.816287000,BCA
ALAYDRUS CRM 2 JL ALAYDRUS 48 B - JAKARTA,-6.164228000,106.816287000,BCA
INDOMARET BIAK JL BIAK NO 50 CIDENG GAMBIR JAKARTA PUSAT,-6.167300000,106.808400000,BCA
UNIVERSITAS ATMAJAYA UNIV ATMAJAYA JL JEND SUDIRMAN 51 JAKARTA,-6.219001000,106.815082000,BCA
INDOMARET PLUS KARET PEDURENAN CRM JL KARET PEDURENAN NO 684A RT 004/004 KARET KUNING,-6.219860000,106.826502000,BCA
"STIE JAYAKARTA JL SALEMBA I NO. 1,3,8,10 & 10A, JAKPUS",-6.193900000,106.851100000,BCA
"WISMA UIC WISMA UIC, JL JEND GATOT SUBROTO KAV. 6-7 JAK",-6.218986000,106.814857000,BCA
MANDALA RAYA CRM 1 JL MANDALA RAYA 14 JAKARTA,-6.175850000,106.799245000,BCA
MANDALA RAYA CRM 2 JL MANDALA RAYA 14 JAKARTA,-6.175850000,106.799245000,BCA
MANDALA RAYA CRM 3 JL MANDALA RAYA 14 JAKARTA,-6.175850000,106.799245000,BCA
MANDALA RAYA CRM 4 JL MANDALA RAYA 14 JAKARTA,-6.175850000,106.799245000,BCA
MANDALA RAYA CRM 5 JL MANDALA RAYA 14 JAKARTA,-6.175850000,106.799245000,BCA
MOR GAJAH MADA 1 JL GAJAH MADA NO 9 - 11 PETOJO UTARA GAMBIR JAKARTA PUSAT,-6.163400000,106.820300000,BCA
HOTEL RED TOP JL PECENONGAN NO 72 JAKARTA PUSAT,-6.163505000,106.826970000,BCA
"ALFAMART MINANGKABAU JAKSEL CRM JL MINANGKABAU NO 09 RT 06/08, KEL PASAR KEMIS, KEC SETIABUDI, JAKARTA SELATAN",-6.212525700,106.842329000,BCA
"SPBU SHELL SATRIO JL PROF DR SATRIO NO 241, KARET KUNINGAN",-6.219975400,106.818299100,BCA
ALFAMART PECENONGAN JL PECENONGAN RAYA NO 37 A KEL. KEBON KELAPA,-6.163216000,106.826557000,BCA
INDOMARET BATU TULIS JL BATU TULIS RAYA NO 32 JAKARTA PUSAT,-6.163099000,106.826058000,BCA
INDOMARET MENTENG ATAS 2 JL MENTENG ATAS SELATAN NO39 RT001/06 KEL MENTENG ATAS KEC SETIABUDI JAKSEL,-6.214102000,106.840925000,BCA
INDOMARET MENTENG ATAS JL MENTENG ATAS SELATAN NO39 RT001/06 KEL MENTENG ATAS KEC SETIABUDI JAKSEL,-6.214117000,106.840919000,BCA
"RS SAINT CAROLUS JL. SALEMBA RAYA, JAKARTA",-6.196000000,106.851300000,BCA
"ALFAMART KH HASYIM ASHARI JAKPUS JL KH HASYIM ASHARI NO 40B RT03/RW01, DURI PULO, GAMBIR, JAKARTA PUSAT",-6.166000000,106.809600000,BCA
CIDENG TIMUR CRM 1 JL CIDENG TIMUR 11 F - JAKARTA,-6.165917000,106.809539000,BCA
CIDENG TIMUR CRM 2 JL CIDENG TIMUR 11 F - JAKARTA,-6.165917000,106.809539000,BCA
PASARAYA MANGGARAI CRM 5 JL SULTAN AGUNG NO 1 JAKARTA SELATAN,-6.208800000,106.846350000,BCA
PASARAYA MANGGARAI CRM 3 JL SULTAN AGUNG NO 1 JAKARTA SELATAN,-6.208800000,106.846350000,BCA
PASARAYA MANGGARAI CRM 4 JL SULTAN AGUNG NO 1 JAKARTA SELATAN,-6.208800000,106.846350000,BCA
"EPICENTRUM WALK CRM 1 EPICENTRUM WALK 2ND FL, UNIT W / 336A & 338A",-6.218109000,106.835183000,BCA
ALFAMART PEMBANGUNAN 2 JL PEMBANGUNAN II NO 6 JAKARTA PUSAT,-6.162900000,106.818200000,BCA
"BARATA PASAR BARU JL. PASAR BARU NO.65-67, JAKARTA",-6.164400000,106.833600000,BCA
"INDOMARET GELONG BARU JAKARTA BARAT 1 JL GELONG BARU RAYA NO 16 RT 011/02 TOMANG, KEMANGGISAN, JAKARTA BARAT",-6.176300000,106.797700000,BCA
PASARAYA MANGGARAI CRM 1 JL SULTAN AGUNG NO 1 JAKARTA SELATAN,-6.209445000,106.846418000,BCA
PASARAYA MANGGARAI CRM 2 JL SULTAN AGUNG NO 1 JAKARTA SELATAN,-6.209445000,106.846418000,BCA
"INDOMARET JALAN SULAIMAN JL SULAIMAN NO 50 PALMERAH, JAKBAR",-6.199832000,106.794323000,BCA
"ISTANA PASAR BARU JL. PASAR BARU NO.65-67, JAKARTA",-6.163900000,106.833100000,BCA
"INDOMARET PALMERAH UTARA 115 JL PALMERAH UTARA 115 A, GELORA TANAH ABANG, JAKARTA PUSAT",-6.206700000,106.797200000,BCA
"TOKOPEDIA TOWER 1 JL PROF DR SATRIO KAV 11, JAKARTA SELATAN",-6.221300000,106.820000000,BCA
CRM PASAR BARU 6 JL KH SAMANHUDI 8 JAKARTA PUSAT,-6.162600000,106.828941000,BCA
PECENONGAN CRM 1 JL PECENONGAN NO 86 JAKARTA PUSAT,-6.162141000,106.826926000,BCA
PECENONGAN CRM 2 JL PECENONGAN NO 86 JAKARTA PUSAT,-6.162141000,106.826926000,BCA
PECENONGAN CRM 3 JL PECENONGAN NO 86 JAKARTA PUSAT,-6.162141000,106.826926000,BCA
PASAR BARU CRM 4 JL KH SAMANHUDI 8 JAKARTA PUSAT,-6.162447000,106.828941000,BCA
PASAR BARU CRM 5 JL KH SAMANHUDI 8 JAKARTA PUSAT,-6.162447000,106.828941000,BCA
PASAR BARU CRM 1 JL KH SAMANHUDI 8 JAKARTA PUSAT,-6.162447000,106.828941000,BCA
PASAR BARU CRM 2 JL KH SAMANHUDI 8 JAKARTA PUSAT,-6.162447000,106.828941000,BCA
PASAR BARU CRM 3 JL KH SAMANHUDI 8 JAKARTA PUSAT,-6.162447000,106.828941000,BCA
SAMANHUDI CRM 1 JL SAMANHUDI 57 B - JAKARTA,-6.162447000,106.828941000,BCA
BATU CEPER CRM 1 JL BATU CEPER RAYA 18 A-B - JAKARTA - 10210,-6.162447000,106.828941000,BCA
BATU CEPER CRM 2 JL BATU CEPER RAYA 18 A-B - JAKARTA - 10210,-6.162447000,106.828941000,BCA
HARCO PASAR BARU CRM 1 GEDUNG HARCO PASAR BARU LT II NO 258 JKT PST,-6.162447000,106.828941000,BCA
KARANG ANYAR CRM 2 JL KARANG ANYAR 55 BLOK A1/14 JKT,-6.162447000,106.828941000,BCA
KARANG ANYAR CRM 3 JL KARANG ANYAR 55 BLOK A1/14 JKT,-6.162447000,106.828941000,BCA
CIRCLE K CK0327 - KARET PEDURENAN JL KARET PEDURENAN NO 12 SETIA BUDI,-6.221600000,106.821600000,BCA
ROXY MAS CRM 1 PERTOKOAN ROXI MAS BLOK C 5/6-8 - JAKARTA,-6.167665580,106.805006800,BCA
ROXY MAS CRM 2 PERTOKOAN ROXI MAS BLOK C 5/6-8 - JAKARTA,-6.167665580,106.805006800,BCA
ROXY MAS CRM 3 PERTOKOAN ROXI MAS BLOK C 5/6-8 - JAKARTA,-6.167665580,106.805006800,BCA
ROXY MAS CRM 4 PERTOKOAN ROXI MAS BLOK C 5/6-8 - JAKARTA,-6.167665580,106.805006800,BCA
INDOMARET SAMANHUDI 27A JL HAJI SAMANHUDI NO 27 A PASAR BARU JAKPUS,-6.162500000,106.829300000,BCA
INDOMARET BATU CEPER JL BATU CEPER RAYA NO 79 JAKARTA PUSAT,-6.161878000,106.825334000,BCA
"ALFAMIDI MINANGKABAU II JL MINANGKABAU NO 44, RT01/01, PASAR MANGGIS, SETIABUDI, JAKARTA SELATAN",-6.212944200,106.843904600,BCA
BCA SYARIAH SAMANHUDI KOMPPRKNTRNMITRAKREKOT JLSAMANHUDI NO21JAKPUS,-6.162400000,106.829000000,BCA
ALFAMART BUNGUR BESAR JL BUNGUR BESAR NO121 RT11/01 BUNGURJAKPUS,-6.169800000,106.843500000,BCA
"GEDUNG DPR/MPR 2 JL JEND GATOT SUBROTO, JAKARTA 10270",-6.210700000,106.799382000,BCA
"GEDUNG DPR/MPR CRM 1 JL JEND GATOT SUBROTO, JAKARTA 10270",-6.210713000,106.799382000,BCA
"CIRCLE K STASIUN PALMERAH JL ALTERI PEJOMPONGAN NO 113B RT3/RW1 GELORA, JAKPUS",-6.207500000,106.797100000,BCA
RS MMC JL. HR. RASUNA SAID KAV. C-21,-6.220333000,106.832534000,BCA
"ALFAMART SUKARJO WIRYOPRANOTO CRM 1 JL SUKARJO WIYOPRANOTO  NO101, JAKARTA",-6.161571000,106.826310000,BCA
"ALFAMIDI MINANGKABAU CRM 1 JL MINANGKABAU, JAKARTA SELATAN",-6.213978000,106.843408000,BCA
"ALFAMIDI MINANGKABAU CRM 2 JL MINANGKABAU, JAKARTA SELATAN",-6.213978000,106.843408000,BCA
ALFAMART HAYAM WURUK JAKARTA PUSAT JL HAYAM WURUK RT 004/RW 001 KBN KLAPA GAMBIR,-6.161400000,106.819800000,BCA
ALFAMIDI SAWAH BESAR JL. SUKARJO WIRYOPRANOTO NO. 75 JAK PUS,-6.161300000,106.825100000,BCA
ALFAMART KRAMAT JAYA JAKPUS JL KRAMAT JAYA BARU NO189 JOHAR BARU JAKPUS,-6.184200000,106.852500000,BCA
SAWAH BESAR CRM 1 JL SUKARJO WIRYOPRANOTO 28 C JAKARTA PUSAT,-6.160891000,106.823321000,BCA
SAWAH BESAR CRM 2 JL SUKARJO WIRYOPRANOTO 28 C JAKARTA PUSAT,-6.160891000,106.823321000,BCA
SAWAH BESAR CRM 3 JL SUKARJO WIRYOPRANOTO 28 C JAKARTA PUSAT,-6.160891000,106.823321000,BCA
MATRAMAN CRM 1 JL MATRAMAN RAYA 14-16 - JAKARTA,-6.200430000,106.852364300,BCA
"PASAR PETOJO ILIR 1 JL AM SANGAJI, NO 16-18, 003/04 KEL PETOJO UTARA KEC GAMBIR JAKARTA PUSAT",-6.162500000,106.812800000,BCA
"ALFAMART ANGGREK ROSALINA CRM JL ANGGGREK ROSALIANA VII NO 7, PALMERAH",-6.194300000,106.792000000,BCA
INDOMARET SAMANHUDI JL H SAMANHUDI NO32A PASAR BARU JAKPUS 10710,-6.162000000,106.831400000,BCA
"ALFAMART PEMBANGUNAN JL. PEMBANGUNAN I, JAKARTA PUSAT",-6.161500000,106.816100000,BCA
PLAZA FESTIVAL JL HR RASUNA SAID KAB C NO 22 KARET KUNINGAN SETIABUDI JAKSEL,-6.221227000,106.832126000,BCA
"INDOMARET ANGGREK ROSLIANA JL ROSLIANA 7/32, SLIPI PALMERAH BARAT, PALMERAH JAKARTA BARAT",-6.194100000,106.791900000,BCA
EBC GAJAH MADA PLAZA CRM 4 GAJAH MADA PLAZA LANTAI G UNIT NO 110(GMP) JL GAJA,-6.161100000,106.817700000,BCA
EBC GAJAH MADA PLAZA CRM 5 GAJAH MADA PLAZA LANTAI G UNIT NO 110(GMP) JL GAJA,-6.161100000,106.817700000,BCA
EBC GAJAH MADA PLAZA CRM 6 GAJAH MADA PLAZA LANTAI G UNIT NO 110(GMP) JL GAJA,-6.161100000,106.817700000,BCA
EBC GAJAH MADA PLAZA CRM 7 GAJAH MADA PLAZA LANTAI G UNIT NO 110(GMP) JL GAJA,-6.161100000,106.817700000,BCA
EBC GAJAH MADA PLAZA CRM 8 GAJAH MADA PLAZA LANTAI G UNIT NO 110(GMP) JL GAJA,-6.161100000,106.817700000,BCA
EBC GAJAH MADA PLAZA CRM 1 GAJAH MADA PLAZA LANTAI G UNIT NO 110(GMP) JL GAJAH MADA NO 19-26 JAKARTA PUSAT,-6.161100000,106.817700000,BCA
EBC GAJAH MADA PLAZA CRM 2 GAJAH MADA PLAZA LANTAI G UNIT NO 110(GMP) JL GAJAH MADA NO 19-26 JAKARTA PUSAT,-6.161100000,106.817700000,BCA
EBC GAJAH MADA PLAZA CRM 3 GAJAH MADA PLAZA LANTAI G UNIT NO 110(GMP) JL GAJAH MADA NO 19-26 JAKARTA PUSAT,-6.161100000,106.817700000,BCA
GRAHA ROXY MAS CRM 1 KOMPLEK RUKO ROXY MAS BLOK D 1 NO 1-7 JL KH HASYIM,-6.167335000,106.803585000,BCA
"ALFAMART BALADEWA 1 JL BALADEWA NO 28, RT/RW 006/005, KEL TANAH TINGGI, KEC JOHAR BARU JAKPUS",-6.177304100,106.850419400,BCA
SPBU 34-10604 BUNGUR BESAR CRM 1 JL BUNGUR BESAR RAYA NO 103 KEMAYORAN JAKARTA,-6.167700000,106.842800000,BCA
"APARTEMEN TAMAN RASUNA JL. HR. RASUNA SAID, JAKARTA SELATAN 12960",-6.219391000,106.837350000,BCA
ITC KUNINGAN LANTAI 4 CRM 1 JL PROF DR SATRIO JAKARTA,-6.222946000,106.825215000,BCA
ITC KUNINGAN LANTAI 4 CRM 2 JL PROF DR SATRIO JAKARTA,-6.222946000,106.825215000,BCA
ITC KUNINGAN LANTAI 4 CRM 3 JL PROF DR SATRIO JAKARTA,-6.222946000,106.825215000,BCA
ITC KUNINGAN LANTAI 4 CRM 4 JL PROF DR SATRIO JAKARTA,-6.222946000,106.825215000,BCA
"HOTEL CLASSIC 2 JL. KH. SAMANHUDI NO. 43-45, JAKARTA 10710",-6.161200000,106.830000000,BCA
"ELITE CLUB EPICENTRUM CRM 1 JL EPICENTRUM UTAMA RAYA, KUNINGAN",-6.220611000,106.835167000,BCA
CERIAMART BUNGUR ( RRPP ) JAKARTA PUSAT JL BUNGUR BESAR NO. 80A GUNUNG SAHARI SELATAN JAKARTA PUSAT,-6.166800000,106.842000000,BCA
ALFAMART GEREJA AYAM JL GEREJA AYAM NO 8 KEL PASAR BARU KEC SAWAH BESAR JAKARTA PUSAT,-6.162400000,106.834400000,BCA
"PASAR PALMERAH CRM 1 JL PALMERAH BARAT, JAKARTA BARAT",-6.208149000,106.795899000,BCA
INDOMARET SALEMBA JL SALEMBA TENGAH NO 54A JAKARTA PUSAT,-6.192800000,106.854300000,BCA
CIRCLE K APARTEMEN PERMATA SENAYAN JAK0377 JL PALMERAH SELATAN KAV 20A-21 JAKARTA PUSAT,-6.210735000,106.797483000,BCA
"INDOMARET GEREJA AYAM CRM JL GEREJA AYAM NO 2B PASAR BARU, JAKPUS",-6.162400000,106.834900000,BCA
JEMBATAN LIMA CRM 1 JL KH MOCH MANSYUR 15 F - JAKARTA - 10140,-6.163784621,106.807760200,BCA
JEMBATAN LIMA CRM 2 JL KH MOCH MANSYUR 15 F - JAKARTA - 10140,-6.163784621,106.807760200,BCA
JEMBATAN LIMA CRM 3 JL KH MOCH MANSYUR 15 F - JAKARTA - 10140,-6.163784621,106.807760200,BCA
JEMBATAN LIMA CRM 4 JL KH MOCH MANSYUR 15 F - JAKARTA - 10140,-6.163784621,106.807760200,BCA
JEMBATAN LIMA CRM 5 JL KH MOCH MANSYUR 15 F - JAKARTA - 10140,-6.163784621,106.807760200,BCA
PASAR PASAR BARU CRM JL H SAMANHUDI KEL PPASAR BARU JAKARTA PUSAT,-6.161600000,106.832800000,BCA
ALFAMIDI TOMANG UTARA JL. TOMANG UTARA II NO. 47 JAKARTA BARAT,-6.170542900,106.799135100,BCA
KETAPANG CRM 1 KETAPANG INDAH BLOK A/3-4 JL KH ZAINAL ARIFIN,-6.160241000,106.818005000,BCA
KETAPANG CRM 2 KETAPANG INDAH BLOK A/3-4 JL KH ZAINAL ARIFIN,-6.160241000,106.818005000,BCA
KETAPANG CRM 3 KETAPANG INDAH BLOK A/3-4 JL KH ZAINAL ARIFIN,-6.160241000,106.818005000,BCA
KETAPANG CRM 4 KETAPANG INDAH BLOK A/3-4 JL KH ZAINAL ARIFIN,-6.160241000,106.818005000,BCA
"INDOMARET LETJEN SUPRAPTO 66 JL LETJEN SUPRAPTO NO 65 RT 1/RW 3, TANAH TINGGI, JOHAR BARU JAKA RTA PUSAT",-6.175030000,106.849900000,BCA
BURSA PONSEL CRM 1 ITC ROXY MAS LT DASAR NO 26 JAKARTA,-6.166734000,106.803043000,BCA
BURSA PONSEL CRM 2 ITC ROXY MAS LT DASAR NO 26 JAKARTA,-6.166734000,106.803043000,BCA
BURSA PONSEL CRM 3 ITC ROXY MAS LT DASAR NO 26 JAKARTA,-6.166734000,106.803043000,BCA
BURSA PONSEL CRM 4 ITC ROXY MAS LT DASAR NO 26 JAKARTA,-6.166734000,106.803043000,BCA
BURSA PONSEL CRM 5 ITC ROXY MAS LT DASAR NO 26 JAKARTA,-6.166734000,106.803043000,BCA
BURSA PONSEL CRM 6 ITC ROXY MAS LT DASAR NO 26 JAKARTA,-6.166734000,106.803043000,BCA
INDOMARET BALADEWA JL BALADEWA NO 394 JOHAR BARU JAKPUS,-6.176900000,106.851000000,BCA
"GEDUNG TOTAL 1 JL LETJEN S PARMAN KAV 106-A, JAKBAR",-6.176500000,106.794800000,BCA
KEMANGGISAN CRM 1 JL KEMANGGISAN UTAMA RAYA NO 37 JAKARTA,-6.189750000,106.790980000,BCA
KEMANGGISAN CRM 2 JL KEMANGGISAN UTAMA RAYA NO 37 JAKARTA,-6.189750000,106.790980000,BCA
KEMANGGISAN CRM 3 JL KEMANGGISAN UTAMA RAYA NO 37 JAKARTA,-6.189750000,106.790980000,BCA
TELESINDO TOWER JL GAJAH MADA RAYA NO 27A JAKARTA BARAT,-6.160000000,106.818700000,BCA
"ALFAMIDI PALMERAH UTARA CRM JL PALMERAH UTARA III NO 110 RT 09/06, PALMERAH, JAKARTA BARAT",-6.204000000,106.793300000,BCA
"SPBU BENZINE 34-10101 ZAINUL ARIFIN CRM 1 JL.DURI RAYA, JAKARTA BARAT",-6.160582000,106.815388000,BCA
B FASHION JL ARANDA NO 1 RT 001/01 TANJUNG DUREN JAKARTA BARAT,-6.182300000,106.792200000,BCA
GRAMEDIA PALMERAH JL. PALMERAH SELATAN NO. 22 - JAKARTA,-6.206700000,106.794500000,BCA
POLDA METRO JAYA CRM 2 JL JENDERAL SUDIRMAN NO 55 JAKARTA SELATAN,-6.222500000,106.813900000,BCA
POLDA METRO JAYA CRM 1 JL JENDERAL SUDIRMAN NO 55 JAKARTA SELATAN,-6.222500000,106.813900000,BCA
EBC METRO PASAR BARU CRM 1 GEDUNG METRO PASAR BARU JL SAMANHUDI JAKPUS,-6.161300000,106.833200000,BCA
EBC METRO PASAR BARU CRM 2 GEDUNG METRO PASAR BARU JL SAMANHUDI JAKPUS,-6.161300000,106.833200000,BCA
EBC METRO PASAR BARU CRM 3 GEDUNG METRO PASAR BARU JL SAMANHUDI JAKPUS,-6.161300000,106.833200000,BCA
EBC METRO PASAR BARU CRM 4 GEDUNG METRO PASAR BARU JL SAMANHUDI JAKPUS,-6.161300000,106.833200000,BCA
EBC METRO PASAR BARU CRM 5 GEDUNG METRO PASAR BARU JL SAMANHUDI JAKPUS,-6.161300000,106.833200000,BCA
EBC METRO PASAR BARU CRM 6 GEDUNG METRO PASAR BARU JL SAMANHUDI JAKPUS,-6.161300000,106.833200000,BCA
"INDOMARET SAHARJO 88 JAKSEL CRM JL DRSAHARJONO88 MENTENGATAS,SETIABUDI JAKSEL",-6.216200000,106.843900000,BCA
ALFAMIDI MATRAMAN CRM 2 JL MATRAMAN RAYA NO 33 JAKARTA TIMUR,-6.201003200,106.853792200,BCA
AMBASADOR MALL CRM 1 JL. PROF. DR. SATRIO NO.D58 KUNINGAN JAKSEL,-6.223810000,106.827150000,BCA
AMBASADOR MALL CRM 2 JL. PROF. DR. SATRIO NO.D58 KUNINGAN JAKSEL,-6.223810000,106.827150000,BCA
AMBASADOR MALL CRM 3 JL. PROF. DR. SATRIO NO.D58 KUNINGAN JAKSEL,-6.223810000,106.827150000,BCA
AMBASADOR MALL CRM 4 JL. PROF. DR. SATRIO NO.D58 KUNINGAN JAKSEL,-6.223810000,106.827150000,BCA
INDOMARET SUKARJO JL SUKARJO WIRYOPRA NO 29B JAKARTA BARAT,-6.159449000,106.819801000,BCA
"INDOMARET MANGGA BESAR IX JAKBAR JL MANGGABESAR IX NO28A TENGKI,TMNSARI,JAKBAR",-6.160600000,106.832100000,BCA
"EBC LOTTE SHOPPING AVENUE CRM 1 LOTTE SHOPPING AVENUE LT 2, JL PROF DR SATRIO NO 8 JAKARTA",-6.224200000,106.823200000,BCA
"EBC LOTTE SHOPPING AVENUE CRM 2 LOTTE SHOPPING AVENUE LT 2, JL PROF DR SATRIO NO 8 JAKARTA",-6.224200000,106.823200000,BCA
"EBC LOTTE SHOPPING AVENUE CRM 3 LOTTE SHOPPING AVENUE LT 2, JL PROF DR SATRIO NO 8 JAKARTA",-6.224200000,106.823200000,BCA
"EBC LOTTE SHOPPING AVENUE CRM 4 LOTTE SHOPPING AVENUE LT 2, JL PROF DR SATRIO NO 8 JAKARTA",-6.224200000,106.823200000,BCA
"EBC LOTTE SHOPPING AVENUE CRM 5 LOTTE SHOPPING AVENUE LT 2, JL PROF DR SATRIO NO 8 JAKARTA",-6.224200000,106.823200000,BCA
"EBC LOTTE SHOPPING AVENUE CRM 6 LOTTE SHOPPING AVENUE LT 2, JL PROF DR SATRIO NO 8 JAKARTA",-6.224200000,106.823200000,BCA
"EBC LOTTE SHOPPING AVENUE CRM 7 LOTTE SHOPPING AVENUE LT 2, JL PROF DR SATRIO NO 8 JAKARTA",-6.224200000,106.823200000,BCA
"ALFAMART LONTAR MENTENG ATAS CRM JL LONTAR RAYA NO 7, RT 09/14, MENTENG ATAS, SETIABUDI, JAKARTA SELATAN",-6.218000000,106.841900000,BCA
BANK CCBI KK. KETAPANG JL KH ZAINUL ARIFIN NO 20 TAMANSARI JAKARTA,-6.160182000,106.814884000,BCA
MENARA RAJAWALI JL. MEGA KUNINGAN LOT #5.1. - JAKARTA,-6.224213000,106.825222000,BCA
"INDOMARET KRAMAT JAYA BARU 247 CRM JL KRAMAT JAYA BARU BLOK E IX NO 247 RT008/RW010, KEL JOHAR BARU KEC JOHAR, JAKARTA PUSAT",-6.182530000,106.854160000,BCA
"EBC TAMAN ANGGREK CRM 4 JL LETJEN S PARMAN KAV 21, JAKARTA 11470",-6.180232000,106.792164000,BCA
"EBC TAMAN ANGGREK CRM 5 JL LETJEN S PARMAN KAV 21, JAKARTA 11470",-6.180232000,106.792164000,BCA
"EBC TAMAN ANGGREK CRM 6 JL LETJEN S PARMAN KAV 21, JAKARTA 11470",-6.180232000,106.792164000,BCA
"EBC TAMAN ANGGREK CRM 7 JL LETJEN S PARMAN KAV 21, JAKARTA 11470",-6.180232000,106.792164000,BCA
"EBC TAMAN ANGGREK CRM 8 JL LETJEN S PARMAN KAV 21, JAKARTA 11470",-6.180232000,106.792164000,BCA
"EBC TAMAN ANGGREK CRM 9 JL LETJEN S PARMAN KAV 21, JAKARTA 11470",-6.180232000,106.792164000,BCA
"EBC TAMAN ANGGREK CRM 10 JL LETJEN S PARMAN KAV 21, JAKARTA 11470",-6.180232000,106.792164000,BCA
"EBC TAMAN ANGGREK CRM 1 JL LETJEN S PARMAN KAV 21, JAKARTA 11470",-6.180232000,106.792164000,BCA
"EBC TAMAN ANGGREK CRM 2 JL LETJEN S PARMAN KAV 21, JAKARTA 11470",-6.180232000,106.792164000,BCA
"EBC TAMAN ANGGREK CRM 3 JL LETJEN S PARMAN KAV 21, JAKARTA 11470",-6.180232000,106.792164000,BCA
INDOMARET PALMERAH BARAT JL. PALMERAH BARAT 38 A - JAKARTA - 12210,-6.207800000,106.794300000,BCA
EBC KUNINGAN CITY CRM 1 JL PROF SATRIO KAV 18 SETIABUDI JAKSEL,-6.224215000,106.827430000,BCA
EBC KUNINGAN CITY CRM 2 JL PROF SATRIO KAV 18 SETIABUDI JAKSEL,-6.224215000,106.827430000,BCA
EBC KUNINGAN CITY CRM 3 JL PROF SATRIO KAV 18 SETIABUDI JAKSEL,-6.224215000,106.827430000,BCA
EBC KUNINGAN CITY CRM 4 JL PROF SATRIO KAV 18 SETIABUDI JAKSEL,-6.224215000,106.827430000,BCA
EBC KUNINGAN CITY CRM 5 JL PROF SATRIO KAV 18 SETIABUDI JAKSEL,-6.224215000,106.827430000,BCA
RDTX TOWER JALAN PROFESSOR DOKTOR SATRIO NO 6 JAKARTA SELATAN,-6.224585100,106.823249400,BCA
KENARI CRM 1 JL KENARI II/8 - JAKARTA - 10430,-6.200429000,106.854553000,BCA
KENARI CRM 2 JL KENARI II/8 - JAKARTA - 10430,-6.200429000,106.854553000,BCA
CIKINI GOLD CRM 1 JL PEGANGSAAN TIMUR MENTENG JAKARTA PUSAT,-6.200430000,106.854553000,BCA
CIKINI GOLD CRM 2 JL PEGANGSAAN TIMUR MENTENG JAKARTA PUSAT,-6.200430000,106.854553000,BCA
KENARI MAS CRM 1 PLAZA KENARI MAS JL KRAMAT RAYA 101 JAKPUS,-6.200430000,106.854553000,BCA
MATRAMAN CRM 2 JL MATRAMAN RAYA 14-16 - JAKARTA,-6.200430000,106.854553000,BCA
MATRAMAN CRM 3 JL MATRAMAN RAYA 14-16 - JAKARTA,-6.200430000,106.854553000,BCA
MATRAMAN CRM 4 JL MATRAMAN RAYA 14-16 - JAKARTA,-6.200430000,106.854553000,BCA
MATRAMAN CRM 5 JL MATRAMAN RAYA 14-16 - JAKARTA,-6.200430000,106.854553000,BCA
MATRAMAN CRM 6 JL MATRAMAN RAYA 14-16 - JAKARTA,-6.200430000,106.854553000,BCA
MATRAMAN CRM 7 JL MATRAMAN RAYA 14-16 - JAKARTA,-6.200430000,106.854553000,BCA
MATRAMAN CRM 8 JL MATRAMAN RAYA 14-16 - JAKARTA,-6.200430000,106.854553000,BCA
MATRAMAN CRM 9 JL MATRAMAN RAYA 14-16 - JAKARTA,-6.200430000,106.854553000,BCA
"CARREFOUR ITC KUNINGAN JL. PROF. DR. SATRIO, JAKARTA 12940",-6.224524000,106.825921000,BCA
PASAR SAWAH BESAR 1 JL SAWAH BESAR I/II KEL MAPHAR KEC TAMAN SARI JAKARTA BARAT,-6.158800000,106.820700000,BCA
"STASIUN KAI MANGGARAI JL MANGGARAI UTARA NO 1, JAKARTA SELATAN",-6.210161000,106.850346000,BCA
APARTEMEN TAMAN ANGGREK JL LET JEN S PARMAN KAV 21 TOWER  JAKBAR,-6.179200000,106.792100000,BCA
"GRAHA PARAMITA CRM 1 JL DENPASAR RAYA BLOK D2, KUNINGAN JKT",-6.223887500,106.831072700,BCA
"GRAHA PARAMITA CRM 2 JL DENPASAR RAYA BLOK D2, KUNINGAN JKT",-6.223887500,106.831072700,BCA
LOTTEMART KUNINGAN CITY JL PROF DR SATRIO KAV 18 UNIT LG -1 JAK SEL,-6.224647200,106.828043500,BCA
"MENARA MULIA CRM 1 GED MENARA MULIA, JL GATOT SUBROTO KAV 9-11",-6.224594000,106.816808000,BCA
"MENARA MULIA CRM 2 GED MENARA MULIA, JL GATOT SUBROTO KAV 9-11",-6.224594000,106.816808000,BCA
"MENARA MULIA CRM 3 GED MENARA MULIA, JL GATOT SUBROTO KAV 9-11",-6.224594000,106.816808000,BCA
"MENARA MULIA CRM 4 GED MENARA MULIA, JL GATOT SUBROTO KAV 9-11",-6.224594000,106.816808000,BCA
AMBASADOR CRM 1 RUKO MALL AMBASADOR NO 18 SETIABUDI JAKSEL,-6.224705600,106.828366300,BCA
AMBASADOR CRM 2 RUKO MALL AMBASADOR NO 18 SETIABUDI JAKSEL,-6.224705600,106.828366300,BCA
AMBASADOR CRM 3 RUKO MALL AMBASADOR NO 18 SETIABUDI JAKSEL,-6.224705600,106.828366300,BCA
AMBASADOR CRM 4 RUKO MALL AMBASADOR NO 18 SETIABUDI JAKSEL,-6.224705600,106.828366300,BCA
AMBASADOR CRM 5 RUKO MALL AMBASADOR NO 18 SETIABUDI JAKSEL,-6.224705600,106.828366300,BCA
AMBASADOR CRM 6 RUKO MALL AMBASADOR NO 18 SETIABUDI JAKSEL,-6.224705600,106.828366300,BCA
AMBASADOR CRM 7 RUKO MALL AMBASADOR NO 18 SETIABUDI JAKSEL,-6.224705600,106.828366300,BCA
AMBASADOR CRM 8 RUKO MALL AMBASADOR NO 18 SETIABUDI JAKSEL,-6.224705600,106.828366300,BCA
AMBASADOR CRM 9 RUKO MALL AMBASADOR NO 18 SETIABUDI JAKSEL,-6.224705600,106.828366300,BCA
AMBASADOR CRM 10 RUKO MALL AMBASADOR NO 18 SETIABUDI JAKSEL,-6.224705600,106.828366300,BCA
AMBASADOR CRM 11 RUKO MALL AMBASADOR NO 18 SETIABUDI JAKSEL,-6.224705600,106.828366300,BCA
"TAMAN ANGGREK 2 JL LETJEN S PARMAN KAV 21, JAKARTA 11470",-6.178476000,106.792082000,BCA
"JAKMART PASAR ASEM REGES JALAN TAMAN SARI RAYA NO 40, TAMANSARI JAKARTA BARAT",-6.158400000,106.826900000,BCA
"ROXY SQUARE 2 JL. KYAI TAPA NO. 1, JAKARTA 11440",-6.166600000,106.800400000,BCA
KREKOT BUNDER CRM 1 JL RAYA KREKOT BUNDER 58 - JAKARTA,-6.159331000,106.832051000,BCA
KREKOT BUNDER CRM 2 JL RAYA KREKOT BUNDER 58 - JAKARTA,-6.159331000,106.832051000,BCA
KREKOT BUNDER CRM 3 JL RAYA KREKOT BUNDER 58 - JAKARTA,-6.159331000,106.832051000,BCA
KREKOT BUNDER CRM 4 JL RAYA KREKOT BUNDER 58 - JAKARTA,-6.159331000,106.832051000,BCA
INDOMARET PLUS JOHAR BARU II JL PERCETAKAN NEGARA II BLOK B2 3 & 4 NO 9 KEL JOHAR BARU KEC JOHAR BARU JAKARTA PUSAT,-6.184600000,106.855700000,BCA
"SPBU COCO 34-10702 SAMANHUDI JL. SAMANHUDI NO.43-45, JAKARTA 10710",-6.160300000,106.835000000,BCA
HAYAM WURUK CRM 1 JL HAYAM WURUK 54 - JAKARTA,-6.158148000,106.819148000,BCA
HAYAM WURUK CRM 2 JL HAYAM WURUK 54 - JAKARTA,-6.158148000,106.819148000,BCA
KRAMAT JAYA BARU CRM 1 JL PERCETAKAN NEGARA II NO 16 B-C JAK PUS 10560,-6.184875000,106.855861000,BCA
KRAMAT JAYA BARU CRM 2 JL PERCETAKAN NEGARA II NO 16 B-C JAK PUS 10560,-6.184875000,106.855861000,BCA
KRAMAT JAYA BARU CRM 3 JL PERCETAKAN NEGARA II NO 16 B-C JAK PUS 10560,-6.184875000,106.855861000,BCA
KRAMAT JAYA BARU CRM 4 JL PERCETAKAN NEGARA II NO 16 B-C JAK PUS 10560,-6.184875000,106.855861000,BCA
KRAMAT JAYA BARU CRM 5 JL PERCETAKAN NEGARA II NO 16 B-C JAK PUS 10560,-6.184875000,106.855861000,BCA
INDOMARET POINT SAMANHUDI JL SAMANHUDI NO 27 PASAR BARU JAKPUS,-6.160200000,106.835100000,BCA
"ALFAMART PERCETAKAN NEGARA II JL PERCETAKAN NEGARA II NO 5, JOHAR BARU, JAKARTA PUSAT",-6.187900000,106.856400000,BCA
DURI RAYA CRM 1 JL DURI RAYA NO 37B - JAKARTA,-6.161346000,106.807803000,BCA
DURI RAYA CRM 2 JL DURI RAYA NO 37B - JAKARTA,-6.161346000,106.807803000,BCA
ALFAMART KREKOT BUNDER JL. RAYA KREKOT BUNDER  - JAKARTA - 10710,-6.159100000,106.832000000,BCA
"ALFAMART KALIBARU TIMUR V CRM JL RAYA KALIBARU TIMUR 5 NO 7 RT 11/8, BUNGUR, SENEN, JAKPUS",-6.171000000,106.849700000,BCA
INDOMARET KEPU SELATAN JL KEPU SELATAN NO 45 KEMAYORAN JAKARTA PUSAT,-6.168114000,106.847224000,BCA
INDOMARET KREKOT BUNDER (FC14) JL KREKOT BUNDER NO 68 KEL PASAR BARU KEC SAWAH BESAR JAKARTA PUSAT,-6.158800000,106.831500000,BCA
INDOMARET PRAMUKA 129 JL PRAMUKA RAYA NO 55/129 KEC SENEN JAKPUS,-6.197200000,106.856400000,BCA
INDOMARET MOCH MANSYUR 133A JL KH MOCH MANSYUR NO 133A DURI UTARA TAMBORA JAKBAR,-6.160977000,106.807976000,BCA
"ALFAMIDI JOHAR BARU CRM 1 JL PERCETAKAN NEGARA II RT 01/03, JOHAR BARU, JAKA",-6.184500000,106.856200000,BCA
"ALFAMIDI JOHAR BARU CRM 2 JL PERCETAKAN NEGARA II RT 01/03, JOHAR BARU, JAKA",-6.184500000,106.856200000,BCA
TOMANG TOL CRM 1 JL ARJUNA KAV 8 A/1 - JAKARTA,-6.184351000,106.789424000,BCA
TOMANG TOL CRM 2 JL ARJUNA KAV 8 A/1 - JAKARTA,-6.184351000,106.789424000,BCA
"INDOMARET PERCETAKAN NEGARA J15 JL PERCETAKAN NEGARA II BLOK J NO 15, JOHAR BARU, JAKARTA PUSAT",-6.183100000,106.855900000,BCA
"KH MANSYUR II, JKT CRM 1 JL KH MANSYUR 69, JAKARTA",-6.166644000,106.799381900,BCA
"KH MANSYUR II, JKT CRM 2 JL KH MANSYUR 69, JAKARTA",-6.166644000,106.799381900,BCA
"KH MANSYUR II, JKT CRM 3 JL KH MANSYUR 69, JAKARTA",-6.166644000,106.799381900,BCA
"KH MANSYUR II, JKT CRM 4 JL KH MANSYUR 69, JAKARTA",-6.166644000,106.799381900,BCA
"KH MANSYUR I, JKT CRM 1 JL KHM MANYUR 246 A & B - JAKARTA",-6.166488000,106.799377000,BCA
"KH MANSYUR I, JKT CRM 2 JL KHM MANYUR 246 A & B - JAKARTA",-6.166488000,106.799377000,BCA
"KH MANSYUR I, JKT CRM 3 JL KHM MANYUR 246 A & B - JAKARTA",-6.166488000,106.799377000,BCA
"KH MANSYUR I, JKT CRM 4 JL KHM MANYUR 246 A & B - JAKARTA",-6.166488000,106.799377000,BCA
"KH MANSYUR I, JKT CRM 5 JL KHM MANYUR 246 A & B - JAKARTA",-6.166488000,106.799377000,BCA
"GARUDA INDONESIA GUNUNG SAHARI 1 JL GUNUNG SAHARI RAYA NO 52, JAKARTA PUSAT",-6.160300000,106.836900000,BCA
"ALFAMIDI LAUTZE JL. RAYA LAUTZE, PASAR BARU, JAKARTA PUSAT",-6.158300000,106.832400000,BCA
INDOMARET TOMANG TINGGI JL TOMANGTINGGI RY NO1 GROGOL PETAMBRNJAKBAR,-6.172500000,106.793800000,BCA
INDOMARET TOMANG TINGGI 2 JL TOMANGTINGGI RY NO1 GROGOL PETAMBRNJAKBAR,-6.172500000,106.793800000,BCA
ALFAMART PALMERAH BARAT II CRM 1 JL PALMERAH BARAT NO 52A RT 03/08 KEL PALMERAH KEC PALMERAH JAKARTA BARAT,-6.207700000,106.791900000,BCA
ALFAMART LAUTZE JL LAUTZE NO 64A RT 01/05 KEL PASAR BARU KEC SAWAH BESAR JAKARTA PUSAT,-6.158300000,106.832700000,BCA
"NOBLE HOUSE 1 JL DR IDE ANAK AGUNG GDE AGUNG KAV E.4.2 NO 2, KUNINGAN TIMUR, SETIABUDI, JAKSEL",-6.226600000,106.824500000,BCA
INDOMARET CENTRAL PARK 1 JL TANJUNG DUREN RAYA KAV 5-9 JAKBAR,-6.179379000,106.790124000,BCA
BUNGUR CRM 1 JL BUNGUR BESAR RAYA 32 & 32A - JAKARTA,-6.160921000,106.839413000,BCA
BUNGUR CRM 2 JL BUNGUR BESAR RAYA 32 & 32A - JAKARTA,-6.160921000,106.839413000,BCA
BUNGUR CRM 3 JL BUNGUR BESAR RAYA 32 & 32A - JAKARTA,-6.160921000,106.839413000,BCA
BUNGUR CRM 4 JL BUNGUR BESAR RAYA 32 & 32A - JAKARTA,-6.160921000,106.839413000,BCA
BUNGUR CRM 5 JL BUNGUR BESAR RAYA 32 & 32A - JAKARTA,-6.160921000,106.839413000,BCA
"BPJS KETENAGAKERJAAN 1 GEDUNG BPJS KETENAGAKERJAAN, JL JENDERAL GATOT SUBROTO KAV 79 JAKSEL",-6.226400000,106.818000000,BCA
TAMAN SARI CRM 1 JL TAMAN SARI 47-47A - JAKARTA,-6.156950340,106.827069900,BCA
TAMAN SARI CRM 2 JL TAMAN SARI 47-47A - JAKARTA,-6.156950340,106.827069900,BCA
TAMAN SARI CRM 3 JL TAMAN SARI 47-47A - JAKARTA,-6.156950340,106.827069900,BCA
TAMAN SARI CRM 4 JL TAMAN SARI 47-47A - JAKARTA,-6.156950340,106.827069900,BCA
TAMAN SARI CRM 5 JL TAMAN SARI 47-47A - JAKARTA,-6.156950340,106.827069900,BCA
"INDOMARET GARUDA 20 ( TRLO ) JAKARTA PUSAT JL GARUDA NO 20 RT01/02, KEMAYORAN, JAKARTA PUSAT",-6.162600000,106.842300000,BCA
"GEDUNG TOTO JL S PARMAN KAV 81, JAK BAR",-6.188598000,106.787861000,BCA
HOTEL MULIA SENAYAN 1 JL ASIA AFRIKA JAKARTA,-6.214500000,106.796060000,BCA
"ALFAMIDI GURU MUGHNI CRM 1 JL GURU MUGHNI NO C4 KARET SEMANGGI, SETIABUDI",-6.226860000,106.821730000,BCA
ALFAMART GAJAH MADA II JL GAJAH MADA NO 67-68 JAKARTA BARAT,-6.156785000,106.818622000,BCA
PASAR  PRAMUKA 1 JL PRAMUKA RAYA KEL PAL MERIAM KEC MATRAMAN JAKARTA TIMUR,-6.197500000,106.857500000,BCA
PASAR  PRAMUKA 2 JL PRAMUKA RAYA KEL PAL MERIAM KEC MATRAMAN JAKARTA TIMUR,-6.197500000,106.857500000,BCA
"ALFAMIDI KEMANGGISAN CRM JL KEMANGGISAN UTAMA RAYA NO 7 RT 002/07, KEMANGGISAN, PALMERAH, JAKBAR",-6.189300000,106.787700000,BCA
INDOMARET GURU MUGHNI CRM JL. GURU MUGHNI NO.C4 - JAKARTA SELATAN,-6.226900000,106.821552000,BCA
GEDUNG ARTHA GRAHA JL JEND SUDIRMAN KAV52-53 SCBD LOT22 JAKSEL,-6.225020000,106.811350000,BCA
BURSA EFEK JKT CRM 1 JL JEND SUDIRMAN KAV 52-53 - JAKARTA,-6.224204704,106.808706700,BCA
BURSA EFEK JKT CRM 2 JL JEND SUDIRMAN KAV 52-53 - JAKARTA,-6.224204704,106.808706700,BCA
BURSA EFEK JKT CRM 3 JL JEND SUDIRMAN KAV 52-53 - JAKARTA,-6.224204704,106.808706700,BCA
BURSA EFEK JKT CRM 4 JL JEND SUDIRMAN KAV 52-53 - JAKARTA,-6.224204704,106.808706700,BCA
BURSA EFEK JKT CRM 5 JL JEND SUDIRMAN KAV 52-53 - JAKARTA,-6.224204704,106.808706700,BCA
"CARREFOUR CENTRAL PARK JL. S. PARMAN KOMP. PODOMORO, JAKARTA BARAT",-6.178511000,106.789845000,BCA
"UNIVERSITAS TRISAKTI KAMPUS B JL. KYAI TAPA, GROGOL, JAKARTA BARAT 11440",-6.167100000,106.797200000,BCA
LAWSON PERCETAKAN NEGARA JL PERCETAKAN NEGARA NO 76 JAKARTA PUSAT,-6.190100000,106.858400000,BCA
TAMAN PERMATA INDAH II CRM 4 JL KAMPUNG GUSTI RAYA TAMAN PERMATA INDAH II,-6.141788300,106.791999100,BCA
TAMAN PERMATA INDAH II CRM 5 JL KAMPUNG GUSTI RAYA TAMAN PERMATA INDAH II,-6.141788300,106.791999100,BCA
ALFAMART DANAU SUNTER III JL DANAU AGUNG JAYA 2 BLOK D1-A NO 8 JAKUT,-6.146100000,106.859700000,BCA
INDOMARET POINT FATAHILLAH JL TAMAN FATAHILLAH NO 19 PINANGSIA JAKBAR,-6.134100000,106.811600000,BCA
"ALFAMIDI TEBET TIMUR DALAM II CRM 1 JL TEBET TIMUR DALAM 135 RT 014/009, TEBET TIMUR, TEBET, JAKSEL",-6.240300000,106.855700000,BCA
INDOMARET KOPI DALAM JAKBAR CRM 1 JL KOPI NO2 RT06RW02 ROAMALAKA TAMBORA JAKBAR,-6.134300000,106.810300000,BCA
GEDONG PANJANG CRM 1 JL GEDONG PANJANG NO B4-B5 RT 001 RW 010 JAKARTA,-6.135314500,106.806312600,BCA
GEDONG PANJANG CRM 2 JL GEDONG PANJANG NO B4-B5 RT 001 RW 010 JAKARTA,-6.135314500,106.806312600,BCA
GEDONG PANJANG CRM 3 JL GEDONG PANJANG NO B4-B5 RT 001 RW 010 JAKARTA,-6.135314500,106.806312600,BCA
RS TEBET JL MT HARYONO KAV 13 JAKARTA,-6.243600000,106.850400000,BCA
"PASAR PADEMANGAN BARAT 1 JL WASPADA RAYA NO 1 RT 9/RW 10, PADEMANGAN BARAT JAKARTA UTARA",-6.135500000,106.840100000,BCA
ERAJAYA PLAZA JL BANDENGAN SELATAN NO 20 JAKARTA BARAT,-6.136000000,106.803900000,BCA
APARTEMEN TANJUNG DUREN II KENANGA CRM 1 JL TANJUNG DUREN RAYA KAV 5-9 JAKARTA BARAT,-6.136000000,106.803900000,BCA
APARTEMEN TANJUNG DUREN II JASMIN CRM 1 JL TANJUNG DUREN RAYA KAV 5-9 JAKARTA BARAT,-6.136000000,106.803900000,BCA
ALFAMART KELAPA DUA KEBON JERUK 2 JL KELAPA DUA NO 3 JAKARTA BARAT,-6.216800000,106.769600000,BCA
ALFAMART KELAPA DUA KBN JERUK JL KELAPA DUA NO 3 JAKARTA BARAT,-6.216800000,106.769600000,BCA
SUNTER DANAU CRM 1 JL DANAU AGUNG 2 BLOK E2 NO 1A SUNTER PODOMORO,-6.145858000,106.859697000,BCA
SUNTER DANAU CRM 2 JL DANAU AGUNG 2 BLOK E2 NO 1A SUNTER PODOMORO,-6.145858000,106.859697000,BCA
SUNTER DANAU CRM 3 JL DANAU AGUNG 2 BLOK E2 NO 1A SUNTER PODOMORO,-6.145858000,106.859697000,BCA
SUNTER DANAU CRM 4 JL DANAU AGUNG 2 BLOK E2 NO 1A SUNTER PODOMORO,-6.145858000,106.859697000,BCA
SUNTER DANAU CRM 5 JL DANAU AGUNG 2 BLOK E2 NO 1A SUNTER PODOMORO,-6.145858000,106.859697000,BCA
ALFAMART PANJANG CIDODOL 2 JL PANJANG NO 6 JAKARTA BARAT,-6.220900000,106.771700000,BCA
ALFAMART PANJANG CIDODOL JL PANJANG NO 6 JAKARTA BARAT,-6.220900000,106.771700000,BCA
"INDOMARET PLUS RATU KEMUNING JAKARTA BARAT JL RATU KEMUNING NO 3, KEDOYA UTARA, KEBON JERUK, JAKARTA BARAT",-6.169700000,106.768200000,BCA
"RS GRAHA MEDIKA JL RAYA PERJUANGAN, KEBON JERUK, JAKARTA",-6.190285000,106.763942000,BCA
FOOD CENTRUM KOMPLEK RUKAN PURI MUTIARA BLOK BA-BB-BC JL GRIYA UTAMA SUNTER JAKARTA UTARA,-6.141700000,106.854000000,BCA
INDOMARET HAJI TEN JL HAJI TEN RAYA NO 2 RT 006 RW 003 RAWAMANGUN PULO GADUNG JAKARTA TIMUR,-6.188900000,106.881700000,BCA
INDOMARET HAJI TEN 2 JL HAJI TEN RAYA NO 2 RT 006 RW 003 RAWAMANGUN PUL,-6.188900000,106.881700000,BCA
SPBU COCO 31.133.01 OTISTA JAKARTA JL OTISTA RAYA NO 69/71 JAKARTA TIMUR,-6.230877000,106.866918000,BCA
"MAYESTIK CRM 1 JL KIAI MAJA 77, KEBAYORAN BARU - JAKARTA",-6.241661000,106.791324000,BCA
"MAYESTIK CRM 2 JL KIAI MAJA 77, KEBAYORAN BARU - JAKARTA",-6.241661000,106.791324000,BCA
"MAYESTIK CRM 3 JL KIAI MAJA 77, KEBAYORAN BARU - JAKARTA",-6.241661000,106.791324000,BCA
"MAYESTIK CRM 4 JL KIAI MAJA 77, KEBAYORAN BARU - JAKARTA",-6.241661000,106.791324000,BCA
PASAR MAYESTIK CRM 1 JL TEBAH RAYA I LANTAI 2 NO 9 DAN 10 JAKSEL,-6.241661000,106.791324000,BCA
PASAR MAYESTIK CRM 2 JL TEBAH RAYA I LANTAI 2 NO 9 DAN 10 JAKSEL,-6.241661000,106.791324000,BCA
HOTEL 1001 JL KUNIR NO 7  KEL PINANGSIA KEC TAMAN SARI JAK BAR,-6.133200000,106.814000000,BCA
APARTEMEN THE PAKUBUWONO SIGNATURE JL PAKUBUWONO VI NO 70 GUNUNG KEB BARU JAKARTA SELATAN,-6.238429000,106.786479000,BCA
"ALFAMART PONDOK JAYA VI JL PONDOK JAYA VI NO 31 RT 006/06, PELA MAMPANG, MAMPANG PRAPATAN, JAKSEL",-6.250900000,106.821700000,BCA
"ALFAMART SUDIRMAN GARUT JL SUDIRMAN GARUT NO 24, KOTA WETAN, KAB GARUT",-6.242987100,106.852513900,BCA
"ALFAMART CISANCA SAMARANG GARUT JL RAYA SAMARANG NO 207, GARUT",-6.242987100,106.852513900,BCA
INDOMARET BAYONGBONG GARUT JL RAYA BAYONGBONG GARUT,-6.242987100,106.852513900,BCA
GRIYA UTAMA CRM 1 KOMPLEK PERKANTORAN PURI MUTIARA BLOK BD NO 1 & 2 SUNTER JAKARTA UTARA,-6.141720900,106.854775500,BCA
GRIYA UTAMA CRM 2 KOMPLEK PERKANTORAN PURI MUTIARA BLOK BD NO 1 & 2 SUNTER JAKARTA UTARA,-6.141720900,106.854775500,BCA
GRIYA UTAMA CRM 3 KOMPLEK PERKANTORAN PURI MUTIARA BLOK BD NO 1 & 2 SUNTER JAKARTA UTARA,-6.141720900,106.854775500,BCA
GRIYA UTAMA CRM 4 KOMPLEK PERKANTORAN PURI MUTIARA BLOK BD NO 1 & 2 SUNTER JAKARTA UTARA,-6.141720900,106.854775500,BCA
"ALFAMART OTISTA RAYA III JL OTTO ISKANDARDINATA NO 151, JATINEGARA",-6.211600000,106.878700000,BCA
"ALFAMART PERJUANGAN KEBON JERUK JL PERJUANGAN NO 12, KEDOYA UTARA, KEBON JERUK, JAKARTA BARAT",-6.195000000,106.763500000,BCA
INDOMARET DELTAMAS JL BANDENGAN SELATAN NO 43 RT 01 RW 02 PEJAGALAN PENJARINGAN JAKARTA UTARA,-6.136800000,106.800000000,BCA
ALFAMIDI PANGLIMA POLIM CRM 1 JL. PANGLIMA POLIM 9 NO.20 JAKARTA SELATAN,-6.245710000,106.797874000,BCA
ALFAMIDI PANGLIMA POLIM CRM 2 JL. PANGLIMA POLIM 9 NO.20 JAKARTA SELATAN,-6.245710000,106.797874000,BCA
"INDOMARET PLUS TAMAN KEDOYA PT ANEKA ELOK BLK I NO 11&12 KEDOYA SELATAN, KEBON JERUK, JAKARTA BARAT",-6.189500000,106.763400000,BCA
SPBU 34-13209 PEMUDA JL PEMUDA NO 40-41 RAWAMANGUN JAKTIM,-6.192200000,106.882300000,BCA
"D""COST SUNTER 1 JL DANAU SUNTER BARAT BLOK A3 NO 2, JAKARTA UTARA",-6.143300000,106.857500000,BCA
GEDUNG GOZCO 1 JALAN RAYA PASAR MINGGU KAV 32 PANCORAN - JAKARTA SELATAN,-6.247800000,106.842900000,BCA
"GRAHA KAS KEBAYORAN 1 JL KEBAYORAN BARU KOMPLEKS RUKO PERKANTORAN KEBAYORAN BARU MALL NO 88, KELURAHAN GUNUNG, KECAMATAN KEBAYORAN BARU, JAKARTA SELATAN",-6.238400000,106.785800000,BCA
ALFAMART AMPERA RAYA III JL BUDI MULIA NO 8 B-C JAKARTA UTARA,-6.134014000,106.837705000,BCA
ALFAMART AMPERA RAYA III 2 JL BUDI MULIA NO 8 B-C JAKARTA UTARA,-6.134014000,106.837705000,BCA
"ALFAMART ASEM BARIS III JL ASEM BARIS NO 146, RT11/12, KEBON BARU, TEBET, JAKARTA SELATAN",-6.238100000,106.860200000,BCA
PURI DELTA MAS CRM 1 RUKO PURI DELTA MAS BLOK J-5 JL BANDENGAN SEL,-6.136940000,106.799283000,BCA
PURI DELTA MAS CRM 2 RUKO PURI DELTA MAS BLOK J-5 JL BANDENGAN SEL,-6.136940000,106.799283000,BCA
"INDOMARET JELAMBAR CRM JL JELAMBAR BARAT II NO 2 , JELAMBAR BARU, JAKARTA BARAT",-6.145782000,106.784772000,BCA
"INDOMARET GRIYA SUNTER A25-26 1 JL GRIYA SUNTER A NO 25-26, SUNTER AGUNG, TANJUNG PRIOK",-6.141100000,106.854400000,BCA
"ALFAMIDI BACANG RAYA (AHMAD DAHLAN) JL BACANG NO 1 RT 1/1, KRAMAT PELA, KEBAYORAN BARU, JAKSEL",-6.242600000,106.791600000,BCA
"SUPERINDO SUNRISE JL. ARTERI KEDOYA BLOK XX NO. 6, JAKARTA",-6.174300000,106.765700000,BCA
"CARREFOUR EXPRESS MERUYA JL. MERUYA ILIR NO. 29, JAKARTA",-6.174300000,106.765700000,BCA
"ALFAMIDI RATU KEMUNING JL SURYA WIJAYA NO 32 A-B, RT15/17, KEDOYA UTARA, KEBON JERUK, JAKARTA BARAT",-6.170200000,106.767100000,BCA
"ALFAMART PANCORAN BARAT JL PANCORAN BARAT VII NO 22 PANCORAN, JAKSEL",-6.249930000,106.836350000,BCA
ALFAMART JELAMBAR BARAT JL JELAMBAR BARAT III NO 5 & 5A JAKARTA BARAT,-6.145550000,106.784783000,BCA
"INDOMARET GRIYA SUNTER A25-26 2 JL GRIYA SUNTER A NO 25-26, SUNTER AGUNG, TANJUNG PRIOK",-6.140500000,106.853700000,BCA
"ALFAMIDI PERJUANGAN CRM 1 JL PERJUANGAN RT 9/10, KEBON JERUK, KEBON JERUK JA",-6.193761000,106.762972000,BCA
BANK CCBI KK SUNTER RUKO PURI MUTIARA SUNTER JL GRIYA UTAMA JKT,-6.142600000,106.857100000,BCA
"INDOMARET TAMAN RATU 22 1 JL TAMAN RATU INDAH BLOK D1/22 RT6/8, DURI KEPA,KEBON JERUK, JAKARTA BARAT",-6.168697800,106.767487000,BCA
"INDOMARET DANAU AGUNG SUNTER JL DANAU AGUNG BLOK D NO 24, SUNTER AGUNG JAKARTA UTARA",-6.145300000,106.860800000,BCA
"BLOK M CRM 1 JL MELAWAI RAYA NO 165 BLOK C 1-3, JAKSEL",-6.245919000,106.796992000,BCA
"BLOK M CRM 2 JL MELAWAI RAYA NO 165 BLOK C 1-3, JAKSEL",-6.245919000,106.796992000,BCA
"BLOK M CRM 3 JL MELAWAI RAYA NO 165 BLOK C 1-3, JAKSEL",-6.245919000,106.796992000,BCA
"BLOK M CRM 4 JL MELAWAI RAYA NO 165 BLOK C 1-3, JAKSEL",-6.245919000,106.796992000,BCA
"BLOK M CRM 5 JL MELAWAI RAYA NO 165 BLOK C 1-3, JAKSEL",-6.245919000,106.796992000,BCA
"BLOK M CRM 6 JL MELAWAI RAYA NO 165 BLOK C 1-3, JAKSEL",-6.245919000,106.796992000,BCA
"BLOK M CRM 7 JL MELAWAI RAYA NO 165 BLOK C 1-3, JAKSEL",-6.245919000,106.796992000,BCA
"BLOK M CRM 8 JL MELAWAI RAYA NO 165 BLOK C 1-3, JAKSEL",-6.245919000,106.796992000,BCA
"BLOK M CRM 9 JL MELAWAI RAYA NO 165 BLOK C 1-3, JAKSEL",-6.245919000,106.796992000,BCA
"INDOMARET KEBAYORAN LAMA III JAKARTA BARAT JL KEBAYORAN LAM ( EX MM CANDI) RT11/01 NO 227, JAKARTA BARAT",-6.234000000,106.780200000,BCA
"SPBU 34-14305 SUNTER CRM 1 JL SUNTER KEMAYORAN NO 45 RT001/RW009 SUNTER JAYA, TANJUNG PRIOK JAKARTA",-6.162123000,106.875095000,BCA
INDOMARET ARWANA 2 JL ARWANA 5 NO 1 JAKARTA UTARA,-6.137072000,106.797623000,BCA
INDOMARET ARWANA JL ARWANA 5 NO 1 JAKARTA UTARA,-6.137072000,106.797623000,BCA
"KEBAYORAN BARU CRM 1 JL MELAWAI RY BLOK B III RT 007/ RW 005, KEBAYORAN BARU",-6.245924000,106.796635000,BCA
"KEBAYORAN BARU CRM 2 JL MELAWAI RY BLOK B III RT 007/ RW 005, KEBAYORAN BARU",-6.245924000,106.796635000,BCA
"KEBAYORAN BARU CRM 3 JL MELAWAI RY BLOK B III RT 007/ RW 005, KEBAYORAN BARU",-6.245924000,106.796635000,BCA
ALFAMART PANJANG CIDODOL X CRM JL PANJANG NO 10 KEL SUKABUMI SELATAN KEC KEBON JERUK JAKARTA BAR AT,-6.225500000,106.773000000,BCA
"INDOMARET PENDAWA CRM JL BEKASI TIMUR VI NO 4 RT9/RW9, CIPINANG BESAR UTARA, JATINEGARA JAKARTA TIMUR",-6.219300000,106.876310000,BCA
"ALFAMART PERJUANGAN KEBON JERUK II JL PERJUANGAN NO 31, RT07/07, KEBON JERUK, JAKARTA BARAT",-6.192300000,106.762600000,BCA
CENGKEH CRM 1 JL CENGKEH NO 21-21 A JAKARTA BARAT,-6.132281000,106.812373000,BCA
CENGKEH CRM 2 JL CENGKEH NO 21-21 A JAKARTA BARAT,-6.132281000,106.812373000,BCA
CENGKEH CRM 3 JL CENGKEH NO 21-21 A JAKARTA BARAT,-6.132281000,106.812373000,BCA
CENGKEH CRM 4 JL CENGKEH NO 21-21 A JAKARTA BARAT,-6.132281000,106.812373000,BCA
"CIRCLE K GANDARIA I JL GANDARIA TENGAH II, KEBAYORAN BARU, JAKSEL",-6.243573000,106.791794000,BCA
"INDOMARET KEDOYA DURI JL KEDOYA AZALEA XII BLOK A2 NO12, RT1/RW4, KEDOYA SEL, KB. JERUK, JAKBAR",-6.181800000,106.763100000,BCA
"LODAN CENTER CRM 1 RUKO LODAN CENTER ANCOL, BLOK O NO 6-7, JAKUT",-6.131194000,106.818996000,BCA
"LODAN CENTER CRM 2 RUKO LODAN CENTER ANCOL, BLOK O NO 6-7, JAKUT",-6.131194000,106.818996000,BCA
CARREFOUR CEMPAKA MAS JL LETJENDSUPRAPTORY KOMP NIAGACMPKAMASJKT,-6.164487000,106.877069000,BCA
ALFAMART BENTENGAN II 2 JL BENTENGAN 2 JAKARTA UTARA,-6.150300000,106.867300000,BCA
ALFAMART BENTENGAN II JL BENTENGAN 2 JAKARTA UTARA,-6.150294300,106.867315700,BCA
ALFAMART M SAARI SUNTER JL M SAARI NO 17 RT 04/09 SUNTER JAYA JAKUT,-6.161000000,106.875400000,BCA
"BUSINESS PARK CRM 1 RUKAN BUSINESS PARK, JL MERUYA ILIR NO 88 JKT",-6.198311000,106.762251000,BCA
"BUSINESS PARK CRM 2 RUKAN BUSINESS PARK, JL MERUYA ILIR NO 88 JKT",-6.198311000,106.762251000,BCA
"BUSINESS PARK CRM 3 RUKAN BUSINESS PARK, JL MERUYA ILIR NO 88 JKT",-6.198311000,106.762251000,BCA
ALFAMART GADING RAYA JL GADING RAYA NO 4 JAKARTA TIMUR,-6.207532000,106.881639000,BCA
ALFAMART PAUS RAWAMANGUN JL PAUS RAWAMANGUN NO 10C KEL RAWAMANGUN KEC PULO GADUNG JAKARTA TIMUR,-6.211081000,106.880656000,BCA
"ALFAMART RICH PALACE MERUYA ILIR RUKO RICH PALACE BELMOND, SRENGSENG, KEMBANGAN, JAKARTA BARAT",-6.199500000,106.762200000,BCA
RS JAKARTA EYE CENTER KEDOYA JL ARJUNA UTARA NO 1 JAKARTA BARAT,-6.189500000,106.761700000,BCA
APOTIK RINI BALAI PUSTAKA JL. BALAI PUSTAKA TIMUR II JAKARTA 13220,-6.199963000,106.883467700,BCA
"ALFAMART BANDENGAN UTARA GG LANGGAR 45 RT05/12, PEKOJAN, TAMBORA, JAKARTA BARAT",-6.133600000,106.803300000,BCA
"PEJAGALAN CRM 1 JL PEJAGALAN I NO 3 RT 010/ RW 04, PEKOJAN, TAMBORA, JAKARTA BARAT",-6.132330000,106.807584000,BCA
"PEJAGALAN CRM 2 JL PEJAGALAN I NO 3 RT 010/ RW 04, PEKOJAN, TAMBORA, JAKARTA BARAT",-6.132330000,106.807584000,BCA
"INDOMARET KAYU JATI VIII CRM JL KAYU JATI RAYA, RAWAMANGUN, JAKARTA TIMUR",-6.191400000,106.884100000,BCA
JEMBATAN DUA CRM 1 JL JEMBATAN DUA 82 BB-BC JAKARTA UTARA,-6.137820000,106.793331000,BCA
JEMBATAN DUA CRM 2 JL JEMBATAN DUA 82 BB-BC JAKARTA UTARA,-6.137820000,106.793331000,BCA
JEMBATAN DUA CRM 3 JL JEMBATAN DUA 82 BB-BC JAKARTA UTARA,-6.137820000,106.793331000,BCA
JEMBATAN DUA CRM 4 JL JEMBATAN DUA 82 BB-BC JAKARTA UTARA,-6.137820000,106.793331000,BCA
"BUNDA MULIA LODAN JL. LODAN, ANCOL",-6.130400000,106.818700000,BCA
PASAR KABAYORAN LAMA CRM 1 JL KEBAYORAN LAMA 174 JAKARTA SELATAN,-6.236128400,106.780366200,BCA
PASAR KABAYORAN LAMA CRM 2 JL KEBAYORAN LAMA 174 JAKARTA SELATAN,-6.236128400,106.780366200,BCA
PASAR KABAYORAN LAMA CRM 3 JL KEBAYORAN LAMA 174 JAKARTA SELATAN,-6.236128400,106.780366200,BCA
PASAR KABAYORAN LAMA CRM 4 JL KEBAYORAN LAMA 174 JAKARTA SELATAN,-6.236128400,106.780366200,BCA
PASAR KABAYORAN LAMA CRM 5 JL KEBAYORAN LAMA 174 JAKARTA SELATAN,-6.236128400,106.780366200,BCA
HOTEL LEISURE INN ARION LAND CRM 1 JL PEMUDA KAV 17 RT2/RW7 RAWAMANGUN JAKARTA TIMUR,-6.193662900,106.884237100,BCA
CIRCLE K KAYU JATI JL. KAYU JATI RAYA NO. 14. RAWAMANGUN,-6.190400000,106.884300000,BCA
OTISTA CRM 1 JL OTTO ISKANDAR DINATA NO 109 JAKARTA TIMUR,-6.233932200,106.867615200,BCA
OTISTA CRM 2 JL OTTO ISKANDAR DINATA NO 109 JAKARTA TIMUR,-6.233932200,106.867615200,BCA
OTISTA CRM 3 JL OTTO ISKANDAR DINATA NO 109 JAKARTA TIMUR,-6.233932200,106.867615200,BCA
OTISTA CRM 4 JL OTTO ISKANDAR DINATA NO 109 JAKARTA TIMUR,-6.233932200,106.867615200,BCA
OTISTA CRM 5 JL OTTO ISKANDAR DINATA NO 109 JAKARTA TIMUR,-6.233932200,106.867615200,BCA
TIANG BENDERA CRM 3 JL TIANG BENDERA V NO 42 L-M TAMBORA JAKBAR,-6.132102000,106.807090000,BCA
TIANG BENDERA CRM 1 JL TIANG BENDERA V NO 42 L-M TAMBORA JAKBAR,-6.132102000,106.807090000,BCA
TIANG BENDERA CRM 2 JL TIANG BENDERA V NO 42 L-M TAMBORA JAKBAR,-6.132102000,106.807090000,BCA
INDOMARET PONDASI JL PONDASI RAYA BLOK M KAV NO 368 KAYU PUTIH PULO GADUNG JAKARTA TIMUR,-6.184600000,106.884000000,BCA
LAWSON BUNDA MULIA JL LODAN RAYA NO 2 KEL ANCOL JAKARTA UTARA,-6.130184000,106.818098000,BCA
PASAR KABAYORAN LAMA CRM 6 JL KEBAYORAN LAMA 174 JAKARTA SELATAN,-6.230696300,106.774937800,BCA
RSB GRAHA KEDOYA JL. PANJANG NO. 26 ARTERI KEDOYA,-6.169096000,106.765373000,BCA
"SOHO MARKET RAWAMANGUN JL SUNAN DRAJAT NO 21, RAWAMANGUN, JAKARTA TIMUR",-6.195668400,106.884433300,BCA
"ALFAMART PADEMANGAN VI JL PADEMANGAN VI RAYA RT 015 / RW 001, JAKUT",-6.133560000,106.843848000,BCA
"ALFAMART KRAMAT ASEM II JL KRAMAT ASEM, UTAN KAYU SELATAN, MATRAMAN",-6.231800000,106.870000000,BCA
ALFAMART OTISTA 3 - II JAKTIM JL OTISA III NO 27 RT 02/07 CIPINANG CEMPEDAK JATINEGARA JAKTIM,-6.231800000,106.870000000,BCA
"ALFAMART ASEM BARIS II JL ASEM BARIS NO 12, RT06/14, KEBON BARU, TEBET, JAKARTA SELATAN",-6.241000000,106.860400000,BCA
ANCOL I CRM 1 JL PARANG TRITIS BLOK A VI NO3B-3C - JAKARTA,-6.129692000,106.821597000,BCA
ANCOL I CRM 2 JL PARANG TRITIS BLOK A VI NO3B-3C - JAKARTA,-6.129692000,106.821597000,BCA
ANCOL I CRM 3 JL PARANG TRITIS BLOK A VI NO3B-3C - JAKARTA,-6.129692000,106.821597000,BCA
INDOMARET SUNRISE GARDEN ( T3L4 ) JAKBAR KOMP SUNRISE GARDEN BLK A IV NO 11 JAKBAR,-6.169200000,106.764900000,BCA
ALFAMART J553 PULO MAS JL PULO MAS BARAT VI NO 81 RT 012/011 JAKTIM,-6.180500000,106.883900000,BCA
"INDOMARET KEBON MANGGA JAKSEL JL KEBON MANGGA 1, CIPULIR, KEB LAMA, JAKSEL",-6.234400000,106.777500000,BCA
"RS OMNI MEDICAL CENTER JL. PULOMAS BARAT VI NO. 20, JAKARTA 13210",-6.180300000,106.884100000,BCA
INDOMARET KH AHMAD DAHLAN CRM 1 JL KH ACHMAD DAHLAN KRAMAT PELA BARU JAKSEL,-6.245942000,106.791924000,BCA
INDOMARET KH AHMAD DAHLAN CRM 2 JL KH ACHMAD DAHLAN KRAMAT PELA BARU JAKSEL,-6.245942000,106.791924000,BCA
"ALFAMIDI DUREN TIGA RAYA JL DUREN TIGA RAYA NO 38 B, DUREN TIGA, PANCORAN, JAKSEL",-6.254000000,106.828400000,BCA
PASAR KEBAYORAN LAMA 1 JL RAYA KEBAYORAN LAMA KEL GROGOL UTARA KEC KEBAYORAN LAMA JAKARTA SELATAN,-6.237300000,106.780000000,BCA
"INDOMARET SUNTER HIJAU 2 JL SUNTER HIJAU BLOKT 1 NO 4 SUNTER JAYA, JAKARTA UTARA",-6.156720000,106.874678000,BCA
"INDOMARET SUNTER HIJAU JL SUNTER HIJAU BLOKT 1 NO 4 SUNTER JAYA, JAKARTA UTARA",-6.156720000,106.874678000,BCA
INDOMARET DANAU AGUNG 10 DANAU AGUNG 2 NO 50 BLOK E-10 KAV NO 1 KEL SUNTER AGUNG KEC TANJUNG PRIOK JAKARTA UTARA,-6.144500000,106.863900000,BCA
"SUPERINDO KELAPA DUA 1 JL. VILA KELAPA DUA, JOGLO, JAKARTA",-6.216800000,106.765400000,BCA
"SUPERINDO KELAPA DUA 2 JL. VILA KELAPA DUA, JOGLO, JAKARTA",-6.216517000,106.765270000,BCA
"INDOMARET KEMANG UTARA IX JAKSEL JL KEMANG UTARA IX RT4RW1 DURENTIGA, PANCORAN, JAKSEL",-6.254300000,106.827000000,BCA
SUPERINDO DUREN TIGA JL PASAR MINGGU PANCORAN JAKARTA SELATAN,-6.251275000,106.842719000,BCA
"ILP PASAR MINGGU JL.RAYA PASAR MINGGU NO. 39A, JAKARTA 12780",-6.251285000,106.842763000,BCA
"TAMAN IMPIAN JAYA ANCOL CRM 1 JL LODAN RAYA, ANCOL, PADEMANGAN",-6.129409700,106.831043900,BCA
ALFAMART LAPANGAN BOLA JL LAPANGAN BOLA NO 56 RT 01/01 KEL SRENGSENG KEC KEMBANGAN JAKARTA BARAT,-6.200400000,106.760600000,BCA
"ALFAMART JELAMBAR FAJAR 2 JL FAJAR NO 79, KEC PENJARINGAN, JAKUT",-6.143561000,106.782372000,BCA
"ALFAMART JELAMBAR FAJAR JL FAJAR NO. 79, KEC PENJARINGAN, JAKUT",-6.143561000,106.782372000,BCA
APARTEMEN MEDITERANIA MARINA RESIDENCE JL. LODAN RAYA 2 JAKARTA,-6.129100000,106.829000000,BCA
INDOMARET PADEMANGAN TIMUR JL. RAYA PADEMANGAN IV NO. 69 - JAKARTA,-6.132767000,106.844801000,BCA
"INDOMARET DANAU SUNTER UTARA RAYA 36 A JL DANAU SUNTER UTARA RAYA BLOK A 36 A NO 2, SUNTER AGUNG, TANJUNG PRIOK, JAKARTA UTARA",-6.139800000,106.858500000,BCA
INDOMARET KEBAYORAN LAMA 1 JL RAYA KEBAYORAN LAMA JAKARTA SELATAN,-6.238274000,106.780330000,BCA
SPBU COCO 3412114 GANDARIA JAKSEL CRM JL GANDARIA 1 KAV 27-28 JAKARTA SELATAN,-6.244267800,106.787994900,BCA
"ALFAMART TERUSAN BANDENGAN UTARA CRM 1 JLTERUSAN BANDENGAN UTARA NO3,KEC PENJARINGAN",-6.137641000,106.790173000,BCA
"MENARA HIJAU JL. MT. HARYONO KAV. 33, JAKARTA 12770",-6.244363000,106.857795000,BCA
INDOMARET PLUS TERUSAN BANDENGAN JL TERUSAN BANDENGAN UTARA NO A7 PEJAGALAN PEJAGALAN JAKARTA UTARA,-6.137120000,106.790820000,BCA
INDOMARET TAMAN PERMATA INDAH II PERUM TPI 1. JL KEBON PALA NO 12A PENJARINGAN,-6.143400000,106.781900000,BCA
HS HOUSE 2 JL PANCORAN TIMUR RAYA NO 35 PERDATAM JAKSEL,-6.249445000,106.848789000,BCA
HS HOUSE JL PANCORAN TIMUR RAYA NO 35 PERDATAM JAKSEL,-6.249445000,106.848789000,BCA
HS HOUSE 3 JL PANCORAN TIMUR RAYA NO 35 PERDATAM JAKSEL,-6.249445000,106.848789000,BCA
TAMAN DUTA MAS CRM 1 JL TUBAGUS ANGKE NO 10 ABC & 11 H JAK BAR,-6.144256300,106.780865200,BCA
TAMAN DUTA MAS CRM 2 JL TUBAGUS ANGKE NO 10 ABC & 11 H JAK BAR,-6.144256300,106.780865200,BCA
TAMAN DUTA MAS CRM 3 JL TUBAGUS ANGKE NO 10 ABC & 11 H JAK BAR,-6.144256300,106.780865200,BCA
TAMAN DUTA MAS CRM 4 JL TUBAGUS ANGKE NO 10 ABC & 11 H JAK BAR,-6.144256300,106.780865200,BCA
TAMAN DUTA MAS CRM 5 JL TUBAGUS ANGKE NO 10 ABC & 11 H JAK BAR,-6.144256300,106.780865200,BCA
TAMAN DUTA MAS CRM 6 JL TUBAGUS ANGKE NO 10 ABC & 11 H JAK BAR,-6.144256300,106.780865200,BCA
TAMAN DUTA MAS CRM 7 JL TUBAGUS ANGKE NO 10 ABC & 11 H JAK BAR,-6.144256300,106.780865200,BCA
"THE RESIDENCES AT DARMAWANGSA 1 JL DARMAWANGSA VIII NO 26 KEBAYORAN BARU, JAKARTA SELATAN",-6.252385000,106.804445200,BCA
"ISKANDAR MUDA, JKT CRM 2 JL ARTERI PONDOK INDAH KAV 80/1-2 - JAKARTA",-6.240759000,106.782661000,BCA
"ISKANDAR MUDA, JKT CRM 1 JL ARTERI PONDOK INDAH KAV 80/1-2 - JAKARTA",-6.240759000,106.782661000,BCA
"ISKANDAR MUDA, JKT CRM 3 JL ARTERI PONDOK INDAH KAV 80/1-2 - JAKARTA",-6.240759000,106.782661000,BCA
"ALFAMART MERUYA ILIR IV JL MERUYA ILIR NO 33 RT 002/001, SRENGSENG, KEMBANGAN",-6.198452200,106.759802400,BCA
INDOMARET PLUS SUNRISE GARDEN ( TJJE ) JAKBAR 2 KOMP SUNRISE GARDEN SURYA SARANAJAKBAR,-6.175300000,106.761600000,BCA
INDOMARET PLUS SUNRISE GARDEN ( TJJE ) JAKBAR KOMP SUNRISE GARDEN SURYA SARANAJAKBAR,-6.175300000,106.761600000,BCA
ALFAMART BALAI PUSTAKA BARU JL BALAI PUSTAKA BARU NO 17 RT 04/15 RAWAMANGUN JAKTIM,-6.195000000,106.886100000,BCA
INDOMARET TELUK GONG 2 JL RAYA TELUK GONG NO12 JAKARTA UTARA,-6.137700000,106.789400000,BCA
INDOMARET TELUK GONG JL RAYA TELUK GONG NO12 JAKARTA UTARA,-6.137700000,106.789400000,BCA
"INDOMARET KAYU JATI JL. KAYU JATI V NO. 46, RT.11 RW.05 JAKTIM",-6.191100000,106.886300000,BCA
INDOMARET OTISTA III 2 JL OTISTA II NO 30A JATINEGARA JAKTIM,-6.200900000,106.885700000,BCA
INDOMARET PENGADEGAN UTARA CRM JL PENGADEGAN UTARA NO08 KELPENGADEGAN KECPANCORAN,-6.246600000,106.855000000,BCA
INDOMARET HYBRID BANGKA 5B JAKSEL JL BANGKARAYA NO5 RT13 RW01 KEL BANGKA KEC MAMPANGPRAPATAN - JAKSEL,-6.254900000,106.814700000,BCA
SUNRISE GARDEN CRM 3 JL SURYA UTAMA BLOK V/31 - JAKARTA,-6.171334000,106.762478000,BCA
SUNRISE GARDEN CRM 1 JL SURYA UTAMA BLOK V/31 - JAKARTA,-6.171334000,106.762478000,BCA
SUNRISE GARDEN CRM 2 JL SURYA UTAMA BLOK V/31 - JAKARTA,-6.171334000,106.762478000,BCA
APARTEMEN 1 PARK RESIDENCE JL KI HAJI SYAFEI HAZAMI,-6.245200000,106.788100000,BCA
BALAI PUSTAKA CRM 1 JL BALAI PUSTAKA TIMUR BLOK J NO 225-C/3 JAKARTA,-6.201508000,106.885775000,BCA
BALAI PUSTAKA CRM 2 JL BALAI PUSTAKA TIMUR BLOK J NO 225-C/3 JAKARTA,-6.201508000,106.885775000,BCA
INDOMARET PANJANG CIDODOL JL PANJANG CIDODOL RT005RW13 KEBLAMA JAKSEL,-6.230145000,106.771928000,BCA
"INDOMARET PANJANG CIDODOL 2 JAKSEL JL PANJANGCIDODOL NO6 RT014 RW006 GROGOLSELATAN, KEBAYORAN LAMA, JAKSEL",-6.230145000,106.771928000,BCA
"CIRCLE K BALAI PUSTAKA JL PINANG NO18 RT001 RW09, RAWAMANGUN,PULO GADUNG,JAKTIM",-6.197900000,106.886300000,BCA
ALFAMIDI KEBON KELAPA CRM 1 JL KBONKLPA RYNO3RT001/011KELU KAYUSLTNJAKTIM,-6.197900000,106.886300000,BCA
ALFAMART PENGADEGAN UTARA 2 JL PENGADEGAN UTARA RAYA NO 6 JAKARTA SELATAN,-6.246700000,106.855300000,BCA
ALFAMART PENGADEGAN UTARA JL PENGADEGAN UTARA RAYA NO 6 JAKARTA SELATAN,-6.246700000,106.855300000,BCA
INDOFOOD ANCOL JL ANCOL I NO 4-5 ANCOL BARAT JAKARTA UTARA,-6.127900000,106.818700000,BCA
INDOMARET DUREN TIGA RAYA (TU0I) JL RAYA DUREN TIGA NO12A KEL DUREN TIGA KEC PANCORAN JAKSEL,-6.253200000,106.840400000,BCA
"ALFAMART AMPERA RAYA II JL. BUDI MULIA 15 RT. 006, RW. 11, PADEMANGAN BARAT, PADEMANGAN, JAKARTA UTARA",-6.130749000,106.842174000,BCA
INDOMARET BUDI MULIA 75 JL BUDI MULIA NO 75 RT006 RW011 JAKUT,-6.130600000,106.841900000,BCA
"TIP-TOP RAWAMANGUN JL RY BALAI PUSTAKA TIMUR 31-35, RAWAMANGUN",-6.200867000,106.886202000,BCA
"ALFAMART TERUSAN BANDENGAN UTARA BIDARA JL TERUSAN BANDENGAN UTARA NO 3-4 RT 005/016, PEJAGALAN, PENJARINGAN",-6.137800000,106.788000000,BCA
SUNTER CRM 1 JL AGUNG UTARA RAYA BA 360D/50-51SUNTERAGUNG,-6.139354000,106.859983000,BCA
SUNTER CRM 2 JL AGUNG UTARA RAYA BA 360D/50-51SUNTERAGUNG,-6.139354000,106.859983000,BCA
"SUNTER CRM 5 JL DANAU SUNTER UTARA BLOK A KAV NO 3, SUNTER AGUNG, JAKARTA",-6.139354000,106.859983000,BCA
"SUNTER CRM 6 JL DANAU SUNTER UTARA BLOK A KAV NO 3, SUNTER AGUNG, JAKARTA",-6.139354000,106.859983000,BCA
"ALFAMART DUREN TIGA II JL DUREN TIGA NO 88 RT 1/1, PANCORAN, PANCORAN, JAKSEL",-6.253600000,106.840000000,BCA
"MALL @ BASSURA CRM 1 JL JEND BASUKI RACHMAT NO 1A, JAKARTA",-6.224900000,106.877800000,BCA
"MALL @ BASSURA CRM 2 JL JEND BASUKI RACHMAT NO 1A, JAKARTA",-6.224900000,106.877800000,BCA
"MALL @ BASSURA CRM 5 JL JEND BASUKI RACHMAT NO 1A, JAKARTA",-6.224900000,106.877800000,BCA
"ALFAMART GANDARIA III JL GANDARIA 1/41 RT 2/3, KRAMAT PELA, KEBAYORAN BARU, JAKSEL",-6.246900000,106.789800000,BCA
"KEDOYA PERMAI CRM 2 RUKO TAMAN KEDOYA PERMAI, BLOK A 1A NO 4-5",-6.191017000,106.758536000,BCA
"KEDOYA PERMAI CRM 3 RUKO TAMAN KEDOYA PERMAI, BLOK A 1A NO 4-5",-6.191017000,106.758536000,BCA
"KEDOYA PERMAI CRM 4 RUKO TAMAN KEDOYA PERMAI, BLOK A 1A NO 4-5",-6.191017000,106.758536000,BCA
"KEDOYA PERMAI CRM 5 RUKO TAMAN KEDOYA PERMAI, BLOK A 1A NO 4-5",-6.191017000,106.758536000,BCA
"KEDOYA PERMAI CRM 1 RUKO TAMAN KEDOYA PERMAI, BLOK A 1A NO 4-5",-6.191017000,106.758536000,BCA
"METRO PERMATA CRM 4 KOMP METRO PERMATA, JL RADEN SALEH BLOK A2/1",-6.191017000,106.758536000,BCA
ALFAMART TELUK GONG III 2 JL V NO 3B RT 03/06 KEL PEJAGALAN KEC PENJARINGAN JAKARTA UTARA,-6.138818000,106.786120000,BCA
ALFAMART TELUK GONG III JL V NO 3B RT 03/06 KEL PEJAGALAN KEC PENJARINGAN JAKARTA UTARA,-6.138818000,106.786120000,BCA
"ALFAMART SUNTER KIRANA JL SUNTER KIRANA BLOK NB2 NO 01, SUNTER JAYA, TANJUNG PRIOK, JAKARTA UTARA",-6.158600000,106.878000000,BCA
"ALFAMART H KELIK II JL H KELIK RT 01/06, SRENGSENG, KEMBANGAN, JAKBAR",-6.209300000,106.760800000,BCA
MEDIA INDONESIA CRM JL PILAR MAS RYKAVAD KEDOYAKEBJERUK JAKBAR,-6.185000000,106.758600000,BCA
"KEMANG MANSION CRM 1 JL KEMANG RAYA NO 3-5, JAKSEL",-6.255055000,106.810022000,BCA
"KEMANG MANSION CRM 2 JL KEMANG RAYA NO 3-5, JAKSEL",-6.255055000,106.810022000,BCA
"KEMANG MANSION CRM 3 JL KEMANG RAYA NO 3-5, JAKSEL",-6.255055000,106.810022000,BCA
RS SATYA NEGARA JL AGUNG UTARA RY BLOK A NO 1 SUNTER JKT UTR,-6.139552000,106.860922000,BCA
GREEN GARDEN CRM 1 PERUM GREEN GARDEN BLOK A 14 NO 33-34 JAKARTA,-6.165120000,106.763880000,BCA
GREEN GARDEN CRM 2 PERUM GREEN GARDEN BLOK A 14 NO 33-34 JAKARTA,-6.165120000,106.763880000,BCA
GREEN GARDEN CRM 3 PERUM GREEN GARDEN BLOK A 14 NO 33-34 JAKARTA,-6.165120000,106.763880000,BCA
GREEN GARDEN CRM 4 PERUM GREEN GARDEN BLOK A 14 NO 33-34 JAKARTA,-6.165120000,106.763880000,BCA
"CITY RESORT CRM 1 JL CITY RESORT RESIDENCE BOULEVARD, BLOK A NO 1A, CENGKARENG, JAK ARTA BARAT",-6.165120000,106.763880000,BCA
INDOMARET ANGKE WIJAYA KUSUMA JL TUBAGUS ANGKE NO 19A-B KEL WIJAYA KUSUMA KEC GROGOL PETAMBURAN JAKARTA BARAT,-6.152767000,106.771179000,BCA
INDOMARET DANAU SUNTER UTARA 33 JL AGUNG UTARA RAYA BLOK A-36 D NO 33-34 KEL SUNTER AGUNG KEC TANJUNG PRIOK JAKARTA UTARA,-6.139166000,106.860684000,BCA
"INDOMARET SUNTER ICON JL GRIYA SEJAHTERA RAYA, KEL SUNTER AGUNG, TANJUNG PRIOK, JAKUT",-6.135100000,106.854500000,BCA
"WISMA INDOMOBIL MT HARYONO JL. MT. HARYONO KAV. 8, JAKARTA",-6.242710000,106.862941000,BCA
INDOMARET ANGKUR JL ANKUR RAYA NO 31 RT 03 / 02 KAYU PUTIH,-6.186700000,106.887500000,BCA
INDOMARET ANGKUR 2 JL ANKUR RAYA NO 31 RT 03 / 02 KAYU PUTIH,-6.186700000,106.887500000,BCA
INDOMARET KEMANG MAMPANG CRM JL KEMANG NO 15B JAKARTA SELATAN,-6.255800000,106.812270000,BCA
INDOMARET GANDARIA JL GANDARIA I NO 55 JAKARTA SELATAN,-6.247750000,106.789950000,BCA
"ALFAMART PANJANG GREEN GARDEN JL PANJANG GREEN GARDEN BLOK GG E7 NO 8-9, KEDOYA UTARA, KEBON JERUK, JAKARTA BARAT",-6.166100000,106.763100000,BCA
"RSIA FAMILY JL PLUIT MAS I BLOK A NO. 2A - 5A, JAKUT",-6.134132000,106.792492000,BCA
CARREFOUR EXPRESS KEBAYORAN JL. CILEDUG RAYA NO. 37 - JAKARTA SELATAN,-6.238433000,106.777370000,BCA
ALFAMART GANDARIA II JL GANDARIA I NO 04 JAKARTA SELATAN,-6.248194000,106.790187000,BCA
"INDOMARET CIPINANG BARU BUNDER JL CIPINANGBARUBUNDER NO7 RT2 RW6, CIPINANG, PULO GADUNG, JAKTIM",-6.207000000,106.886200000,BCA
ALFAMIDI TEBET CRM 1 JL TEBET RAYA NO64 RT002 RW04 TEBET TMR JAKSEL,-6.207000000,106.886200000,BCA
INDOMARET TANAH PASIR III PLUIT JAKARTA UTARA JL TANAH PASIR NO 2 KAV 8 & 9 PENJARINGAN JAKARTA UTARA,-6.129900000,106.801800000,BCA
ALFAMART SUNTER HIJAU JL SUNTER HIJAU RAYA BLOK E2 NO 22 JAKUT,-6.156300000,106.877700000,BCA
INDOMARET TELUK GONG V CRM 1 JL BOULEVARD RAYA BLOK LB1 / 17 JAKARTA UTARA,-6.138300000,106.785100000,BCA
WISMA INDOVISION JL RAYA PANJANG Z / III GREEN GARDEN JAKBAR,-6.164200000,106.763400000,BCA
"ALFAMART PETOGOGAN JL PETOGOGAN I RT 3/11, PETOGOGAN, KEBAYORAN BARU, JAKSEL",-6.250600000,106.794100000,BCA
INDOMARET PINANG RAYA XXIII JL. PINANG NO. 23 RT.002 / 08 KAV. NO. 119/E; RAWAMANGUN; PULO GADUNG; JAKARTA TIMUR,-6.198100000,106.888000000,BCA
INDOMARET MAMPANG 17 JL MAMPANG PRAPATAN RAYA NO302-DRTIGA JAKSEL,-6.257100000,106.828200000,BCA
CLUB HOUSE PERMATA MEDITERANIA JL POS PENGUMBEN RAYA NO40 PRMTA HIJAU JAKBAR,-6.222500000,106.764900000,BCA
CERIAMART PASAR IKAN JL PAKIN (KAKAP) NO40 KEL PENJARINGAN KEC PENJARINGAN JAKARTA UTARA 14440,-6.127600000,106.808700000,BCA
DHARMAWANGSA SQUARE 2 JL DHARMAWANGSA VI & XI JAKARTA SELATAN,-6.253650000,106.801061000,BCA
DHARMAWANGSA SQUARE 3 JL DHARMAWANGSA VI & XI JAKARTA SELATAN,-6.253650000,106.801061000,BCA
INDOMARET GRAND WIJAYA CENTER JL KOMP GRAND WIJAYA CENTER B11/12 A-B JAKSEL,-6.253686000,106.800953000,BCA
"ALFAMIDI GANDARIA JL. SULTAN ISKANDAR MUDA, JAKARTA SELATAN",-6.249111000,106.790676000,BCA
ALFAMART DHARMAWANGSA VI JL DHARMAWANGSA VI NO 45 JAKARTA SELATAN,-6.254004000,106.801575000,BCA
INDOMARET PENGADEGAN JL PENGADEGANSELATAN 8 RT 09 RW 05 KEL PENGADEGAN KEC PANCORAN JAKSEL,-6.251700000,106.849900000,BCA
"LA CODEFIN JL. KEMANG RAYA NO. 8, JAKARTA SELATAN",-6.256458900,106.810745000,BCA
SPBU BENZINE 34-14407 JEMBATAN TIGA CRM 1 JL JEMBATAN TIGA BLOKF4-5 KECPENJARINGANJAKUT,-6.133712000,106.791570000,BCA
ALFAMART TANAH PASIR II JL TANAH PASIR NO 41 JAKARTA UTARA,-6.130015000,106.799630000,BCA
ALFAMART TANAH PASIR II 2 JL TANAH PASIR NO 41 JAKARTA UTARA,-6.130015000,106.799630000,BCA
"ALFAMART PENGADEGAN 2 JL PENGADEGAN SELATAN NO 8, PANCORAN, JAKARTA",-6.251664000,106.850205000,BCA
"ALFAMART PENGADEGAN JL PENGADEGAN SELATAN NO 8, PANCORAN, JAKARTA",-6.251664000,106.850205000,BCA
INDOMARET CIPULIR 1 JAKSEL JL CIPULIR RAYA NO09 RT013 RW04 KEL CIPULIR KEC KEBAYORAN LAMA - JAKSEL,-6.235400000,106.773400000,BCA
"PASAR CIDODOL 1 JL CIDODOL RAYA, GROGOL SELATAN, KEBAYORAN LAMA JAKARTA",-6.233400000,106.771700000,BCA
"ALFAMIDI TANAH PASIR JL TANAH PASIR NO 87-88, PENJARINGAN, JAKUT",-6.130103000,106.799170000,BCA
"ALFAMIDI TANAH PASIR 2 JL TANAH PASIR NO 87-88, PENJARINGAN, JAKUT",-6.130103000,106.799170000,BCA
ALFAMIDI PETOGOGAN JL PETOGOGAN I KEBAYORAN BARU JAKSEL,-6.251300000,106.794400000,BCA
PANGLIMA POLIM RAYA CRM 3 JL PANGLIMA POLIM RAYA 85 B KBY BARU - JKT,-6.250719400,106.793176700,BCA
PANGLIMA POLIM RAYA CRM 4 JL PANGLIMA POLIM RAYA 85 B KBY BARU - JKT,-6.250719400,106.793176700,BCA
INDOMARET ANCOL 2 JL ANCOL I NO 9-10 ANCOL BARAT JAKUT,-6.126200000,106.814300000,BCA
INDOMARET ANCOL JL ANCOL I NO 9-10 ANCOL BARAT JAKUT,-6.126200000,106.814300000,BCA
"INDOMARET GREEN GARDEN II KOMPLEK GREEN GARDEN A/13/1, KEBON JERUK JAKB",-6.165710000,106.762084000,BCA
"INDOMARET GREEN GARDEN II 2 KOMPLEK GREEN GARDEN A/13/1, KEBON JERUK JAKB",-6.165710000,106.762084000,BCA
"ALFAMART KEDOYA RAYA II JL KEDOYA RAYA 2, RT08/02, KEDOYA SELATAN, KEBON JERUK, JAKARTA BARAT",-6.179200000,106.757900000,BCA
ALFAMIDI KEDOYA RAYA JL KEDOYA RAYA NO 69 RT 03/06 KEL KEDOYA UTARA KEC KEBUN JERUK JAKBAR,-6.175500000,106.758700000,BCA
"ALFAMIDI SRENGSENG RAYA CRM 2 JL SRENGSENG RAYA NO 80 RT 10/5, SRENGSENG, KEMBAN",-6.207510000,106.758500000,BCA
