address,city,province,latitude,longitude
"Jl. Veteran No.42-44, Krembangan Sel., Kec. Krembangan",Kota Surabaya,Jawa Timur,-7.2395979,112.7377095
"Jl. Veteran No.42-44, Krembangan Sel., Kec. Krembangan, Kota SBY, Jawa Timur 60175, Indonesia",Kota Surabaya,Jawa Timur,-7.2395979,112.7377095
"Jl. Perak Timur No.512, Perak Utara, Kec. Pabean Cantian",Kota Surabaya,Jawa Timur,-7.202317000000001,112.7336516
"Jl. Perak Timur No. 512 Blok H3-H4, Kota Surabaya, Jawa Timur",Kota Surabaya,Jawa Timur,-7.202317000000001,112.7336516
"Jembatan Merah Plaza , L2, B Area, a-54 , JL. Taman Jayengrono 2-4 , Krembangan Selatan, Krembangan , 60175 Surabaya , Jawa Timur, South Kre",Kota Surabaya,Jawa Timur,-7.234473400000001,112.7379629
"Jl. Jembatan Merah No. 25-27, Krembangan Sel, Jawa Timur",Kota Surabaya,Jawa Timur,-7.240541899999999,112.7374371
"Jl. Jembatan Merah No. 25-27, Krembangan Sel., Kec. Krembangan",Kota Surabaya,Jawa Timur,-7.240541899999999,112.7374371
"Jl. Dr. Ir. H. Soekarno No.36, Kedung Baruk, Kec. Rungkut, Kota SBY, Jawa Timur 60298, Indonesia",Kota Surabaya,Jawa Timur,-7.315107999999999,112.7805
"Jl. Dr Ir Haji Soekarno No. 386, Kota Surabaya, Jawa Timur",Kota Surabaya,Jawa Timur,-7.3194126,112.780578
"Jl. Kh Mas Mansyur No. 128- 140 Surabaya, Jawa Timur",Kota Surabaya,Jawa Timur,-7.231483799999999,112.7410243
"Jl. Kh Mas Mansyur No.128-140, Nyamplungan, Kec. Pabean Cantian",Kota Surabaya,Jawa Timur,-7.231483799999999,112.7410243
"Jl. Stasiun Kota No.60 C-D Kav. No.1 Dan 2, Jawa Timur",Kota Surabaya,Jawa Timur,-7.2418608,112.7401882
"Itc Surabaya Mega Grosir, Jl. Gembong No 20-30 Surabaya",Kota Surabaya,Jawa Timur,-7.241554,112.7460695
"Itc Mega Grosir Lantai G Jl. Gembong No. 20 - 30 , Surabaya",Kota Surabaya,Jawa Timur,-7.241425,112.746938
"Jl. Klampis Jaya No.50, Klampis Ngasem, Kec. Sukolilo",Kota Surabaya,Jawa Timur,-7.285196000000001,112.776522
"Jl. Klampis Jaya No.50, Klampis Ngasem, Kec. Sukolilo",Kota Surabaya,Jawa Timur,-7.285196000000001,112.776522
"Pakuwon Town Square Blok A.2 No. 1 , Pakuwon City, Kejawan Putih",Kota Surabaya,Jawa Timur,-7.276981800000001,112.8046661
"Jl. Komp. Pakuwon City 38, Kejawaan Putih Tambak, Kec. Mulyorejo",Kota Surabaya,Jawa Timur,-7.276342499999999,112.8051727
"Jl. Dr. Ir. H. Soekarno No.18, Gebang Putih, Kec. Sukolilo, Kota Sby, Jawa Timur 60117",Kota Surabaya,Jawa Timur,-7.2861872,112.7805891
Jl. Kertajaya Indah Timur No. 18 Ged. Esa Sampoerna Lt G,Kota Surabaya,Jawa Timur,-7.2862122,112.7805299
"Jl. Dr. Ir. H. Soekarno No.18, Gebang Putih, Kec. Sukolilo, Kota Sby",Kota Surabaya,Jawa Timur,-7.2861872,112.7805891
"Jl. Raya Mulyosari 363-343, Dukuh Sutorejo, Kec. Mulyorejo",Kota Surabaya,Jawa Timur,-7.2713532,112.7968813
"Jl. Raya Mulyosari No.360d, Dukuh Sutorejo, Kec. Mulyorejo, Kota SBY, Jawa Timur 60113, Indonesia",Kota Surabaya,Jawa Timur,-7.270702500000001,112.7965437
"Jl. Jokotole No. 115 Barurambat Timur, Kabupaten Pamekasan, Jawa Timur",Kabupaten Pamekasan,Jawa Timur,-7.1613634,113.4907436
"Jl. Jokotole No. 115 Barurambat Timur, Kabupaten Pamekasan, Jawa Timur",Kabupaten Pamekasan,Jawa Timur,-7.1613634,113.4907436
"Jl. Jokotole No.45, Murleke, Barurambat Tim., Pademawu, Kabupaten Pamekasan, Jawa Timur 69321, Indonesia",Kabupaten Pamekasan,Jawa Timur,-7.1613541,113.490562
"Ruko Kenjeran Indah, Jl. Babatan Pantai No. 2 Ab, Jawa Timur",Kota Surabaya,Jawa Timur,-7.25282,112.793372
"Ruko Kenjeran Indah No.2Ab, Jl. Babatan Pantai, Manyar Sabrangan",Kota Surabaya,Jawa Timur,-7.2528698,112.7925951
"Jl. Trunojoyo No.214, Labangseng, Kolor, Kotasumenep, Kabupaten Sumenep, Jawa Timur 69417, Indonesia",Kabupaten Sumenep,Jawa Timur,-7.0177117,113.8575589
"Jl. Trunojoyo No.214, Labangseng, Kolor, Kotasumenep, Kabupaten Sumenep, Jawa Timur 69417, Indonesia",Kabupaten Sumenep,Jawa Timur,-7.0177117,113.8575589
"Jl. Trunojoyo No.214, Labangseng, Kolor, Kotasumenep, Kabupaten Sumenep, Jawa Timur 69417, Indonesia",Kabupaten Sumenep,Jawa Timur,-7.0177117,113.8575589
"Jl. Trunojoyo No.214, Labangseng, Kolor, Kotasumenep, Kabupaten Sumenep, Jawa Timur 69417, Indonesia",Kabupaten Sumenep,Jawa Timur,-7.0177117,113.8575589
"Jl. Kembang Jepun No.180-184, Nyamplungan, Kec. Pabean Cantian",Kota Surabaya,Jawa Timur,-7.2366144,112.7390748
"Jl. Kembang Jepun No.180-184, Nyamplungan, Kec. Pabean Cantian",Kota Surabaya,Jawa Timur,-7.2366144,112.7390748
"Jl. Soekarno Hatta No. 17 B Mlajah, Kabupaten Bangkalan, Jawa Timur",Kabupaten Bangkalan,Jawa Timur,-7.044730599999999,112.7376165
"Jl. Soekarno Hatta No. 17 B Mlajah, Kabupaten Bangkalan, Jawa Timur",Kabupaten Bangkalan,Jawa Timur,-7.044730599999999,112.7376165
"Jl. Soekarno Hatta No. 17 B Mlajah, Kabupaten Bangkalan, Jawa Timur",Kabupaten Bangkalan,Jawa Timur,-7.044730599999999,112.7376165
"Kampus Its Surabaya, Jl. Teknik Mesin, Kota Surabaya, Jawa Timur",Kota Surabaya,Jawa Timur,-7.282356,112.7949253
"Kampus Its Surabaya, Jl. Teknik Mesin, Kota Surabaya, Jawa Timur",Kota Surabaya,Jawa Timur,-7.282356,112.7949253
"Jl. KH Wahid Hasyim No.26, Rw. VI, Gn. Sekar, Kec. Sampang, Kabupaten Sampang, Jawa Timur 69216, Indonesia",Kabupaten Sampang,Jawa Timur,-7.189412399999999,113.2442721
"Jl. KH Wahid Hasyim No.26, Rw. VI, Gn. Sekar, Kec. Sampang, Kabupaten Sampang, Jawa Timur 69216, Indonesia",Kabupaten Sampang,Jawa Timur,-7.189412399999999,113.2442721
"Jl. Indrapura No. 45 , Surabaya, Kota Surabaya, Jawa Timur",Kota Surabaya,Jawa Timur,-7.236331600000001,112.7306412
"Jl. Indrapura No. 45 , Surabaya, Kota Surabaya, Jawa Timur",Kota Surabaya,Jawa Timur,-7.236331600000001,112.7306412
"Jl. Indrapura No. 45 , Surabaya, Kota Surabaya, Jawa Timur",Kota Surabaya,Jawa Timur,-7.236331600000001,112.7306412
"Jl. Trunojoyo, Banyu Ajuh, Kamal, Kabupaten Bangkalan, Jawa Timur",Kabupaten Bangkalan,Jawa Timur,-7.1552254,112.7171476
"Jl. Raya Gapura No. 17 Pamolokan Sumenep, Jawa Timur",Kabupaten Sumenep,Jawa Timur,-7.000461199999999,113.8709134
"Jl. Kapasan No. 157, Simokerto, Surabaya, Jawa Timur",Kota Surabaya,Jawa Timur,-7.2393277,112.7472073
"Jl. Kapasan 133-167, Kapasan, Kec. Simokerto, Jawa Timur",Kota Surabaya,Jawa Timur,-7.239632699999999,112.7479396
"Jl. Raya Preduan, Pesisir, Pragaan Kab. Sumenep, Jawa Timur",Kabupaten Sumenep,Jawa Timur,-7.1047562,113.6710502
"Jl. Raya Tamberu Barat, Dusun Buk Batang, Desa Tamberu Barat, Kec.Sokobanah Kab.Sampang",Kabupaten Sampang,Jawa Timur,-6.901203,113.471878
"Jl. Raya Waru , Tobalang 3, Waru Kab. Pamekasan, Jawa Timur",Kabupaten Pamekasan,Jawa Timur,-6.9418854,113.5507483
"Jl. Perak Timur No.398, Perak Utara, Kec. Pabean Cantian",Kota Surabaya,Jawa Timur,-7.208207100000001,112.7346022
"Alfamart Tanjung Perak Barat, JL. Tanjung Perak Barat, Perak Utara, Kec. Pabean Cantian, Kota SBY, Jawa Timur 60165, Indonesia",Kota Surabaya,Jawa Timur,-7.229716,112.729362
"Jl. Perak Timur No.398, Perak Utara, Kec. Pabean Cantian",Kota Surabaya,Jawa Timur,-7.208207100000001,112.7346022
"Jl. Genteng Kali, Genteng, Kec. Genteng, Kota Sby, Jawa Timur 60275",Kota Surabaya,Jawa Timur,-7.2561336,112.7401064
"Jl. Genteng Kali No.93 - 95, Genteng, Kec. Genteng, Kota Sby, Jawa Timur",Kota Surabaya,Jawa Timur,-7.2563929,112.7389101
"Jl. Genteng Kali No.93 - 95, Genteng, Kec. Genteng, Kota Sby, Jawa Timur",Kota Surabaya,Jawa Timur,-7.2563929,112.7389101
"Jl. Genteng Kali No.93 - 95, Genteng, Kec. Genteng, Kota Sby, Jawa Timur",Kota Surabaya,Jawa Timur,-7.2563929,112.7389101
"Jl. Kupang Jaya A I No. 43, Simomulyo, Sukomanunggal, Sonokwijenan, Kec. Sukomanunggal, Kota Sby, Jawa Timur",Kota Surabaya,Jawa Timur,-7.274976,112.7031811
"Jl. Kupang Jaya A I No. 43, Simomulyo, Sukomanunggal, Sonokwijenan, Kec. Sukomanunggal, Kota Sby, Jawa Timur",Kota Surabaya,Jawa Timur,-7.274976,112.7031811
"Jl. Tembok Dukuh No.64, Tembok Dukuh, Kec. Bubutan, Kota Sby, Jawa Timur",Kota Surabaya,Jawa Timur,-7.255264100000001,112.7239946
"Jl. Tembok Dukuh No.64, Tembok Dukuh, Kec. Bubutan, Kota Sby, Jawa Timur",Kota Surabaya,Jawa Timur,-7.255264100000001,112.7239946
"Pasar Atom Mall, Jl. Bunguran No. 45 Surabaya, Jawa Timur",Kota Surabaya,Jawa Timur,-7.241708300000001,112.7439575
"Jl. Mayjen Bambang Yuwono No.1, Sidodadi, Kemangsen, Balong Bendo, Kabupaten Sidoarjo, Jawa Timur 61263",Kabupaten Sidoarjo,Jawa Timur,-7.411614999999999,112.5732985
"Jl. Mayjen Bambang Yuwono No.1, Sidodadi, Kemangsen, Balong Bendo, Kabupaten Sidoarjo, Jawa Timur 61263",Kabupaten Sidoarjo,Jawa Timur,-7.411614999999999,112.5732985
"Jl. Mayjen Bambang Yuwono No.1, Sidodadi, Kemangsen, Kec. Balongbendo, Kabupaten Sidoarjo, Jawa Timur 61263",Kabupaten Sidoarjo,Jawa Timur,-7.411614999999999,112.5732985
"Jl. Mayjen Bambang Yuwono No.1, Sidodadi, Kemangsen, Balong Bendo, Kabupaten Sidoarjo, Jawa Timur 61263",Kabupaten Sidoarjo,Jawa Timur,-7.411614999999999,112.5732985
"Jl. Mayjen Bambang Yuwono No.1, Sidodadi, Kemangsen, Kec. Balongbendo, Kabupaten Sidoarjo, Jawa Timur 61263",Kabupaten Sidoarjo,Jawa Timur,-7.411614999999999,112.5732985
"Jl. Raya Candi No. 42, Candi, Gelam, Candi, Kabupaten Sidoarjo, Jawa Timur 61272",Kabupaten Sidoarjo,Jawa Timur,-7.487492,112.7117907
"Jl. Raya Candi No. 42, Candi, Gelam, Candi, Kabupaten Sidoarjo, Jawa Timur 61272",Kabupaten Sidoarjo,Jawa Timur,-7.487492,112.7117907
"Jl. Raya Candi No. 42, Candi, Gelam, Candi, Kabupaten Sidoarjo, Jawa Timur 61272",Kabupaten Sidoarjo,Jawa Timur,-7.487492,112.7117907
"Jl. Raya Candi No. 42, Candi, Gelam, Candi, Kabupaten Sidoarjo, Jawa Timur 61272",Kabupaten Sidoarjo,Jawa Timur,-7.487492,112.7117907
"Komp. Ruko Pd. Mutiara Blok N No. 2, Jl. Pahlawan No.9C, Jati, Kec. Sidoarjo, Kabupaten Sidoarjo, Jawa Timur 61226",Kabupaten Sidoarjo,Jawa Timur,-7.4490446,112.7026195
"Komp. Ruko Pd. Mutiara Blok N No. 2, Jl. Pahlawan No.9C, Jati, Kec. Sidoarjo, Kabupaten Sidoarjo, Jawa Timur 61226",Kabupaten Sidoarjo,Jawa Timur,-7.4490446,112.7026195
"Komp. Ruko Pd. Mutiara Blok N No. 2, Jl. Pahlawan No.9C, Jati, Kec. Sidoarjo, Kabupaten Sidoarjo, Jawa Timur 61226",Kabupaten Sidoarjo,Jawa Timur,-7.4490446,112.7026195
"Komp. Ruko Pd. Mutiara Blok N No. 2, Jl. Pahlawan No.9C, Jati, Kec. Sidoarjo, Kabupaten Sidoarjo, Jawa Timur 61226",Kabupaten Sidoarjo,Jawa Timur,-7.4490446,112.7026195
"Komp. Ruko Pd. Mutiara Blok N No. 2, Jl. Pahlawan No.9C, Jati, Kec. Sidoarjo, Kabupaten Sidoarjo, Jawa Timur 61226",Kabupaten Sidoarjo,Jawa Timur,-7.4490446,112.7026195
"Jl. Mayjen Sungkono No.121 F, Dukuh Pakis, Kec. Dukuhpakis",Kota Surabaya,Jawa Timur,-7.2894253,112.7119122
"Jl. Mayjen Sungkono No.121 F, Dukuh Pakis, Kec. Dukuhpakis, Kota Sby, Jawa Timur 60225",Kota Surabaya,Jawa Timur,-7.2894253,112.7119122
"Jalan Satelit Indah Blok An No. 1, Tanjungsari, Kec. Sukomanunggal",Kota Surabaya,Jawa Timur,-7.266079,112.6936622
"Blok C-7, Waru, Ruko Gateway, Sidoarjo, Dusun Sawo, Wedoro, Waru, Sidoarjo Regency, Jawa Timur 61256",Kabupaten Sidoarjo,Jawa Timur,-7.367746299999999,112.728234
"Blok C-7, Waru, Ruko Gateway, Sidoarjo, Dusun Sawo, Wedoro, Waru, Sidoarjo Regency, Jawa Timur 61256",Kabupaten Sidoarjo,Jawa Timur,-7.367746299999999,112.728234
"Blok C-7, Waru, Ruko Gateway, Sidoarjo, Dusun Sawo, Wedoro, Waru, Sidoarjo Regency, East Java 61256",Kabupaten Sidoarjo,Jawa Timur,-7.367746299999999,112.728234
"Jl. Raya Bukit Darmo Boulevard, No. 8 G, Pradahkalikendal, Kec. Dukuhpakis",Kota Surabaya,Jawa Timur,-7.2872539,112.701124
"Jl. Raya Bukit Darmo Boulevard No.8-G, Pradahkalikendal, Kec. Dukuhpakis, Kota Sby, Jawa Timur창",Kota Surabaya,Jawa Timur,-7.2872539,112.701124
"Jl. Raya Ngelom No.32, Ngelom, Bebekan, Kec. Taman, Kabupaten Sidoarjo, Jawa Timur",Kabupaten Sidoarjo,Jawa Timur,-7.3482527,112.691279
"Jl. Raya Ngelom No.32, Ngelom, Bebekan, Kec. Taman, Kabupaten Sidoarjo, Jawa Timur",Kabupaten Sidoarjo,Jawa Timur,-7.3482527,112.691279
"Jl. Raya Ngelom No.32, Ngelom, Bebekan, Kec. Taman, Kabupaten Sidoarjo, Jawa Timur",Kabupaten Sidoarjo,Jawa Timur,-7.3482527,112.691279
"Tropodo Wetan, Tropodo, Kec. Waru, Kabupaten Sidoarjo, Jawa Timur 61256",Kabupaten Sidoarjo,Jawa Timur,-7.3603596,112.7613933
"Tropodo Wetan, Tropodo, Kec. Waru, Kabupaten Sidoarjo, Jawa Timur 61256",Kabupaten Sidoarjo,Jawa Timur,-7.3603596,112.7613933
"Tropodo Wetan, Tropodo, Kec. Waru, Kabupaten Sidoarjo, Jawa Timur 61256",Kabupaten Sidoarjo,Jawa Timur,-7.3603596,112.7613933
"Jl. Ir. H. Juanda, Segoro Tambak, Kec. Sedati, Kabupaten Sidoarjo, Jawa Timur 61253",Kabupaten Sidoarjo,Jawa Timur,-7.3788851,112.7872891
"Jl. Ir. H. Juanda, Segoro Tambak, Kec. Sedati, Kabupaten Sidoarjo, Jawa Timur 61253",Kabupaten Sidoarjo,Jawa Timur,-7.3788851,112.7872891
"Jl. Ahmad Yani, Dusun Sruni, Gedangan, Sidoarjo, Kabupaten Sidoarjo, Jawa Timur 61254",Kabupaten Sidoarjo,Jawa Timur,-7.3956122,112.7275316
"Jl. Ahmad Yani, Dusun Sruni, Gedangan, Sidoarjo, Kabupaten Sidoarjo, Jawa Timur 61254",Kabupaten Sidoarjo,Jawa Timur,-7.3956122,112.7275316
"Jl. Raya Menganti No. 207, Wiyung, Kota Surabaya, Jawa Timur",Kota Surabaya,Jawa Timur,-7.309271900000001,112.6746719
"Bank Mandiri KCP Wiyung, Wiyung, Kec. Wiyung, Kota SBY, Jawa Timur, Indonesia",Kabupaten Nganjuk,Jawa Timur,-7.313713,112.69486
Jl. A. Yani Komplek Mandiri Menanggal B1-B3 Surabaya,Kota Surabaya,Jawa Timur,-7.3271182,112.7322816
"Jl. A. Yani Komplek Mandiri Mnenggal B1/B3, Surabaya",Kota Surabaya,Jawa Timur,-7.3208946,112.7330452
Jl. A. Yani Komplek Mandiri Menanggal B1-B3 Surabaya,Kota Surabaya,Jawa Timur,-7.3271182,112.7322816
"Jl. A. Yani Komplek Mandiri Menanggal B1-B3, Menanggal",Kota Surabaya,Jawa Timur,-7.3271182,112.7322816
"Jalan Citraland Surabaya, Lontar, Sambikerep, Lontar",Kota Surabaya,Jawa Timur,-7.2889105,112.64498
"Jalan Citraland Surabaya, Lontar, Sambikerep, Lontar",Kota Surabaya,Jawa Timur,-7.2889105,112.64498
"Jl. Citralan 20-15, Lontar, Kec. Sambikerep, Kota Sby, Jawa Timur 60216",Kota Surabaya,Jawa Timur,-7.2887639,112.6555747
"Jl. Margomulyo No.9, Balongsari, Kec. Tandes, Kota Sby, Jawa Timur 60186",Kota Surabaya,Jawa Timur,-7.252449100000001,112.6816278
"Mall Royal Square Jl Raya Wiyung, Kota Surabaya, Jawa Timur",Kota Surabaya,Jawa Timur,-7.3105547,112.6792574
"Jl. Manukan Tama Blok A3 No.42, Manukan Kulon, Jawa Timur",Kota Surabaya,Jawa Timur,-7.260870199999999,112.6676149
"Jl. Manukan Tama Blok A3 No.42, Manukan Kulon, Kec. Tandes, Kota Sby, Jawa Timur",Kota Surabaya,Jawa Timur,-7.260870199999999,112.6676149
"Jl. Manukan Tama Blok A3 No.42, Manukan Kulon, Kec. Tandes, Kota Sby, Jawa Timur",Kota Surabaya,Jawa Timur,-7.260870199999999,112.6676149
"Supermall Pakuwon Indah Jl. Puncak Indah Lontar No. 2, Babatan, Wiyung, Babatan, Kec. Wiyung, Kota Sby, Jawa Timur창",Kota Surabaya,Jawa Timur,-7.285197699999999,112.6745957
"Jl. Raya Kenongo No.Rt. 05/02, Kenongo, Tulangan, Kabupaten Sidoarjo, Jawa Timur 61273",Kabupaten Sidoarjo,Jawa Timur,-7.4868489,112.6536473
"Jl. Raya Kenongo No.Rt. 05/02, Kenongo, Tulangan, Kabupaten Sidoarjo, Jawa Timur 61273",Kabupaten Sidoarjo,Jawa Timur,-7.4868489,112.6536473
"Jl. Raya Lidah Wetan No.139 A, Lidah Wetan, Kec. Lakarsantri, Kota Sby, Jawa Timur 60213",Kota Surabaya,Jawa Timur,-7.3069633,112.6644668
"Jl. Raya Lidah Wetan No.139 A, Lidah Wetan, Kec. Lakarsantri, Kota Sby, Jawa Timur 60213",Kota Surabaya,Jawa Timur,-7.3069633,112.6644668
"Ruko Town House, Jl. Raya Kalijaten Blok A No.6, Kalijaten, Kec. Taman, Kabupaten Sidoarjo, Jawa Timur 61257",Kabupaten Sidoarjo,Jawa Timur,-7.3504131,112.6924293
"Jl. Pahlawan No.120, Krembangan Sel., Kec. Krembangan, Kota Sby, Jawa Timur",Kota Surabaya,Jawa Timur,-7.2437667,112.7384214
"Jl. Pahlawan No.120, Krembangan Sel., Kec. Krembangan, Kota Sby, Jawa Timur",Kota Surabaya,Jawa Timur,-7.2437667,112.7384214
"Jl. Tembaan No.8, Gundih, Kec. Bubutan, Kota Sby, Jawa Timur창",Kota Surabaya,Jawa Timur,-7.246432500000001,112.7325253
"Juwet, Juwetkenongo, Kec. Porong, Kabupaten Sidoarjo, Jawa Timur 61274",Kabupaten Sidoarjo,Jawa Timur,-7.5399018,112.6965906
"Komplek Pertokoan Darmo Park I Blok V No.5-6, Jl. Mayjend Sungkono, Pakis, Kec. Sawahan, Kota Sby, Jawa Timur창",Kota Surabaya,Jawa Timur,-7.2926269,112.7280853
"Komplek Pertokoan Darmo Park I Blok V No.5-6, Jl. Mayjend Sungkono, Pakis, Kec. Sawahan",Kota Surabaya,Jawa Timur,-7.2926269,112.7280853
"Ruko Surya Inti Permata, Jl. Mayjen Hr. Muhammad, Pradahkalikendal, Kec. Dukuhpakis, Kota Sby, Jawa Timur",Kota Surabaya,Jawa Timur,-7.282287299999999,112.6867209
"Jl. Mayjen Hr. Muhammad, Pradahkalikendal, Kec. Dukuhpakis",Kota Surabaya,Jawa Timur,-7.2840388,112.6911411
"Jl. Ahmad Yani No. 7, Sidokumpul, Kec. Sidoarjo, Pucang, Sidokumpul, Kec. Sidoarjo, Kabupaten Sidoarjo, Jawa Timur 61219",Kabupaten Sidoarjo,Jawa Timur,-7.444863499999999,112.7193486
"Jl. Ahmad Yani No. 7, Sidokumpul, Kec. Sidoarjo, Pucang, Sidokumpul, Kec. Sidoarjo, Kabupaten Sidoarjo, Jawa Timur 61219",Kabupaten Sidoarjo,Jawa Timur,-7.444863499999999,112.7193486
"Sidoarjo, Pucang, Kec. Sidoarjo, Kabupaten Sidoarjo, Jawa Timur 61219",Kabupaten Sidoarjo,Jawa Timur,-7.440771700000001,112.7196817
"Jl. Ahmad Yani No. 7, Sidokumpul, Kec. Sidoarjo, Pucang, Sidokumpul, Kec. Sidoarjo, Kabupaten Sidoarjo, Jawa Timur 61219",Kabupaten Sidoarjo,Jawa Timur,-7.444863499999999,112.7193486
"Sidoarjo, Pucang, Kec. Sidoarjo, Kabupaten Sidoarjo, Jawa Timur 61219",Kabupaten Sidoarjo,Jawa Timur,-7.440771700000001,112.7196817
"Jl. Ahmad Yani No.7, Pucang, Sidokumpul, Kec. Sidoarjo, Kabupaten Sidoarjo, Jawa Timur 61219",Kabupaten Sidoarjo,Jawa Timur,-7.444863499999999,112.7193486
"Jl. Basuki Rahmat No. 129-137 , Embong Kaliasin Kec Genteng  Kota Surabaya",Kota Surabaya,Jawa Timur,-7.271637,112.7420847
"Jl. Basuki Rahmat No. 129-137 , Embong Kaliasin Kec Genteng  Kota Surabaya",Kota Surabaya,Jawa Timur,-7.271637,112.7420847
"Jl. Basuki Rahmat 129-137, Embong Kaliasin  Kec Genteng Kota Surabaya",Kota Surabaya,Jawa Timur,-7.271637,112.7420847
Jl. Mojopahit No. 406 Mergelo Kranggan Kec Prajurit Kulon Mojokerto,Kota Surabaya,Jawa Timur,-7.475745,112.431578
Jl. Mojopahit No. 406 Mergelo Kranggan Kec Prajurit Kulon Mojokerto,Kota Surabaya,Jawa Timur,-7.475745,112.431578
Jl. Mojopahit No. 406 Mergelo Kranggan Kec Prajurit Kulon Mojokerto,Kota Surabaya,Jawa Timur,-7.475745,112.431578
"Jl. Mojopahit No. 406, Mojokerto, Kota Surabaya, Jawa Timur",Kota Surabaya,Jawa Timur,-7.475745,112.431578
Jl Ahmad Yani No.16-18 Ketintang Kec . Gayungan Kota Surabaya,Kota Surabaya,Jawa Timur,-7.309487499999999,112.7344487
Jl. Basuki Rahmat No. 107 Kedungdoro Kec Tegalsari Kota Surabaya,Kota Surabaya,Jawa Timur,-7.263466999999999,112.740389
"Menara Bbd, Jl. Basuki Rahmat No. 107 Kedungdoro Kec. Tegalsari Kota Surabaya",Kota Surabaya,Jawa Timur,-7.263466999999999,112.740389
Jl. Basuki Rahmat No. 107 Kedungdoro Kec Tegalsari Kota Surabaya,Kota Surabaya,Jawa Timur,-7.263466999999999,112.740389
"Tunjungan Plaza, Jln. Basuki Rachmat No. 107 Kedungdoro Kec Tegalsari Kota Surabaya",Kota Surabaya,Jawa Timur,-7.263466999999999,112.740389
Tunjungan Plaza Ii Jl. Basuki Rachmat No. 107 Kedung Doro Kec Tegalsari Kota Surabaya,Kota Surabaya,Jawa Timur,-7.263466999999999,112.740389
"Menara Bbd, Jl. Basuki Rahmat No. 107 Kedungdoro Kec. Tegalsari Kota Surabaya",Kota Surabaya,Jawa Timur,-7.263466999999999,112.740389
"Menara Bbd, Jl. Basuki Rahmat No. 107 Kedungdoro Kec. Tegalsari Kota Surabaya",Kota Surabaya,Jawa Timur,-7.263466999999999,112.740389
"Jl. Hayam Wuruk No. 35 C, Mojosari Mojokerto, Jawa Timur",Kota Surabaya,Jawa Timur,-7.519152000000001,112.5611348
"Jl. Hayam Wuruk No. 35 C, Mojosari Mojokerto, Jawa Timur",Kota Surabaya,Jawa Timur,-7.519152000000001,112.5611348
"Jl. Hayam Wuruk No. 35 C, Mojosari Mojokerto, Jawa Timur",Kota Surabaya,Jawa Timur,-7.519152000000001,112.5611348
Jl. Raya Jemusari No. 81 Jemur Wonosari Kec . Wonocolo Kota Surabaya,Kota Surabaya,Jawa Timur,-7.3219904,112.743269
"Jl. Raya Jemursari No. 27, Wonocolo, Surabaya, Jawa Timur",Kota Surabaya,Jawa Timur,-7.3246647,112.7384753
"Darmo Trade center Lt1, Kios A1-2 Jl Wonokromo Raya",Kota Surabaya,Jawa Timur,-7.302089199999999,112.7381058
Jl. Raya Darmo No. 41 Keputran Kec Tegalsari Kota Surabaya,Kota Surabaya,Jawa Timur,-7.2818723,112.7407658
"Jl. Raya Darmo No.41, Keputran, Kec. Tegalsari, Kota SBY, Jawa Timur 60625, Indonesia",Kota Surabaya,Jawa Timur,-7.2818723,112.7407658
Jl. Raya Darmo No. 41 Keputran Kec Tegalsari Kota Surabaya,Kota Surabaya,Jawa Timur,-7.2818723,112.7407658
"Jl. Dharmahusada No. 221 - 221A, Mojo Kec Gubeng Kota Surabaya",Kota Surabaya,Jawa Timur,-7.2681472,112.7736982
"Jl. Dharmahusada No. 221 - 221A, Kota Surabaya, Jawa Timur",Kota Surabaya,Jawa Timur,-7.2681472,112.7736982
Jln Dharmahusada No. 221 Mojo Kec. Gubeng Kota Surabaya,Kota Surabaya,Jawa Timur,-7.2681472,112.7736982
Gedung Pln Jl. Embong Wungu No 2-4  Embong Kaliasin Kec Genteng  Kota Surabaya,Kota Surabaya,Jawa Timur,-7.265930199999999,112.7444133
Jl. Raya Ngoro Industri No. 66 Ngoro Kec. Ngoro Mojokerto,Kota Mojokerto,Jawa Timur,-7.5350277,112.5603297
"Jl. Gempol - Mojokerto No.102, Sedati, Kec. Ngoro, Mojokerto, Jawa Timur 61385, Indonesia",Kabupaten Mojokerto,Jawa Timur,-7.5487249,112.6197037
"jl raya ngoro industri No.66, Ngoro, Kec. Ngoro, Mojokerto, Jawa Timur 61385, Indonesia",Kota Mojokerto,Jawa Timur,-7.5508943,112.5587694
"Jln Raya Ngoro Blok A -1 Ngoro Mojokerto, Jawa Timur",Kabupaten Mojokerto,Jawa Timur,-7.5530745,112.6169581
"Jl. Raya Ngoro Industri No. 66 Mojokerto, Jawa Timur",Kabupaten Mojokerto,Jawa Timur,-7.5350277,112.5603297
Jl. Raya Ngoro Industri No. 66 Ngoro Kec. Ngoro Mojokerto,Kota Mojokerto,Jawa Timur,-7.5350277,112.5603297
"Jl. Indragiri No.30-32, Darmo, Wonokromo Surabaya, Jawa Timur",Kota Surabaya,Jawa Timur,-7.290359599999999,112.7310647
"Jl. Indragiri 12-18 Blok B No.713, RT.015/RW.06, Darmo, Kec. Wonokromo, Kota SBY, Jawa Timur 60241, Indonesia",Kota Surabaya,Jawa Timur,-7.297552700000001,112.7609511
"Jl. Indragiri 30-32 Darmo Kec. Wonokromo Surabaya, Jawa Timur",Kota Surabaya,Jawa Timur,-7.290359599999999,112.7310647
"Jl. Kusuma Bangsa No.106 Tambaksari  Surabaya, Jawa Timur",Kota Surabaya,Jawa Timur,-7.253972,112.750232
"Jl. Kusuma Bangsa No.106 Surabaya, Kota Surabaya, Jawa Timur",Kota Surabaya,Jawa Timur,-7.253972,112.750232
"Jl. Kusuma Bangsa No.106 Tambaksari  Surabaya, Jawa Timur",Kota Surabaya,Jawa Timur,-7.253972,112.750232
"Hi-Tech Mall, JL. Kusuma Bangsa, No. 116-118, Tambaksari, Tambaksari, Surabaya, Tambaksari, Surabaya City, East Java 60272, Indonesia",Kabupaten Tulungagung,Jawa Timur,-7.252343400000001,112.7498992
Jl. Raya Margorejo Indah Kav. A No. 131 - 132 Margorejo Kec Wonocolo Kota Surabaya,Kota Surabaya,Jawa Timur,-7.3181463,112.7458625
Jl. Kapas Krampung 75A -75B Ploso Tambaksari Rangkah Kec. Tambaksari Kota  Surabaya,Kota Surabaya,Jawa Timur,-7.2497093,112.7628248
"Jl. Kapas Krampung No.75-E, Ploso, Kec. Tambaksari, Kota SBY, Jawa Timur 60133, Indonesia",Kota Surabaya,Jawa Timur,-7.2495463,112.7628363
"Jl. Kapas Krampung 75 A-75B Surabaya, Kota Surabaya, Jawa Timur",Kota Surabaya,Jawa Timur,-7.2497093,112.7628248
"Jl. Kedungdoro No. 229-233 Sawahan Kota Surabaya, Jawa Timur",Kota Surabaya,Jawa Timur,-7.267559499999999,112.7296968
"Jl. Kedungdoro No. 229-233 Sawahan Kota Surabaya, Jawa Timur",Kota Surabaya,Jawa Timur,-7.267559499999999,112.7296968
Jl. Rungkut Industri Raya No. 10 Rungkut Tengah Kec. Gunung Anyar Kota Surabaya,Kota Surabaya,Jawa Timur,-7.330151099999999,112.759089
"Jl. Rungkut Industri Raya No. 10, Rungkut Tengah, Gunung Anyar",Kota Surabaya,Jawa Timur,-7.330151099999999,112.759089
Kompleks Pertokoan Rungkut Megah Raya Blok E/5-6 Jl. Kali Rungkut No. 5 Surabaya.,Kota Surabaya,Jawa Timur,-7.309547699999999,112.7709699
"Pertokoan Rungkut Megah Raya, Jl. Raya Rungkut Blok E/5-6 No. 5 Kali Rungkut Kec Rungkut Kota Surabaya",Kota Surabaya,Jawa Timur,-7.309547699999999,112.7709699
Kompleks Pertokoan Rungkut Megah Raya Blok E/5-6  Jl. Kali Rungkut No. 5 Surabaya.,Kota Surabaya,Jawa Timur,-7.309547699999999,112.7709699
Jl. Kalimantan No.10 Gubeng Kec. Gubeng Kota Surabaya,Kota Surabaya,Jawa Timur,-7.2712222,112.7492082
Jl. Kalimantan No.10 Gubeng Kec. Gubeng Kota Surabaya,Kota Surabaya,Jawa Timur,-7.2712222,112.7492082
Jl. Kalimantan No.10 Gubeng Kec. Gubeng Kota Surabaya,Kota Surabaya,Jawa Timur,-7.2712222,112.7492082
Jl. Kalimantan No.10 Gubeng Kec. Gubeng Kota Surabaya,Kota Surabaya,Jawa Timur,-7.2712222,112.7492082
Jl. Pucang Anom Timur No. 12 Kertajaya Kec. Gubeng  Kota Surabaya,Kota Surabaya,Jawa Timur,-7.2820448,112.7556732
Jl. Pucang Anom Timur No. 12 Kertajaya Kec. Gubeng  Kota Surabaya,Kota Surabaya,Jawa Timur,-7.2820448,112.7556732
"Kampus B, Universitas Airlangga, Jl. Airlangga No. 4-6",Kota Surabaya,Jawa Timur,-7.2720872,112.7587061
"Jl. Dharmawangsa No.23, Airlangga, Kec. Gubeng, Kota Sby, Jawa Timur 60286",Kota Surabaya,Jawa Timur,-7.272095299999999,112.7565738
Jl. Dharmawangsa No. 23 Airlangga Kec. Gubeng Kota Surabaya,Kota Surabaya,Jawa Timur,-7.272095299999999,112.7565738
"Komp. Ruko Rungkut Mutiara B-02, Jl. Raya Rungkut Madya Rungkut Tengah Kec Gunung Anyar Kota Surabaya",Kota Surabaya,Jawa Timur,-7.3121186,112.769998
"Komp. Ruko Rungkut Mutiara B-02, Jl. Raya Rungkut Madya Rungkut Tengah Kec Gunung Anyar Kota Surabaya",Kota Surabaya,Jawa Timur,-7.3121186,112.769998
"Unair Kampus C, Jalan Mulyorejo, Mulyorejo, Kec. Mulyorejo, Kota Sby, Jawa Timur 60115",Kota Surabaya,Jawa Timur,-7.268201400000001,112.7827627
Jl. Kertajaya No. 61 Kertajaya Kec Gubeng Kota Surabaya,Kota Surabaya,Jawa Timur,-7.2776859,112.753938
"Jl. Kertajaya No.181, Airlangga, Kec. Gubeng, Kota SBY, Jawa Timur 60286, Indonesia",Kota Surabaya,Jawa Timur,-7.278941000000001,112.76136
"Jl . Bung Tomo Dusun Pandan, Rt 004 Rw 02, Desa Pandan Arum, Kec. Pacet, Kab. Mojokerto",Kabupaten Mojokerto,Jawa Timur,-7.2906628,112.7466692
"Jl. Raya Ploso Babat, Desa Rejoagung Ploso Losari Selatan Kab Jombang",Kabupaten Jombang,Jawa Timur,-7.4507735,112.2261349
"Jl. Gajah Mada No.6, Rw. III, Seduri, Kec. Mojosari, Mojokerto, Jawa Timur 61382, Indonesia",Kota Mojokerto,Jawa Timur,-7.5143215,112.5562423
"Jl. Gajah Mada No.9, RT.04, Rw. III, Seduri, Kec. Mojosari, Mojokerto, Jawa Timur 61382, Indonesia",Kabupaten Mojokerto,Jawa Timur,-7.514791900000001,112.5560977
"JL. Residen Pamuji No 73, Kel. Purwotengah, Kec Magersari, Kota Mojokerto",Kota Mojokerto,Jawa Timur,-7.4661559,112.4376128
"Jl. Palem Tc 1 / 12 - 13,  Pondok Chandra Indah , Wadung Asri Waru  Palem Wadungasri Kec Waru  Sidoarjo",Kabupaten Sidoarjo,Jawa Timur,-7.343604099999999,112.7688649
"Jl. Palem Tc 1 / 12 - 13,  Pondok Chandra Indah , Wadung Asri Waru  Palem Wadungasri Kec Waru  Sidoarjo",Kota Surabaya,Jawa Timur,-7.343604099999999,112.7688649
Jl. Raya Mojoagung No. 239 Kel. Kademangan Mojokerto,Kota Mojokerto,Jawa Timur,-7.570541,112.3458325
"Jl. Raya Mojoagung 246 - Mojoagung, Kabupaten Jombang, Jawa Timur",Kabupaten Jombang,Jawa Timur,-7.570566800000001,112.3482248
"Jl. Brawijaya No. 80, Peterongan - Jombang, Jawa Timur",Kabupaten Jombang,Jawa Timur,-7.538358199999999,112.269348
"Jl. Simo Kalangan I/230 Simomulyo, Surabaya, Jawa Timur",Kota Surabaya,Jawa Timur,-7.268585000000001,112.7109419
"Jl. Merdeka No. 115 Desa Candi Mulyo Kec. Jombang, Jawa Timur",Kabupaten Jombang,Jawa Timur,-7.538432899999999,112.2420564
Jl Mayjend Prof Dr Moestopo No.2 Pacar Keling Kec Tambaksari  Surabaya,Kota Surabaya,Jawa Timur,-7.2648625,112.7545952
Jl. Pemuda No. 27-31 Embong Kaliasin Kec Genteng  Kota  Surabaya,Kota Surabaya,Jawa Timur,-7.264579500000001,112.7473832
Jl. Pemuda No. 27-31 Embong Kaliasin Kec Genteng  Kota  Surabaya,Kota Surabaya,Jawa Timur,-7.264579500000001,112.7473832
Jl. Raya Diponegoro No. 155 Darmo Kec Wonokromo Kota Surabaya,Kota Surabaya,Jawa Timur,-7.2831583,112.7324144
Jl. Raya Diponegoro No. 155 Darmo Kec Wonokromo Kota Surabaya,Kota Surabaya,Jawa Timur,-7.2831583,112.7324144
Jl. Diponegoro No. 155 Darmo Kec Wonokromo Kota Surabaya,Kota Surabaya,Jawa Timur,-7.2831583,112.7324144
"Jl Ngagel Jaya Selatan Rmi Blok J 6-5 Surabaya, Jawa Timur",Kota Surabaya,Jawa Timur,-7.296590200000001,112.760183
Plaza Manyar Megah Indah Jl Ngagel Jaya Sel Blok J 5-6 Baratajaya Kec Gubeng Kota Surabaya,Kota Surabaya,Jawa Timur,-7.296031999999999,112.760165
Plaza Manyar Megah Indah Jl Ngagel Jaya Sel Blok J 5-6 Baratajaya Kec Gubeng Kota Surabaya,Kota Surabaya,Jawa Timur,-7.296031999999999,112.760165
"Jl. Jendral Ahmad Yani No.3, Kp. Using, Jemberlor, Kec. Patrang, Kabupaten Jember, Jawa Timur 68118, Indonesia",Kabupaten Jember,Jawa Timur,-8.1688996,113.7033466
"Jl. Jendral Ahmad Yani No.3, Kp. Using, Jemberlor, Kec. Patrang, Kabupaten Jember, Jawa Timur 68118, Indonesia",Kabupaten Jember,Jawa Timur,-8.1688996,113.7033466
"Jl. Jendral Ahmad Yani No.3, Kp. Using, Jemberlor, Kec. Patrang, Kabupaten Jember, Jawa Timur 68118, Indonesia",Kabupaten Jember,Jawa Timur,-8.1688996,113.7033466
"Jl. Jendral Ahmad Yani No.3, Kp. Using, Jemberlor, Kec. Patrang, Kabupaten Jember, Jawa Timur 68118, Indonesia",Kabupaten Jember,Jawa Timur,-8.1688996,113.7033466
Jl. Raya Rogojampi No. 12 - 14 Rogojampi Banyuwangi,Kabupaten Banyuwangi,Jawa Timur,-8.3037957,114.2967519
Jl. Raya Rogojampi No. 12 - 14 Rogojampi Banyuwangi,Kabupaten Banyuwangi,Jawa Timur,-8.3037957,114.2967519
"Krajan, Tanggul Wetan, Kec. Tanggul, Kabupaten Jember",Kabupaten Jember,Jawa Timur,-8.1647816,113.4602647
"Krajan, Tanggul Wetan, Kec. Tanggul, Kabupaten Jember",Kabupaten Jember,Jawa Timur,-8.1647816,113.4602647
"Jl. Dr. Wahidin Sudirohusodo No.2, Dusun Muncar Baru, Tembokrejo, Muncar, Kabupaten Banyuwangi",Kabupaten Banyuwangi,Jawa Timur,-8.4356855,114.3347061
"Jl. Brawijaya No.115 Muncar Banyuwangi, Jawa Timur",Kabupaten Banyuwangi,Jawa Timur,-8.4343287,114.3167963
Jl A Yani No. 390/157 Pulo Lor Kec. Jombang Kab Jombang,Kabupaten Jombang,Jawa Timur,-7.5375581,112.2309136
"Jl. Merdeka No. 115 Desa Candi Mulyo Kec. Jombang, Jawa Timur",Kabupaten Jombang,Jawa Timur,-7.538432899999999,112.2420564
"Jl. Merdeka No. 115 Desa Candi Mulyo Kec. Jombang, Jawa Timur",Kota Surabaya,Jawa Timur,-7.538432899999999,112.2420564
Jl A Yani No. 390/157 Pulo Lor Kec. Jombang Kab Jombang,Kabupaten Jombang,Jawa Timur,-7.5375581,112.2309136
Jl A Yani No. 390/157 Pulo Lor Kec. Jombang Kab Jombang,Kota Surabaya,Jawa Timur,-7.5375581,112.2309136
"Jl. Ki S. Mangunsarkoro No. 69 Tamansari, Tamansari Kec. Bondowoso, Kabupaten Bondowoso",Kabupaten Bondowoso,Jawa Timur,-7.9240672,113.8267991
"Jl. Ki S. Mangunsarkoro No. 69 Tamansari, Tamansari Kec. Bondowoso, Kabupaten Bondowoso",Kabupaten Bondowoso,Jawa Timur,-7.9240672,113.8267991
"Jl. Manggar No. 23 Ambulu Jember, Kabupaten Jember, Jawa Timur",Kabupaten Jember,Jawa Timur,-8.347579,113.6047139
"Jl. Manggar No. 23 Ambulu Jember, Kabupaten Jember, Jawa Timur",Kabupaten Jember,Jawa Timur,-8.347579,113.6047139
"Jl. Raya Rambipuji No. 77, Balung, Balung, Kebonsari, Balung Lor, Balung",Kabupaten Jember,Jawa Timur,-8.274583,113.5366187
"Jl. Raya Rambipuji No. 77, Balung, Balung, Kebonsari, Balung Lor, Balung",Kabupaten Jember,Jawa Timur,-8.274583,113.5366187
"Jl. Suprobo No.22, Rt.04/Rw.001, Dusun Krajan, Pesanggaran, Kabupaten Banyuwangi",Kabupaten Banyuwangi,Jawa Timur,-8.5646934,114.0982367
"Jl. Suprobo No.22, Rt.04/Rw.001, Dusun Krajan, Pesanggaran, Kabupaten Banyuwangi",Kabupaten Banyuwangi,Jawa Timur,-8.5646934,114.0982367
"Jl. Gajah Mada No. 106, Curah Ancar Kec, Rambipuji",Kabupaten Jember,Jawa Timur,-8.2064203,113.6082393
"Jl. Gajah Mada No. 106, Curah Ancar Kec, Rambipuji",Kabupaten Jember,Jawa Timur,-8.2064203,113.6082393
"Jln. Raya Sultan Agung 82 Jember, Kabupaten Jember, Jawa Timur",Kabupaten Jember,Jawa Timur,-8.170180199999999,113.6982665
"Jln. Raya Sultan Agung 82 Jember, Kabupaten Jember, Jawa Timur",Kabupaten Jember,Jawa Timur,-8.170180199999999,113.6982665
"Jl. Sultan Agung, Kepatihan, Jember, Kabupaten Jember",Kabupaten Jember,Jawa Timur,-8.1705087,113.6980028
"Jl. Kalimantan No.52, Krajan Timur, Sumbersari, Kec. Sumbersari, Kabupaten Jember, Jawa Timur 68121, Indonesia",Kabupaten Jember,Jawa Timur,-8.1642499,113.7125882
"Jl. Kalimantan No.52, Krajan Timur, Sumbersari, Kec. Sumbersari, Kabupaten Jember, Jawa Timur 68121, Indonesia",Kabupaten Jember,Jawa Timur,-8.1642499,113.7125882
"Jl. Kalimantan No.52, Krajan Timur, Sumbersari, Kec. Sumbersari, Kabupaten Jember, Jawa Timur 68121, Indonesia",Kabupaten Jember,Jawa Timur,-8.1642499,113.7125882
"Jl Gatot Subroto No 73 Probolinggo, Kabupaten Probolinggo, Jawa Timur",Kabupaten Probolinggo,Jawa Timur,-7.7510428,113.2219554
"Jl Gatot Subroto No 73 Probolinggo, Kota Probolinggo, Jawa Timur",Kota Probolinggo,Jawa Timur,-7.7510428,113.2219554
"Jl. Jenderal Ahmad Yani No.27, Taman Baru, Kec. Banyuwangi, Kabupaten Banyuwangi",Kabupaten Banyuwangi,Jawa Timur,-8.219053200000001,114.3686779
"Jl. Dr Wahidin Sudiro Husodo No.2 Banyuwangi, Jawa Timur",Kabupaten Banyuwangi,Jawa Timur,-8.250389799999999,114.2048066
"Jl. Jendral Ahmad Yani No. 32, Kepuharjo, Kec. Lumajang, Kabupaten Lumajang",Kabupaten Lumajang,Jawa Timur,-8.1160347,113.2296874
"Kepuharjo, Kec. Lumajang, Kabupaten Lumajang, Jawa Timur",Kabupaten Lumajang,Jawa Timur,-8.1117166,113.2364676
"Jl. Jend. Ahmad Yani No. 3, Tegal Rejo, Jemberlor, Kec. Patrang, Kabupaten Jember, Jawa Timur 68118, Indonesia",Kabupaten Jember,Jawa Timur,-8.1688996,113.7033466
"Jl. Jend. Ahmad Yani No. 3, Tegal Rejo, Jemberlor, Kec. Patrang, Kabupaten Jember, Jawa Timur 68118, Indonesia",Kabupaten Jember,Jawa Timur,-8.1688996,113.7033466
"Jl. Gajah Mada No.253, Dusun Krajan, Genteng Kulon, Kec. Genteng, Kabupaten Banyuwangi,",Kabupaten Banyuwangi,Jawa Timur,-8.364137999999999,114.1475119
"Jl. Gajah Mada No.253, Dusun Krajan, Genteng Kulon, Kec. Genteng, Kabupaten Banyuwangi",Kabupaten Banyuwangi,Jawa Timur,-8.364137999999999,114.1475119
"Jl. Gajah Mada No.253, Dusun Krajan, Genteng Kulon, Kec. Genteng, Kabupaten Banyuwangi",Kabupaten Banyuwangi,Jawa Timur,-8.364137999999999,114.1475119
"Jl. Gajah Mada No. 253 Genteng Banyuwangi, Jawa Timur",Kabupaten Banyuwangi,Jawa Timur,-8.3643973,114.1468383
"Jln Raya Maron No. 722 Maron Probolinggo, Jawa Timur",Kota Probolinggo,Jawa Timur,-7.8548719,113.3609081
"Jl. Semeru No.12, Krajan II, Kalisat, Kabupaten Jember, Jawa Timur 68193, Indonesia",Kabupaten Jember,Jawa Timur,-8.127651499999999,113.8088063
"Jl. Raya Pasirian, Joho, Pasirian, Kabupaten Lumajang",Kabupaten Lumajang,Jawa Timur,-8.2108515,113.1158625
"Jl. Raya Pasirian, Joho, Pasirian, Kabupaten Lumajang",Kabupaten Lumajang,Jawa Timur,-8.2108515,113.1158625
"Jl. Panglima Besar Sudirman No.33, Tompokersan, Kec. Lumajang, Kabupaten Lumajang",Kabupaten Lumajang,Jawa Timur,-8.1316721,113.2230971
"Jl. Panglima Besar Sudirman No.33, Tompokersan, Kec. Lumajang, Kabupaten Lumajang",Kabupaten Lumajang,Jawa Timur,-8.1316721,113.2230971
"Jl. Panglima Besar Sudirman No.33, Tompokersan, Kec. Lumajang, Kabupaten Lumajang",Kabupaten Lumajang,Jawa Timur,-8.1316721,113.2230971
"Jl. Panglima Besar Sudirman No.33, Tompokersan, Kec. Lumajang, Kabupaten Lumajang",Kabupaten Lumajang,Jawa Timur,-8.1316721,113.2230971
"Jl. Raya Grajagan No.49, Krajan, Purwoharjo, Kabupaten Banyuwangi",Kabupaten Banyuwangi,Jawa Timur,-8.475499400000002,114.2255626
"Jl. Raya Grajagan No.9 Purwoharjo Banyuwangi, Jawa Timur",Kabupaten Banyuwangi,Jawa Timur,-8.4728054,114.2259134
"Jl. Raya Grajagan No.49, Krajan, Purwoharjo, Kabupaten Banyuwangi",Kabupaten Banyuwangi,Jawa Timur,-8.475499400000002,114.2255626
"Jln. Diponegoro 22 Kencong - Jember, Kabupaten Jember, Jawa Timur",Kabupaten Jember,Jawa Timur,-8.2767838,113.3733658
"Jl. Banyuwangi No.63, Dusun Kp. Baru, Jajag, Kec. Gambiran, Kabupaten Banyuwangi,",Kabupaten Banyuwangi,Jawa Timur,-8.4395625,114.1880842
"Jln A. Yani No. 3 Jajag Banyuwangi, Kabupaten Banyuwangi, Jawa Timur",Kabupaten Banyuwangi,Jawa Timur,-8.436956499999999,114.1815787
"Jl. Raya Leces No.98, Krajan II, Sumberkedawung, Kec. Leces, Probolinggo, Jawa Timur 67273, Indonesia",Kota Probolinggo,Jawa Timur,-7.847399,113.22944
"Jl. Raya Asembagus No. 33/1, Kec. Asembagus, Trigonco Utara, Trigonco, Kec. Asembagus, Kabupaten Situbondo, Jawa Timur 68373, Indonesia",Kabupaten Jombang,Jawa Timur,-7.7496841,114.2240386
"Jl. Raya Maesan No.13, Bondowoso, Krajan I Ps., Gambangan, Bondowoso, Kabupaten Bondowoso",Kabupaten Bondowoso,Jawa Timur,-8.029295399999999,113.771464
"Jl. Khairil Anwar, Krajan, Sukowono, Kabupaten Jember",Kabupaten Jember,Jawa Timur,-8.0468358,113.8274961
"Jl. Suroyo No.23, Tisnonegaran, Kec. Kanigaran, Kota Probolinggo, Jawa Timur 67211, Indonesia",Kabupaten Sampang,Jawa Timur,-7.7500856,113.2156538
"Jl. Suroyo No.23, Tisnonegaran, Kec. Kanigaran, Kota Probolinggo, Jawa Timur 67211, Indonesia",Kabupaten Ponorogo,Jawa Timur,-7.7500856,113.2156538
"Jl. Suroyo No.23, Tisnonegaran, Kec. Kanigaran, Kota Probolinggo, Jawa Timur 67211, Indonesia",Kota Surabaya,Jawa Timur,-7.7500856,113.2156538
"Jl. Suroyo No.23, Tisnonegaran, Kec. Kanigaran, Kota Probolinggo, Jawa Timur 67211, Indonesia",Kota Probolinggo,Jawa Timur,-7.7500856,113.2156538
Jln. Sukertiyo No. 9 Rt 13 Rw 3 Yosowilangun Lumajang,Kabupaten Lumajang,Jawa Timur,-8.236241500000002,113.2875356
"Jln. Raya Paiton Km 137 Paiton Probolinggo, Jawa Timur",Kabupaten Probolinggo,Jawa Timur,-7.715578499999999,113.5175253
"Jl. Mawar, Kauman, Puger Kulon, Puger, Kabupaten Jember, Jawa Timur",Kabupaten Jember,Jawa Timur,-8.369851,113.4778172
"Jl Kabupaten No 5 Dusun Pasar Pasuruan, Kabupaten Pasuruan, Jawa Timur",Kabupaten Pasuruan,Jawa Timur,-7.7171756,112.8015437
"Jl. Kawi, Bringan Lawang, Wonojati, Jember, Kabupaten Jember, Jawa Timur 68171, Indonesia",Kabupaten Jember,Jawa Timur,-8.2762013,113.6419449
"Jl. Jenderal Ahmad Yani No.105, Ramguta, Bangsalsari, Kec. Bangsalsari, Kabupaten Jember",Kabupaten Jember,Jawa Timur,-8.2009393,113.5372071
"Jl. Jend. Ahmad Yani No.102, Palraman, Dawuhan, Kec. Situbondo, Kabupaten Situbondo",Kabupaten Situbondo,Jawa Timur,-7.7066201,114.0028414
"Jl. Jend. Ahmad Yani No.102, Palraman, Dawuhan, Kec. Situbondo, Kabupaten Situbondo",Kabupaten Situbondo,Jawa Timur,-7.7066201,114.0028414
"Jl. Jend. Ahmad Yani No.102, Palraman, Dawuhan, Kec. Situbondo, Kabupaten Situbondo",Kabupaten Situbondo,Jawa Timur,-7.7066201,114.0028414
"Jl. Raya Situbondo, Seraten I, Prajekan Kidul, Prajekan, Kabupaten Bondowoso",Kabupaten Bondowoso,Jawa Timur,-7.7995633,113.9780364
"Jln. Raya Dringu No. 43 Probolinggo, Kabupaten Probolinggo, Jawa Timur",Kabupaten Probolinggo,Jawa Timur,-7.764195399999999,113.2399901
"Jl. Dr Wahidin Sudiro Husodo No.2 Banyuwangi, Jawa Timur",Kabupaten Banyuwangi,Jawa Timur,-8.250389799999999,114.2048066
"Jl. Dr Wahidin Sudiro Husodo No.2 Banyuwangi, Jawa Timur",Kabupaten Banyuwangi,Jawa Timur,-8.250389799999999,114.2048066
"Jl. Dr. Wahidin Sudirohusodo No.2, Dusun Muncar Baru, Tembokrejo, Muncar, Kabupaten Banyuwangi",Kabupaten Banyuwangi,Jawa Timur,-8.4356855,114.3347061
"Jl. Dr Wahidin Sudiro Husodo No.2 Banyuwangi, Jawa Timur",Kabupaten Banyuwangi,Jawa Timur,-8.250389799999999,114.2048066
"Jalan Raya Ambulu No. 86-88, Rt.01 / Rw.17, Kebonsari, Balung Lor, Balung",Kabupaten Jember,Jawa Timur,-8.225387399999999,113.6555149
"Jl Raya Besuk No 172 Kec Besuk, Kab Probolinggo, Jawa Timur",Kabupaten Probolinggo,Jawa Timur,-7.7780779,113.4757201
"Jl. Pahlawan 49, Dukuh Dempok, Wuluhan, Jawa Timur",Kabupaten Jember,Jawa Timur,-8.3388651,113.5508318
"Jl Raya Soekarno Hatta No 249 Ruko C, Kel Curahginting Kec Kanigaran Kab Probolinggo",Kota Probolinggo,Jawa Timur,-7.7541717,113.1951953
"Jl.Yos Sudarso Ruko Taman Laguna Blok B.3 Klatak Sukowidi, Lingkungan Sukowidi, Klatak, Kec. Kalipuro, Kabupaten Banyuwangi,",Kabupaten Banyuwangi,Jawa Timur,-8.232350499999999,114.3532475
"Jl. Bhayangkara No.115, Kebonrejo, Kebondalem, Bangorejo, Kabupaten Banyuwangi,",Kabupaten Banyuwangi,Jawa Timur,-8.4855843,114.1366143
Jl. Panglima Sudirman No. 119 Kraksaan Probolinggo,Kota Probolinggo,Jawa Timur,-7.7610595,113.4201583
Jl. Panglima Sudirman No. 119 Kraksaan Probolinggo,Kabupaten Probolinggo,Jawa Timur,-7.7610595,113.4201583
"Jl. Jember-Banyuwangi No.51, Jalen I, Setail, Kec. Genteng, Kabupaten Banyuwangi,",Kabupaten Banyuwangi,Jawa Timur,-8.364906099999999,114.1384894
"Jl Sumberayu , Dusun Sumberayu, Sumberberas, Kabupaten Banyuwangi, Jawa Timur",Kabupaten Banyuwangi,Jawa Timur,-8.4649695,114.3150385
"Krajan, Cermee, Kabupaten Bondowoso, Kabupaten Bondowoso, Jawa Timur",Kabupaten Bondowoso,Jawa Timur,-7.777760000000001,114.048687
"Jl. Raya Galekan No.43, Galekan, Bajulmati, Kec. Wongsorejo, Kabupaten Banyuwangi,",Kabupaten Banyuwangi,Jawa Timur,-7.940667399999999,114.392035
"Raya 176, Jl. Desa Sumber Anom Kec. Tamanan, Tamanan Anyar, Sumber Anom, Tamanan, Bondowoso",Kabupaten Bondowoso,Jawa Timur,-8.0228429,113.8600193
"Jl. Kyai H. Wahid Hasyim No.5-7, Kauman, Kec. Klojen, Kota Malang, Jawa Timur 65119",Kota Malang,Jawa Timur,-7.9833509,112.6291611
"Jl. Kyai H. Wahid Hasyim No.5-7, Kauman, Kec. Klojen, Kota Malang, Jawa Timur 65119",Kota Malang,Jawa Timur,-7.9833509,112.6291611
"Jl. Pasar Besar No.61, Sukoharjo, Kec. Klojen, Kota Malang, Jawa Timur 65118",Kota Malang,Jawa Timur,-7.985258799999999,112.633297
"Jl. Borobudur No.59B, Mojolangu, Kec. Lowokwaru, Kota Malang, Jawa Timur 65142",Kota Malang,Jawa Timur,-7.939297299999999,112.6347973
"Jl. Borobudur No.59B, Mojolangu, Kec. Lowokwaru, Kota Malang, Jawa Timur 65142",Kota Malang,Jawa Timur,-7.939297299999999,112.6347973
"Jl. Dewi Sartika No. 45, Temas, Kec. Batu, Malang, Jawa Timur 65315",Kota Batu,Jawa Timur,-7.8830141,112.530578
"Jl. A. Yani No.42, Kluncing, Petungasri, Kec. Pandaan, Pasuruan, Jawa Timur 67156",Kabupaten Pasuruan,Jawa Timur,-7.662936999999999,112.6893035
"Jl. A. Yani No.42, Kluncing, Petungasri, Kec. Pandaan, Pasuruan, Jawa Timur 67156",Kabupaten Pasuruan,Jawa Timur,-7.662936999999999,112.6893035
"Jl. A. Yani No.42, Kluncing, Petungasri, Kec. Pandaan, Pasuruan, Jawa Timur 67156",Kabupaten Pasuruan,Jawa Timur,-7.662936999999999,112.6893035
"Jl. Pasar Besar No.61, Sukoharjo, Kec. Klojen, Kota Malang, Jawa Timur 65118",Kota Malang,Jawa Timur,-7.985258799999999,112.633297
"Jl. Ahmad Yani, Ardirejo, Kec. Kepanjen, Malang, Jawa Timur 65163",Kabupaten Malang,Jawa Timur,-8.125407,112.5721526
"Jl. Ahmad Yani, Ardirejo, Kec. Kepanjen, Malang, Jawa Timur 65163",Kabupaten Malang,Jawa Timur,-8.125407,112.5721526
"Jl. Dr. Sutomo No.16-17, Krajan, Turirejo, Kec. Lawang, Malang, Jawa Timur 65213",Kabupaten Malang,Jawa Timur,-7.828289799999999,112.6982998
"Jl. Dr. Sutomo No.16-17, Krajan, Turirejo, Kec. Lawang, Malang, Jawa Timur 65213",Kabupaten Malang,Jawa Timur,-7.828289799999999,112.6982998
"Jl. Dr. Sutomo No.16-17, Krajan, Turirejo, Kec. Lawang, Malang, Jawa Timur 65213",Kabupaten Malang,Jawa Timur,-7.828289799999999,112.6982998
"Jl. Raya Tlogomas No.14A, Tlogomas, Kec. Lowokwaru, Kota Malang, Jawa Timur 65144",Kota Malang,Jawa Timur,-7.923862899999999,112.5987233
"Ruko Soekarno Hatta Indah, Jalan Soekarna Hatta Blok D400 Kav. Cde 65141",Kota Malang,Jawa Timur,-7.940042099999999,112.6323309
"Ruko Soekarno Hatta Indah, Jalan Soekarna Hatta Blok D400 Kav. Cde 65141",Kota Malang,Jawa Timur,-7.940042099999999,112.6323309
"Jl. A. Yani No.50 A, Rw.02, Blimbing, Kec. Blimbing",Kota Malang,Jawa Timur,-7.941316,112.642603
"Jl. A. Yani No.50 A, RW.02, Blimbing, Kec. Blimbing, Kota Malang, Jawa Timur 65126",Kota Malang,Jawa Timur,-7.941316,112.642603
"Jl. Tumenggung Suryo No. 23 Cd, Purwantoro, Kec. Blimbing, Kota Malang, Jawa Timur 65123",Kota Malang,Jawa Timur,-7.9607914,112.6418763
"Jl. Merdeka Barat No. 1, Kiduldalem, Kec. Klojen , Jawa Timur",Kota Malang,Jawa Timur,-7.9828543,112.6297819
"Jl. Merdeka Barat No.1, Kiduldalem, Kec. Klojen, Kota Malang, Jawa Timur 65119",Kota Malang,Jawa Timur,-7.9828543,112.6297819
"Jl. Merdeka Barat No.1, Kiduldalem, Kec. Klojen, Kota Malang, Jawa Timur 65119",Kota Malang,Jawa Timur,-7.9828543,112.6297819
"Kampus Univ. Brawijaya, Jl. Veteran, Kec. Lowokwaru, Malang, 65145",Kota Malang,Jawa Timur,-7.9532917,112.6143304
"Jl. Veteran, Kec. Lowokwaru, Kampus Universitas Brawijaya",Kota Malang,Jawa Timur,-7.9532917,112.6143304
"Jl. Diponegoro No.F 10-11, Kidul Dalem, Kec. Bangil, Pasuruan, Jawa Timur 65141",Kabupaten Pasuruan,Jawa Timur,-7.5979368,112.7804008
"Jl. Diponegoro No.F 10-11, Kidul Dalem, Kec. Bangil, Pasuruan, Jawa Timur 65141",Kabupaten Pasuruan,Jawa Timur,-7.5979368,112.7804008
"Jl. Diponegoro No.F 10-11, Kidul Dalem, Kec. Bangil, Pasuruan, Jawa Timur 65141",Kabupaten Pasuruan,Jawa Timur,-7.5979368,112.7804008
"Jl. Diponegoro No.F 10-11, Kidul Dalem, Kec. Bangil, Pasuruan, Jawa Timur 65141",Kabupaten Pasuruan,Jawa Timur,-7.5979368,112.7804008
"Jl. Danau Toba No. E6/25 Sawojajar, Kota Malang, Jawa Timur 65139",Kota Malang,Jawa Timur,-7.979634,112.660364
"Jl. Danau Toba No. E6/25 Sawojajar, Kota Malang, Jawa Timur 65139",Kota Malang,Jawa Timur,-7.979634,112.660364
"Jl. Galunggung No.43, Gading Kasri, Kec. Klojen, Kota Malang, Jawa Timur 65115",Kota Malang,Jawa Timur,-7.968807,112.6132799
"Jl. Jaksa Agung Suprapto No.65, Samaan, Kec. Klojen, Kota Malang, Jawa Timur 65112",Kota Malang,Jawa Timur,-7.966800999999999,112.633325
"Jl. Jaksa Agung Suprapto No.65, Samaan, Kec. Klojen, Kota Malang, Jawa Timur 65112",Kota Malang,Jawa Timur,-7.966800999999999,112.633325
"Jl. Raya Singosari No. 141 Pagentan, Kec. Singosari, Malang, Jawa Timur 65153",Kabupaten Malang,Jawa Timur,-7.8965255,112.6652818
"Jl. Raya Singosari No. 141 Pagentan, Kec. Singosari, Malang, Jawa Timur 65153",Kabupaten Malang,Jawa Timur,-7.8965255,112.6652818
"Jl. Letjen Sutoyo No.18-20, Bunulrejo, Kec. Blimbing, Kota Malang, Jawa Timur 65141",Kota Malang,Jawa Timur,-7.9635661,112.6359845
"Jl. Letjen Sutoyo No.18-20, Bunulrejo, Kec. Blimbing, Kota Malang, Jawa Timur 65141",Kota Malang,Jawa Timur,-7.9635661,112.6359845
"Jl. S. Supriyadi No. 70Cd, Sukun, Kec. Sukun, Kota Malang, Jawa Timur 65147",Kota Malang,Jawa Timur,-7.9976638,112.6189105
"Jl. S. Supriyadi No. 70Cd, Sukun, Kec. Sukun, Kota Malang, Jawa Timur 65147",Kota Malang,Jawa Timur,-7.9976638,112.6189105
"Jl. Jend. Sudirman No.187, Dusun Pakel, Kec. Sumber Pucung",Kabupaten Malang,Jawa Timur,-8.1552037,112.4783188
"Jl. Semeru Sel. No.9, Gn. Kelop, Dampit, Malang, Jawa Timur 65181",Kabupaten Malang,Jawa Timur,-8.2119196,112.7498716
"Jl. Panglima Sudirman No.11, Purworejo, Kec. Purworejo, Kota Pasuruan, Jawa Timur 67115",Kota Pasuruan,Jawa Timur,-7.647443,112.9030853
"Jl. Panglima Sudirman No.11, Purworejo, Kec. Purworejo, Kota Pasuruan, Jawa Timur 67115",Kota Pasuruan,Jawa Timur,-7.647443,112.9030853
"Jl. Panglima Sudirman No.11, Purworejo, Kec. Purworejo, Kota Pasuruan, Jawa Timur 67115",Kota Pasuruan,Jawa Timur,-7.647443,112.9030853
"Jl. Panglima Sudirman No.11, Purworejo, Kec. Purworejo, Kota Pasuruan, Jawa Timur 67115",Kota Pasuruan,Jawa Timur,-7.647443,112.9030853
"Jl. Panglima Sudirman No.11, Purworejo, Kec. Purworejo, Kota Pasuruan, Jawa Timur 67115",Kota Pasuruan,Jawa Timur,-7.647443,112.9030853
"Jl. Panglima Sudirman No.11, Purworejo, Kec. Purworejo, Kota Pasuruan, Jawa Timur 67115",Kota Pasuruan,Jawa Timur,-7.647443,112.9030853
"Jl. Raya Tumpang No.134, Ledoksari, Tumpang, Kec. Tumpang, Malang, Jawa Timur 65156",Kabupaten Malang,Jawa Timur,-8.007947,112.759866
"Jl. Raya Rejoso, Kemantren, Arjosari, Kec. Rejoso, Pasuruan, Jawa Timur 67181",Kabupaten Pasuruan,Jawa Timur,-7.6919631,112.9678765
"Jl. Raya Wonokerto - Bantur , Wonokerto Krajan, Bantur, Malang, Jawa Timur 65179",Kabupaten Malang,Jawa Timur,-8.2256054,112.5980227
"Jl. Hayam Wuruk No.17, 03, Gondanglegi Wetan, Kec. Gondanglegi, Malang, Jawa Timur 65174",Kabupaten Malang,Jawa Timur,-8.1756735,112.6377483
"Jl. Hayam Wuruk No.17, 03, Gondanglegi Wetan, Kec. Gondanglegi, Malang, Jawa Timur 65174",Kabupaten Malang,Jawa Timur,-8.1756735,112.6377483
"Jl. Raya Ngantang No.73, Sumberagung, Prabon I, Sumberagung, Kec. Ngantang, Malang, Jawa Timur 65392",Kabupaten Malang,Jawa Timur,-7.850635100000001,112.3715785
"Jl. Surabaya-Pasuruan 17, Latek Lor, Latek, Kec. Bangil",Kabupaten Pasuruan,Jawa Timur,-7.605595,112.8015898
"Jl. Raya Surabaya No.37, Purwosari, Pasuruan, Jawa Timur 67162",Kabupaten Pasuruan,Jawa Timur,-7.7678751,112.7423736
"Jl. Raya Pakisaji No. 238,Jatirejo, Pakisaji, Jawa Timur",Kota Malang,Jawa Timur,-8.0700801,112.5962712
"Jl. Panglima Sudirman B No. 198, Kebonagung, Purworejo, Kec. Purworejo, Kota Pasuruan, Jawa Timur 67115",Kota Pasuruan,Jawa Timur,-7.6572568,112.896636
"Jl. Diponegoro No. 22, Girimoyo, Kec. Karang Ploso",Kabupaten Malang,Jawa Timur,-7.9062949,112.5676717
"Jagil, Gambiran, Kec. Prigen, Pasuruan, Jawa Timur 67157",Kabupaten Pasuruan,Jawa Timur,-7.677176800000001,112.6511518
"Jalan Raya Ngijo Karangploso, Ngijo, Karangploso, Krajan, Ngijo, Kec. Karang Ploso, Malang, Jawa Timur 65152",Kabupaten Malang,Jawa Timur,-7.9050585,112.6093487
"Jl. Pasar Besar 68-64, Sukoharjo, Kec. Klojen, Kota Malang, Jawa Timur 65118",Kota Malang,Jawa Timur,-7.985780399999999,112.632636
"Jl. Raya Asrikaton No.150, Bambon, Asrikaton, Kec. Pakis, Malang, Jawa Timur 65154",Kota Malang,Jawa Timur,-7.953788199999999,112.6991898
"Donomulyo, Dono Mulyo, Donomulyo, Malang, Jawa Timur 65167",Kabupaten Malang,Jawa Timur,-8.2850512,112.423186
"Jl. Raya Sumbermanjing Wetan No.3A, Krajan, Sumbermanjing Wetan, Sumbermanjing, Malang, Jawa Timur 65176",Kota Malang,Jawa Timur,-8.2688416,112.693528
"Jl. Nasional Iii, Gn. Kelop, Dampit, Malang, Jawa Timur 65181",Kabupaten Malang,Jawa Timur,-8.2185595,112.7662158
"Jl. M.T. Haryono No. 131 Dinoyo, Malang, Kota Malang, Jawa Timur 65141",Kota Malang,Jawa Timur,-7.941043100000001,112.6091214
"Karang Nongko, Sumberagung, Kec. Plosoklaten, Kediri, Jawa Timur 64175, Indonesia",Kota Kediri,Jawa Timur,-7.8434327,112.2091858
"Jl. Brigjen Katamso No.67, Kp. Dalem, Kec. Kota Kediri, Kota Kediri, Jawa Timur 64129",Kota Kediri,Jawa Timur,-7.8287397,112.0164048
"Jl. Panglima Sudirman No.38, Caruban, Mejayan, Madiun, Jawa Timur 63153",Kabupaten Madiun,Jawa Timur,-7.548429899999999,111.6526216
"Jl. Panglima Sudirman No.164, Caruban, Krajan, Kec. Mejayan, Madiun, Jawa Timur 63153, Indonesia",Kabupaten Madiun,Jawa Timur,-7.548207,111.6602718
"Jl.Panglima Sudirman No 55 Kepatihan,Kec Tulungagung,Jawa timur 66212",Kabupaten Tulungagung,Jawa Timur,-8.062737199999999,111.907436
"Jl. Panglima Sudirman No.51, Kepatihan, Kec. Tulungagung, Kabupaten Tulungagung, Jawa Timur 66219, Indonesia",Kabupaten Tulungagung,Jawa Timur,-8.0628885,111.9076865
"Jl. Sudirman No. 55, Tulungagung, Kabupaten Tulungagung, Jawa Timur",Kabupaten Tulungagung,Jawa Timur,-8.062737199999999,111.907436
"Jl. Sudirman No. 55 Tulungagung, Kabupaten Tulungagung, Jawa Timur",Kabupaten Tulungagung,Jawa Timur,-8.062737199999999,111.907436
"Jl. Ahmad Yani No. 7 Ruko Mtc Blitar, Kota Blitar, Jawa Timur",Kota Blitar,Jawa Timur,-8.0991079,112.1689083
"Jl. Ahmad Yani No.6, Kepanjen Lor, Kec. Kepanjenkidul, Kota Blitar, Jawa Timur 66112, Indonesia",Kota Blitar,Jawa Timur,-8.0995309,112.1700223
"Jl. Merdeka No.30, Kepanjen Lor, Kec. Kepanjenkidul, Kota Blitar, Jawa Timur 66112",Kota Blitar,Jawa Timur,-8.098795899999999,112.166724
"Jl. Panglima Sudirman No.165, Dobangsan, Ngantru, Kec. Trenggalek, Kabupaten Trenggalek, Jawa Timur 66311, Indonesia",Kabupaten Trenggalek,Jawa Timur,-8.0530899,111.7087733
"Jl. P. Sudirman No. 108-112 Trenggalek, Jawa Timur",Kabupaten Trenggalek,Jawa Timur,-8.0531244,111.7084714
"Komplek Ruko Jalan Raya Ii, Kec. Ngunut, Ngunut, Tulungagung, Jawa Timur 66292",Kabupaten Tulungagung,Jawa Timur,-8.1043571,112.0108231
"Jl. Raya I No. 2 Lingkungan 9 Tulungagung, Jawa Timur",Kabupaten Tulungagung,Jawa Timur,-8.102892599999999,112.0084101
"Jl. Jend. A. Yani No.26, Krajan, Pacitan, Kec. Pacitan, Kabupaten Pacitan, Jawa Timur 63511, Indonesia",Kabupaten Pacitan,Jawa Timur,-8.195297199999999,111.1051206
"Jl. Jend. A. Yani No.26, Krajan, Pacitan, Kec. Pacitan, Kabupaten Pacitan, Jawa Timur 63511",Kabupaten Pacitan,Jawa Timur,-8.195297199999999,111.1051206
"Jl. Panglima Sudirman No.55, Kepatihan, Kec. Tulungagung, Kabupaten Tulungagung, Jawa Timur 66212, Indonesia",Kabupaten Tulungagung,Jawa Timur,-8.062737199999999,111.907436
"Jl. Panglima Sudirman No.55, Kepatihan, Kec. Tulungagung, Kabupaten Tulungagung, Jawa Timur 66212, Indonesia",Kabupaten Trenggalek,Jawa Timur,-8.062737199999999,111.907436
"Jl. Pemuda No 6 Dandangan Kec Kota Kediri, Jawa Timur",Kota Kediri,Jawa Timur,-7.813212299999999,112.020041
"Jl Pemuda Dandangan Kec Kota Kediri, Kota Kediri, Jawa Timur",Kota Kediri,Jawa Timur,-7.8139599,112.0201896
"Jl. Panglima Besar Sudirman No. 43, Pare, Jawa Timur",Kabupaten Kediri,Jawa Timur,-7.7649899,112.186339
"Jl. Panglima Besar Sudirman No.43, Pare, Jawa Timur",Kabupaten Kediri,Jawa Timur,-7.7649899,112.186339
"Jl.Panglima Besar Sudirman No.77 Plongko Pare, Jawa Timur",Kabupaten Kediri,Jawa Timur,-7.766510599999999,112.1915039
"Jl. Ahmad Yani No.207, Payaman, Kec. Nganjuk, Kabupaten Nganjuk, Jawa Timur 64418, Indonesia",Kabupaten Nganjuk,Jawa Timur,-7.6100707,111.899664
"Jl. Ahmad Yani No.213, Payaman, Kec. Nganjuk, Kabupaten Nganjuk, Jawa Timur 64418, Indonesia",Kabupaten Nganjuk,Jawa Timur,-7.610195499999999,111.8997022
"Jl. Ahmad Yani No.207, Payaman, Kec. Nganjuk, Kabupaten Nganjuk, Jawa Timur 64418, Indonesia",Kabupaten Nganjuk,Jawa Timur,-7.6100707,111.899664
"Jl. Gatot Subroto No.10, Kertosono, Nglawak, Kertosono, Nganjuk Regency 64394",Kabupaten Nganjuk,Jawa Timur,-7.592442699999999,112.1066866
"Jl. Raya Tawang No. 73 Kec. Wates Kediri, Jawa Timur",Kabupaten Kediri,Jawa Timur,-7.922595499999999,112.126744
"Komplek Ruko Teddy Wijaya Jl. Raya A Yani, Warujayeng, Nganjuk, Jawa Timur 64483",Kabupaten Nganjuk,Jawa Timur,-7.6268209,112.0493531
Jl. Panglima Sudirman No. 164 Krajan Kec. Caruban Madiun,Kabupaten Madiun,Jawa Timur,-7.548207,111.6602718
"Jl. Pahlawan No.29, Kartoharjo, Kota Madiun, Jawa Timur 63116",Kota Madiun,Jawa Timur,-7.6238214,111.5206761
"Jl. Pahlawan No.29, Kartoharjo, Kota Madiun, Jawa Timur 63116",Kota Madiun,Jawa Timur,-7.6238214,111.5206761
"Jl. Pahlawan No.29, Kartoharjo, Kec. Kartoharjo, Kota Madiun, Jawa Timur 63116, Indonesia",Kota Madiun,Jawa Timur,-7.6238214,111.5206761
"Jl. Pahlawan No.29, Kartoharjo, Kota Madiun, Jawa Timur 63116",Kota Madiun,Jawa Timur,-7.6238214,111.5206761
Jl. Raya Adil Makmur Kel. Bangunsari Kec. Madiun Madiun,Kabupaten Madiun,Jawa Timur,-7.7548504,111.5228751
"Jl. Raya Maospati No. 74 Maospati Magetan, Jawa Timur",Kabupaten Magetan,Jawa Timur,-7.609811599999999,111.4558188
"Jl. Kota Baru Rt. 03 / Rw. 07, Kanigoro, Tlogo, Blitar, Jawa Timur 66171",Kabupaten Blitar,Jawa Timur,-8.129435299999999,112.2199387
"Jl. Urip Sumoharjo No. 105 Beru, Kec. Wlingi Blitar",Kota Blitar,Jawa Timur,-8.0808349,112.3244966
"Jl.Raya Bandung Campurdarat Tlag, Kabupaten Tulungagung, Jawa Timur",Kabupaten Tulungagung,Jawa Timur,-8.1704725,111.7941535
"Jl. Raya Mastrip No 51 Rt01/01, Kauman, Srengat, Jawa Timur 66152",Kabupaten Blitar,Jawa Timur,-8.0627424,112.0666946
"Jl. Panglima Sudirman, Kejuron, Kec. Madiun, Kota Madiun, Jawa Timur 63132",Kota Madiun,Jawa Timur,-7.6311397,111.5235476
"Jl. Panglima Sudirman, Kejuron, Kec. Madiun, Kota Madiun, Jawa Timur 63132",Kota Madiun,Jawa Timur,-7.6311397,111.5235476
"Jl. Raya Gandusari Kampak, Sukorejo, Rt 04 Rw 02, Sukorejo, Gandusari, Sukorejo, Kec. Trenggalek, Trenggalek, Jawa Timur 66372",Kabupaten Trenggalek,Jawa Timur,-8.1349987,111.6990877
"Jl. Ahmad Yani No.696, Karangrejo, Beran, Kec. Ngawi, Kabupaten Ngawi, Jawa Timur 63216",Kabupaten Ngawi,Jawa Timur,-7.4250178,111.4411523
"Jl. Di. Panjaitan No.-,  Madiun, Kota Madiun, Jawa Timur",Kota Madiun,Jawa Timur,-7.6502944,111.5303549
"Jl. Raya Paron No. 24 Gelung Kec. Paron Ngawi, Jawa Timur",Kabupaten Ngawi,Jawa Timur,-7.441358600000001,111.3874262
"Jl. Raya Sumberdiren No.24, Dadapan, Sumberdiren, Kec. Garum, Blitar, Jawa Timur 66182, Indonesia",Kabupaten Blitar,Jawa Timur,-8.0729169,112.2136045
Jl. Dr Wahidin Sudirohusodo No. 229 Kec Gurah Kediri,Kabupaten Kediri,Jawa Timur,-7.807553899999998,112.0881324
"Jl. Jawa No. 1 Desa Gringging Kec Grogol Kediri, Jawa Timur",Kabupaten Kediri,Jawa Timur,-7.7443765,111.962028
"Jl. Sultan Agung No. 49-51 Ponorogo, Kabupaten Ponorogo, Jawa Timur",Kabupaten Ponorogo,Jawa Timur,-7.8648663,111.4746193
"Jl. Sultan Agung No.73, Sultanagung, Nologaten, Kec. Ponorogo, Kabupaten Ponorogo, Jawa Timur 63419, Indonesia",Kabupaten Sidoarjo,Jawa Timur,-7.866182899999998,111.4750525
Jl. Mastrip Kel. Sukorame Kec. Mojoroto Kota Kediri,Kota Kediri,Jawa Timur,-7.8105566,111.985908
"Jl. Sultan Agung No. 49-51 Ponorogo, Kabupaten Ponorogo, Jawa Timur",Kabupaten Ponorogo,Jawa Timur,-7.8648663,111.4746193
"Jl. Raya Ngawi - Caruban, Legundi 1, Legundi, Karangjati, Kabupaten Ngawi, Jawa Timur 63284",Kabupaten Ngawi,Jawa Timur,-7.4610529,111.6081458
"Jl. Tidar Rt/Rw 12/03 Campurejo Mojoroto Kediri, Jawa Timur",Kabupaten Bangkalan,Jawa Timur,-7.829566,111.9721141
"Jl. KH Wachid Hasyim No.23, Bandar Lor, Kec. Mojoroto, Kota Kediri, Jawa Timur 64114, Indonesia",Kota Kediri,Jawa Timur,-7.819873899999998,112.003786
"Jl. Kartini No. 39, Ds. Wonokerto, Pelemahan, Jawa Timur",Kota Kediri,Jawa Timur,-7.7088432,112.1262089
"Jl Raya Pantai Prigi Margomulyo, Kabupaten Trenggalek, Jawa Timur",Kabupaten Trenggalek,Jawa Timur,-8.2728742,111.7154934
"Jl. Jaksa Agung Suprapto, Cabean Kidul, Ketanggi, Kec. Ngawi",Kabupaten Ngawi,Jawa Timur,-7.4019064,111.4461508
"Jl. Jaksa Agung Suprapto No.35, Cabean Kidul, Ketanggi, Kec. Ngawi, Kabupaten Ngawi, Jawa Timur 63211, Indonesia",Kabupaten Ngawi,Jawa Timur,-7.401141900000001,111.4464879
Jl. Raya Utara Lingkungan Bulu Kec. Sutojayan Blitar,Kabupaten Blitar,Jawa Timur,-8.1621661,112.217736
"Jl. Raya Sambi, Petung, Jemekan, Kec. Ringinrejo, Kediri, Jawa Timur 64176, Indonesia",Kabupaten Blitar,Jawa Timur,-7.987555200000001,112.0336628
"Jl. Panglima Sudirman No. 38 Kebonagung Magetan, Jawa Timur",Kabupaten Magetan,Jawa Timur,-7.654396699999999,111.3330818
"Jl. Jend. Sudirman No.38, Dusun Kebonagung, Kebonagung, Kec. Magetan, Kabupaten Magetan, Jawa Timur 63317",Kabupaten Magetan,Jawa Timur,-7.654396699999999,111.3330818
"Jl. R.A. Kartini No.210, Tlogobendung, Kec. Gresik, Kabupaten Gresik, Jawa Timur 61122",Kabupaten Gresik,Jawa Timur,-7.1678145,112.6452876
"Jl. R.A. Kartini No.210, Injen Barat, Tlogobendung, Kec. Gresik, Kabupaten Gresik, Jawa Timur 61122",Kabupaten Gresik,Jawa Timur,-7.1678145,112.6452876
"Jl. R.A. Kartini, Injen Barat, Tlogobendung, Kec. Gresik, Kabupaten Gresik, Jawa Timur 61122",Kabupaten Gresik,Jawa Timur,-7.1685359,112.6466819
"Jl. R.A. Kartini, Injen Barat, Tlogobendung, Kec. Gresik, Kabupaten Gresik, Jawa Timur 61122",Kabupaten Gresik,Jawa Timur,-7.1685359,112.6466819
"Jl. Sumatra No.31 C-D, Gn. Malang, Randuagung, Kebomas, Kabupaten Gresik, Jawa Timur 61121",Kabupaten Gresik,Jawa Timur,-7.1563099,112.6151652
"Jl. Sumatra No.31 C-D, Gn. Malang, Randuagung, Kebomas, Kabupaten Gresik, Jawa Timur 61121",Kabupaten Gresik,Jawa Timur,-7.1563099,112.6151652
"Jl. Sumatera No.31 Ruko C-D Gresik Kota Baru, Randuagung, Kebomas, Kabupaten Gresik, Jawa Timur 61121",Kabupaten Gresik,Jawa Timur,-7.1675153,112.658943
"Jl. Veteran No.93, Kb. Dalem, Gapurosukolilo, Kec. Gresik, Kabupaten Gresik, Jawa Timur 61122",Kabupaten Gresik,Jawa Timur,-7.176279000000001,112.6515958
"Jl. Basuki Rahmad No. 75, Kutorejo, Kec. Tuban, Kabupaten Tuban",Kabupaten Tuban,Jawa Timur,-6.8995152,112.0610708
"Jl. Basuki Rahmad No. 75, Kutorejo, Kec. Tuban, Jawa Timur",Kabupaten Tuban,Jawa Timur,-6.8995152,112.0610708
"Jl. Basuki Rahmad No. 75, Kutorejo, Kec. Tuban, Jawa Timur",Kabupaten Tuban,Jawa Timur,-6.8995152,112.0610708
"Jl. Basuki Rahmad No. 75, Kutorejo, Kec. Tuban, Jawa Timur",Kabupaten Tuban,Jawa Timur,-6.8995152,112.0610708
"Jl. Teuku Umar No. 47 B, Kadipaten, Kec. Bojonegoro",Kabupaten Bojonegoro,Jawa Timur,-7.1528183,111.889089
"Jl. Teuku Umar No. 47 B, Kadipaten, Kec. Bojonegoro",Kabupaten Bojonegoro,Jawa Timur,-7.1528183,111.889089
"Jl. Teuku Umar No. 47 B, Kadipaten, Kec. Bojonegoro",Kabupaten Bojonegoro,Jawa Timur,-7.1528183,111.889089
"Jl. Teuku Umar No. 47 B, Kadipaten, Kec. Bojonegoro, Kab. Bojonegoro",Kabupaten Bojonegoro,Jawa Timur,-7.1528183,111.889089
"Jl. Teuku Umar No. 47 B, Kadipaten, Kec. Bojonegoro, Kab. Bojonegoro",Kabupaten Bojonegoro,Jawa Timur,-7.1528183,111.889089
"Jl. Tuban-Gresik 71, Brondong, Kec. Brondong, Kabupaten Lamongan, Jawa Timur",Kabupaten Lamongan,Jawa Timur,-6.873176,112.2928797
"Ruko Rengel Indah No.9-10 Jl. Raya Rengel, Jawa Timur",Kabupaten Tuban,Jawa Timur,-7.0663054,112.0569855
Jl. Raya Sumuragung Sumberejo No.  Rt 25/Rw 8 Bojonegoro,Kabupaten Bojonegoro,Jawa Timur,-7.1725899,111.9994923
"Jl. Lamongrejo No.125, Dapur Barat, Sidokumpul, Kec. Lamongan, Kabupaten Lamongan, Jawa Timur 62213",Kabupaten Lamongan,Jawa Timur,-7.1131769,112.4172508
"Jl. Pahlawan 72, Sedayu, Sidomulyo, Gresik, Kabupaten Gresik, Jawa Timur 61153",Kabupaten Gresik,Jawa Timur,-6.993946999999999,112.56407
Jl. Raya Bojonegoro Cepu No. 174A Desa Kalitidu Kec Kalitidu Kab Bojonegoro,Kabupaten Bojonegoro,Jawa Timur,-7.1301426,111.7670807
"Jalan Raya Balungpanggang No.20, Pilangrejo, Babatan, Balongpanggang, Kabupaten Gresik, Jawa Timur 61173",Kabupaten Gresik,Jawa Timur,-7.268660499999998,112.4417759
"Jalan Raya Balungpanggang No.20, Pilangrejo, Babatan, Balongpanggang, Kabupaten Gresik, Jawa Timur 61173",Kabupaten Gresik,Jawa Timur,-7.268660499999998,112.4417759
"Jl. Raya Timur, Kec. Jatirogo, Tuban, Purwosari, Sugihan, Jatirogo",Kabupaten Tuban,Jawa Timur,-6.8925573,111.666157
"Jl. Mastrip No. 65, Ledok Wetan, Kec. Bojonegoro, Jawa Timur",Kabupaten Bojonegoro,Jawa Timur,-7.1483256,111.8754638
"Jl. Sindujoyo No.69B, Kebungson, Kroman, Kec. Gresik, Kabupaten Gresik, Jawa Timur 61117",Kabupaten Gresik,Jawa Timur,-7.150261,112.652965
"Jl. Sunan Drajat No.2-A, Kaloharjo, Sidoharjo, Kec. Lamongan, Kabupaten Lamongan, Jawa Timur 62217",Kabupaten Lamongan,Jawa Timur,-7.1318041,112.41364
"Manyar Raya Resort Blok A1.01, Kav. 107, Jl. Sukomulyo, Manyar, Wonorejo, Yosowilangun, Kec. Gresik, Kabupaten Gresik, Jawa Timur 61151",Kabupaten Gresik,Jawa Timur,-7.126555,112.6094637
"Manyar Raya Resort Blok A1.01, Kav. 107, Jl. Sukomulyo, Manyar, Wonorejo, Yosowilangun, Kec. Gresik, Kabupaten Gresik, Jawa Timur 61151",Kabupaten Gresik,Jawa Timur,-7.126555,112.6094637
"Manyar Raya Resort Blok A1.01, Kav. 107, Jl. Sukomulyo, Manyar, Wonorejo, Yosowilangun, Kec. Gresik, Kabupaten Gresik, Jawa Timur 61151",Kabupaten Gresik,Jawa Timur,-7.126555,112.6094637
"Jl. Khayangan Api No.423, RT.016/RW.004, Dander, Kec. Dander, Kabupaten Bojonegoro, Jawa Timur 62171, Indonesia",Kota Surabaya,Jawa Timur,-7.2435466,111.8090564
"Jl Raya Bangilan No 126 Pulut, Kec. Bangilan, Jawa Timur",Kabupaten Tuban,Jawa Timur,-6.9738064,111.7152599
"Jl.Raya No 16 Kragan-Rembang-Surabaya, Jetis, Kec. Tambakboyo",Kabupaten Tuban,Jawa Timur,-6.7783171,111.7585025
"Jl. Raya Cangkir No.154, Dusun Cangkir, Cangkir, Kec. Driyorejo, Kabupaten Gresik, Jawa Timur 61177, Indonesia",Kabupaten Gresik,Jawa Timur,-7.366006800000001,112.632005
"Jl. Merakurak No. 12, Desa Sambonggede, Kabupaten Tuban, Jawa Timur",Kabupaten Tuban,Jawa Timur,-6.879441,111.9842156
"Gedung Graha Sarana Gresik -, Jl. A. Yani, Ngipik, Karangpoh, Kec. Gresik, Kabupaten Gresik, Jawa Timur 61118",Kabupaten Gresik,Jawa Timur,-7.1572086,112.6400069
"Desa Sumberarum, Area Ladang, Kec. Kerek, Jawa Timur",Kabupaten Tuban,Jawa Timur,-6.8648421,111.9090256
"Jl. Raya Babat - Bojonegoro No.258, Banaran, Babat, Kec. Babat, Kabupaten Lamongan, Jawa Timur 62271",Kabupaten Lamongan,Jawa Timur,-7.101525,112.1703366
"Jl. Raya Babat - Bojonegoro No.258, Banaran, Babat, Kec. Babat, Kabupaten Lamongan, Jawa Timur 62271",Kabupaten Lamongan,Jawa Timur,-7.101525,112.1703366
"Jl. Raya Babat No.258 Babat, Banaran, Babat, Kabupaten Lamongan, Jawa Timur 62271",Kabupaten Lamongan,Jawa Timur,-7.1014729,112.1699021
"Jl. Trunojoyo No.46, Sawahan Cantian, Kepatihan, Kec. Kaliwates, Kabupaten Jember, Jawa Timur 68137, Indonesia",Kabupaten Jember,Jawa Timur,-8.1752257,113.7016157
"Jl. Pahlawan No.105, Krembangan Sel., Kec. Krembangan, Kota Sby, Jawa Timur 60175",Kota Surabaya,Jawa Timur,-7.244058300000001,112.7377445
"Jl. Mayjen.M.Wiyono, Kesatrian, Kec. Blimbing, Kota Malang, Jawa Timur 65126",Kabupaten Malang,Jawa Timur,-7.9786481,112.6462284
"Jl. Mayjen.M.Wiyono, Kesatrian, Kec. Blimbing, Kota Malang, Jawa Timur 65126",Kota Malang,Jawa Timur,-7.9786481,112.6462284
"Jl. Raya Tlogomas No.53, Tlogomas, Kec. Lowokwaru, Kota Malang, Jawa Timur 65144",Kota Malang,Jawa Timur,-7.934704699999998,112.6043422
Jl. A Yani No 2-4 Wonokromo Kec Wonokromo Kota Surabaya,Kota Surabaya,Jawa Timur,-7.305576299999999,112.7358029
"Jl. Barata Jaya No.24, Baratajaya, Kec. Gubeng, Kota SBY, Jawa Timur 60284, Indonesia",Kota Surabaya,Jawa Timur,-7.2989397,112.7574075
"Jl. Raya Tropodo No.57, Tropodo Wetan, Tropodo, Kec. Waru,",Kabupaten Sidoarjo,Jawa Timur,-7.3593581,112.7641252
"Jl. Raya Tropodo No.57, Tropodo Wetan, Tropodo, Kec. Waru, Kabupaten Sidoarjo, Jawa Timur 61256",Kabupaten Sidoarjo,Jawa Timur,-7.3593581,112.7641252
"Pujaresa Kodiklatal,  Jl. Morokrembangan, Jawa Timur",Kota Surabaya,Jawa Timur,-7.2212716,112.7154551
"Kampus A Unair, Jalan Mayjen Prof. Dr. Moestopo 47, Pacar Kembang, Surabaya, Kota Sby, Jawa Timur 60132",Kota Surabaya,Jawa Timur,-7.265468899999999,112.7573734
"Area Perkantoran Telkom, Jl. Ketintang No. Gayungan Ketintang Gayungan,, Kota SBY, 60245, Jalan Ketintang No.156, Gayungan, Ketintang, Surab",Kota Surabaya,Jawa Timur,-7.3097237,112.728311
"Komplek Ruko Permata Suci, Jl. Permata Suci, Suci, Gresik, Kabupaten Gresik, Jawa Timur 61151",Kabupaten Gresik,Jawa Timur,-7.149335,112.597251
"Jl. Soekarno Hatta 275-303, Banyudono, Kec. Ponorogo, Kabupaten Ponorogo, Jawa Timur 63411",Kabupaten Ponorogo,Jawa Timur,-7.8592263,111.4688739
"Jl. Raya Bambe No.1, Bangkingan, Kec. Lakarsantri, Kabupaten Gresik, Jawa Timur 61177, Indonesia",Kabupaten Gresik,Jawa Timur,-7.3505753,112.6615194
"Jl. Taman Asri No.34, Juwet Kenongo, Juwetkenongo, Sidoarjo, Kabupaten Sidoarjo, Jawa Timur 61256",Kabupaten Sidoarjo,Jawa Timur,-7.343661900000001,112.7708366
"Jl. Penjaringan Asri Xii, Penjaringan Sari, Kec. Rungkut, Kota Sby, Jawa Timur 60297",Kota Surabaya,Jawa Timur,-7.3238688,112.7857518
"Jl. Raya Sumenep, Mastasek, Pabian, Kotasumenep, Kabupaten Sumenep, Jawa Timur 69417, Indonesia",Kabupaten Sumenep,Jawa Timur,-7.0178856,113.8739304
"Komplek Pertokoan Darmo Park I Blok V No.5-6, Jl. Mayjend Sungkono, Pakis, Kec. Sawahan, Kota Sby, Jawa Timur",Kabupaten Bangkalan,Jawa Timur,-7.2926269,112.7280853
"Jl. Ngagel No.123, Ngagel, Kec. Wonokromo, Kota Sby, Jawa Timur 60246",Kota Surabaya,Jawa Timur,-7.288944600000001,112.7455654
"Jl. Tol Surabaya - Mojokerto, Area Sawah / Kebun, Pasinan , Lemah Putih, Kec. Wringinanom",Kabupaten Gresik,Jawa Timur,-7.3732779,112.5560168
"Jl. Raya Golf Utama No.1, Boro Teronggo, Kota Araya, Kec. Pakis",Kota Malang,Jawa Timur,-7.9396728,112.6665437
"Jl. Danau Bratan No.A/16, Lesanpuro, Kec. Kedungkandang, Kota Malang, Jawa Timur 65139",Kota Malang,Jawa Timur,-7.976393899999999,112.6634438
"Jl. Danau Bratan No.A/16, Lesanpuro, Kec. Kedungkandang, Kota Malang, Jawa Timur 65139",Kota Malang,Jawa Timur,-7.976393899999999,112.6634438
"Jl. Letjend S. Parman, Purwantoro, Kec. Blimbing, Jawa Timur",Kota Malang,Jawa Timur,-7.9501359,112.6395613
"Jl. Simpang Gajayana, Merjosari, Kec. Lowokwaru, Jawa Timur",Kota Malang,Jawa Timur,-7.9463473,112.6065113
"Jl. Raya Tenggilis Mejoyo Kalirungkut, Kota Surabaya, Jawa Timur",Kota Surabaya,Jawa Timur,-7.3188693,112.7632051
"Jl.Raya Gilang No. 159, Sepanjang, Kabupaten Sidoarjo, Jawa Timur",Kabupaten Sidoarjo,Jawa Timur,-7.3521839,112.6987473
"Sidowaras, Kraton, Krian, Kabupaten Sidoarjo, Jawa Timur 61262",Kabupaten Sidoarjo,Jawa Timur,-7.4048341,112.5774029
"Jl. Adi Sucipto, Tukangkayu, Kec. Banyuwangi, Kabupaten Banyuwangi,",Kabupaten Banyuwangi,Jawa Timur,-8.2302073,114.3634911
"Jl. Politeknik ITS, Keputih, Kec. Sukolilo, Kota SBY, Jawa Timur 60117, Indonesia",Kota Surabaya,Jawa Timur,-7.2760843,112.793787
"Jl. Campursari No 12B Depan Inka Madiun, Jawa Timur",Kota Madiun,Jawa Timur,-7.612225499999999,111.5190226
"Jl. Raya Kedondong, Bagor, Nganjuk, Kabupaten Nganjuk, Jawa Timur",Kabupaten Nganjuk,Jawa Timur,-7.5869387,111.8833243
Jln. Mayjend Prof. Dr. Moesrtopo No. 6-8 Kel. Airlangga - Kec. Gubeng,Kota Surabaya,Jawa Timur,-7.269959999999998,112.7567497
"Jl. Raya Brawijaya Peterongan - Jombang, Jawa Timur",Kabupaten Jombang,Jawa Timur,-7.5412216,112.2817039
"Jl. Sulfat, Bunulrejo, Kec. Blimbing, Kota Malang, Jawa Timur 65122",Kota Malang,Jawa Timur,-7.960254,112.6494801
"Jl. Dr. Sutomo, Pasegan, Sumber Gedang, Kec. Pandaan",Kabupaten Pasuruan,Jawa Timur,-7.6575339,112.6770926
"Jl. Kedoyo Bar. No.25, Keduyo, Mangliawan, Kec. Pakis, Malang, Jawa Timur 65139",Kota Malang,Jawa Timur,-7.9664499,112.661837
"Jl. Pasar Cerme Lor No.166, Ngabetan, Cerme Lor, Cerme, Kabupaten Gresik, Jawa Timur 61171",Kabupaten Gresik,Jawa Timur,-7.226390899999999,112.5600049
"Jl. Raya Semambung No.351, Dusun Karanglo, Driyorejo, Kec. Driyorejo, Kabupaten Gresik, Jawa Timur 61177",Kabupaten Gresik,Jawa Timur,-7.368689099999999,112.6040304
"Jl Ir Sutami Banjaran Kec Kota Kediri, Kota Kediri, Jawa Timur",Kota Kediri,Jawa Timur,-7.8144313,112.0335031
"Jl. Raya Pacitan No. 13 Balong Ponorogo, Jawa Timur",Kabupaten Ponorogo,Jawa Timur,-7.978508499999999,111.4286803
"Jalan Pasuruan-Probolinggo, Kedawung, Kedawung Kulon, Pasuruan, Jawa Timur 67181",Kota Pasuruan,Jawa Timur,-7.7198572,113.0272423
"Jl.Gajah Mada No.175,Kaliwates - Jember, Jawa Timur",Kabupaten Jember,Jawa Timur,-8.173791699999999,113.6894375
"Jl. Diponegoro No.110, Krajan Ii, Kalisat, Kabupaten Jember",Kabupaten Jember,Jawa Timur,-8.094744,113.7558357
"Pondok, Pd. Agung, Kec. Kasembon, Malang, Jawa Timur 65393, Indonesia",Kota Kediri,Jawa Timur,-7.841126699999999,112.3278161
"Jl. Karimata, Gumuk Kerang, Sumbersari, Jawa Timur",Kabupaten Jember,Jawa Timur,-8.175965,113.7176103
Jl. Mayjend Prof Dr Mustopo No. 31-35  Pacar Keling Kec. Tambaksari Kota Surabaya,Kota Surabaya,Jawa Timur,-7.264820299999998,112.7561326
"Jl. Kalijudan No 37 Pacar Keliang Surabaya, Jawa Timur",Kota Surabaya,Jawa Timur,-7.259829700000001,112.772752
"Kantor Pusat Pt. Pal, Ujung, Kec. Semampir, Kota Sby, Jawa Timur 60155",Kota Surabaya,Jawa Timur,-7.2054751,112.7415596
"Jalan Raya Jati, Ngemplak, Cemeng Kalang, Kec. Sidoarjo, Kabupaten Sidoarjo, Jawa Timur 61234, Indonesia",Kabupaten Sidoarjo,Jawa Timur,-7.4448618,112.6919759
"Jl. Gajah Mada No.1, Sisir, Kec. Batu, Kota Batu, Jawa Timur 65314",Kota Batu,Jawa Timur,-7.870037999999999,112.5267204
"Jl. Raya Lumajang-Tempeh Km 7, Tempeh Tengah, Tempeh, Kab. Lumajang,, Jawa Timur 67371",Kabupaten Lumajang,Jawa Timur,-8.1745237,113.1882217
"Jl. Letjen S Parman, Pakis, Sobo, Kec. Banyuwangi, Kabupaten Banyuwangi,",Kabupaten Banyuwangi,Jawa Timur,-8.238748,114.3564059
"Jl. Jawa, Gn. Malang, Randuagung, Kebomas, Kabupaten Gresik, Jawa Timur 61151",Kabupaten Gresik,Jawa Timur,-7.1538904,112.6149089
"Jl. Raya Ngagel No. 137 - 141 Surabaya, Kota Surabaya, Jawa Timur",Kota Surabaya,Jawa Timur,-7.291489,112.7443085
"Jalan Mayjen Yono Suwoyo, Pradahkalikendal, Dukuh Pakis, Pradahkalikendal, Kec. Dukuhpakis, Kota Sby, Jawa Timur 60227",Kota Surabaya,Jawa Timur,-7.307855999999999,112.6824377
Jl. Raya Rungkut Mapan Utara No. 2 Rungkut Tengah Kec Rungkut Kota Surabaya,Kota Surabaya,Jawa Timur,-7.331508700000001,112.7749641
"Pdam, Jl. Mastrip, Bunder, Pancoran, Kec. Bondowoso, Kabupaten Bondowoso",Kabupaten Bondowoso,Jawa Timur,-7.9343226,113.8137988
"Jln. Raya Gending Sebaung Probolinggo, Kabupaten Probolinggo, Jawa Timur",Kabupaten Probolinggo,Jawa Timur,-7.7916622,113.326114
"Jl. Raya Gambiran No. 225, Genteng, Dusun Krajan Ii, Gambiran, Kec. Gambiran, Kabupaten Banyuwangi,",Kabupaten Banyuwangi,Jawa Timur,-8.3921534,114.1453494
"Jl. Ahmad Kusnan No.11, Rt.04/Rw.01, Dusun Krajan, Pesanggaran, Kabupaten Banyuwangi,",Kabupaten Banyuwangi,Jawa Timur,-8.563913099999999,114.0998867
"Jln Jayanegara Rumah Dinas Bank Mandiri Jember, Jawa Timur",Kabupaten Jember,Jawa Timur,-8.1782396,113.6854616
"Jl. Raya Kertanegara No.85, Ngambon, Girimoyo, Kec. Karang Ploso, Malang, Jawa Timur 65152",Kabupaten Malang,Jawa Timur,-7.8957048,112.5996256
"Jl. Tawangsari No.Kav 1, Tawangsari Timur, Tawangsari, Kec. Taman, Kabupaten Sidoarjo, Jawa Timur 61257, Indonesia",Kabupaten Sidoarjo,Jawa Timur,-7.352785199999999,112.6751357
"Jl. Wonosari Lor, Wonokusumo, Semampir, Kota Sby, Jawa Timur 60154",Kota Surabaya,Jawa Timur,-7.2192496,112.7508631
"Jl. Raung, Ajung Kulon, Ajung, Kec. Ajung, Kabupaten Jember, Jawa Timur 68175, Indonesia",Kabupaten Jember,Jawa Timur,-8.2008007,113.6666622
"Jl. Letkol Slamet Wardoyo Labruk Lor Lumajang, Jawa Timur",Kota Lumajang,Jawa Timur,-8.1397169,113.2081257
"Jalan Mohammad Yamin, Tegal Besar, Jember, Karanganyar, Tegal Besar, Kec. Kaliwates",Kabupaten Jember,Jawa Timur,-8.2020045,113.6855048
"Jl. Sumatera No.22-24, Ketabang, Kec. Genteng, Kota Sby, Jawa Timur 60281",Kota Surabaya,Jawa Timur,-7.2676943,112.7506554
Jl. Raya Julotundo - Ngoro -  Mojokerto Sedati Ngoro Kec Ngoro Mojokerto,Kabupaten Mojokerto,Jawa Timur,-7.5501298,112.6127318
"Jl. Semarang No. 5, Sumbersari, Kec. Lowokwaru, Jawa Timur",Kota Malang,Jawa Timur,-7.963748900000001,112.6191899
"Jl. Ir. H Juanda No.170, Tonatan, Kec. Ponorogo, Kabupaten Ponorogo, Jawa Timur 63418",Kabupaten Ponorogo,Jawa Timur,-7.8711015,111.4854133
"Jl. Veteran, Kebon Dalem, Sidokumpul, Kec. Gresik, Kabupaten Gresik, Jawa Timur 61122",Kabupaten Gresik,Jawa Timur,-7.1768046,112.6512502
"Jl. Kediri, Putih, Gampengrejo, Kediri, Jawa Timur 64182",Kabupaten Kediri,Jawa Timur,-7.7008535,112.020644
"Jalan Sugih Waras, Rejo, Sugihwaras, Candi, Kabupaten Sidoarjo, Jawa Timur 61271, Indonesia",Kabupaten Sidoarjo,Jawa Timur,-7.4769854,112.6991358
"Jl. Raya Saimbang, Kebonagung, Kec. Sidoarjo, Kabupaten Sidoarjo, Jawa Timur 61258",Kabupaten Sidoarjo,Jawa Timur,-7.4221994,112.6720154
"Jl. Brigjend Katamso, Belahan, Wedoro, Kec. Waru, Kabupaten Sidoarjo, Jawa Timur 61256",Kabupaten Sidoarjo,Jawa Timur,-7.3494588,112.7481875
"Jl. Jember Kalibaru-Banyuwangi No.89, Kawang, Labanasem, Kec. Kabat, Kabupaten Banyuwangi",Kabupaten Banyuwangi,Jawa Timur,-8.2978022,114.3048549
"Jl. Cokroaminoto No.5, Wajak, Malang, Jawa Timur 65173",Kabupaten Malang,Jawa Timur,-8.1092541,112.7339039
"Jl. Gajah Mada No.5, Sawunggaling, Kec. Wonokromo, Kota Sby, Jawa Timur 60242",Kota Surabaya,Jawa Timur,-7.3007469,112.7220792
"Jl. Menur Pumpungan No.20-B, RT.014/RW.01, Menur Pumpungan, Kec. Sukolilo, Kota SBY, Jawa Timur 60118, Indonesia",Kota Surabaya,Jawa Timur,-7.289243899999999,112.772482
"Jalan Raya Perumtas 3, Popoh, Kec. Sidoarjo, Kabupaten Sidoarjo, Jawa Timur 61261",Kabupaten Sidoarjo,Jawa Timur,-7.504609500000001,112.7058505
"Perumahan Pondok Benowo Indah 2, Jl. Raya Benowo, Benowo, Babat Jerawat, Kec. Pakal, Kota Sby, Jawa Timur 60197",Kota Surabaya,Jawa Timur,-7.240004,112.627437
"Sidoarjo, Pucang, Kec. Sidoarjo, Kabupaten Sidoarjo, Jawa Timur 61219",Kabupaten Sidoarjo,Jawa Timur,-7.440771700000001,112.7196817
"Jl. Rayataman Pinang Indah, Komp. Taman Pinang Indah Blok A1 No. 1, Jetis, Lemahputro, Kec. Sidoarjo, Kabupaten Sidoarjo, Jawa Timur 61214",Kabupaten Sidoarjo,Jawa Timur,-7.4493652,112.7050334
"Jl. Tamanan, Gemenggeng, Kec. Bagor, Kabupaten Nganjuk, Jawa Timur 64461, Indonesia",Kota Kediri,Jawa Timur,-7.569389,111.8798257
"Itc Mega Grosir Lantai 1 Jl. Gembong No. 20-30, Jawa Timur",Kota Surabaya,Jawa Timur,-7.241628,112.746708
"Jl. Dr. Wahidin No.22, Polaman, Bedali, Kec. Lawang",Kabupaten Malang,Jawa Timur,-7.850631,112.694587
"Jl. Perak Timur, Perak Utara, Kec. Pabean Cantian, Kota Sby, Jawa Timur 60165",Kota Surabaya,Jawa Timur,-7.2100953,112.7343123
Jl. A. Yani No 228 Dukuh Menanggal Kec. Gayungan Kota Surabaya,Kota Surabaya,Jawa Timur,-7.345193000000001,112.7278091
"Jl. Ahmad Yani No. 288 Kec Wonokromo Surabaya, Jawa Timur",Kabupaten Sidoarjo,Jawa Timur,-7.3306013,112.7306479
"Surabaya Wtc Mall, Jl. Pemuda No. 27 - 31 Embong Kaliasin Kec. Genteng Kota Surabaya",Kota Surabaya,Jawa Timur,-7.264579500000001,112.7473832
"Jl. Cengger Ayam Pesantren, Tulusrejo, Kec. Lowokwaru, Kota Malang, Jawa Timur 65141",Kota Malang,Jawa Timur,-7.9473865,112.6308956
"Jl. Sigura - Gura, Karangbesuki, Kec. Sukun, Kota Malang, Jawa Timur 65145",Kota Malang,Jawa Timur,-7.9578443,112.6090957
"JL. Kemirahan, Kepung, Kepung Timur, Kepung, Kec. Kepung, Kediri, Jawa Timur 64293, Indonesia",Kota Kediri,Jawa Timur,-7.798073599999999,112.2547947
"Jl. Raya Kediri - Nganjuk No.26, Sukosewu, Wonoasri, Kec. Grogol, Kediri, Jawa Timur 64151",Kota Kediri,Jawa Timur,-7.7479141,111.9700181
"Jl. Raya Sidojangkung No.53, Tlogo Bedah, Hulaan, Menganti, Kabupaten Gresik, Jawa Timur 61174",Kabupaten Gresik,Jawa Timur,-7.2924316,112.5757005
"Jl. Mayjen Sungkono No.131, Dukuh Pakis, Kec. Dukuhpakis, Kota Sby, Jawa Timur",Kota Surabaya,Jawa Timur,-7.2899254,112.7107316
"Jl. Siwalan Kerto No. 161-165 Surabaya, Kota Surabaya, Jawa Timur",Kota Surabaya,Jawa Timur,-7.3374946,112.7379075
"Jl. Tebo Utara No.7, Mulyorejo, Malang, Malang City, East Java 65147",Kota Malang,Jawa Timur,-7.985432099999999,112.6018452
"Jalan Raya Diponegoro, Genteng, Dusun Krajan, Genteng Kulon, Kec. Genteng, Kabupaten Banyuwangi,",Kabupaten Banyuwangi,Jawa Timur,-8.366583,114.146301
"Jl. Laksda Adi Sucipto No.254, Pandanwangi, Kec. Blimbing, Kota Malang, Jawa Timur 65126",Kota Malang,Jawa Timur,-7.9467279,112.6537068
Jln. Raya Banyuglugur 2 Km Timur Pltu Paiton Probolinggo,Kota Situbondo,Jawa Timur,-7.713850099999999,113.5818528
"Jl. Jenggolo No. 2 Bangah Gedangan Sidoarjo Jawa Timur, Sikep, Keboansikep, Kec. Gedangan, Kabupaten Sidoarjo, Jawa Timur 61254",Kabupaten Sidoarjo,Jawa Timur,-7.3880431,112.7317362
"Jl. Raya Wonorejo No.77, Madurejo, Wonorejo, Kec. Wonorejo, Pasuruan, Jawa Timur 67173",Kabupaten Pasuruan,Jawa Timur,-7.7191892,112.8013298
"Jl. Raya Manyar No.57, Manyarejo, Manyar, Kabupaten Gresik, Jawa Timur 61151",Kabupaten Gresik,Jawa Timur,-7.121812599999999,112.6033366
"Jl. A. Yani, Bringan Lawang, Wonojati, Jenggawah, Jawa Timur",Kabupaten Jember,Jawa Timur,-8.2762013,113.6419449
"Jl Raya Watu Dodol Km 10 Ketapang Banyuwangi, Jawa Timur",Kabupaten Banyuwangi,Jawa Timur,-8.097235,114.4123169
"Jl. Jaksa Agung Suprapto No 2, Klojen, Kec. Klojen, Kota Malang, Jawa Timur 65112",Kota Malang,Jawa Timur,-7.968632399999999,112.6324879
"Jl. Komodor Udara Abdul Rahman Saleh, Bunut Wetan, Pakis, Malang, Jawa Timur 65154",Kabupaten Malang,Jawa Timur,-7.9364065,112.7060479
"Jl. Komodor Udara Abdul Rahman Saleh, Bunut Wetan, Pakis, Malang, Jawa Timur 65154",Kabupaten Malang,Jawa Timur,-7.9364065,112.7060479
"Transmart Mx Malang, Jl. Veteran No.8, Penanggungan, Kec. Klojen, Kota Malang, Jawa Timur 65113",Kota Malang,Jawa Timur,-7.9567427,112.6178342
"Jl. Raya Papar No. 110 Papar Kab. Kediri, Jawa Timur",Kabupaten Kediri,Jawa Timur,-7.6943287,112.0782073
"Jl. Gub Suryo No 1B Rt/Rw 01/03, Karang Poh, Gresik, Karangpoh, Kemuteran, Kec. Gresik, Kabupaten Gresik, Jawa Timur 61116",Kabupaten Gresik,Jawa Timur,-7.1505524,112.6443377
"Jl. Bhayangkara No. 89 Mergelo Jagalan ,Kec.  Magersari  - Mojokerto",Kota Surabaya,Jawa Timur,-7.471629,112.437133
"Jl. Bhayangkara No. 89 Mojokerto, Kota Mojokerto, Jawa Timur",Kota Mojokerto,Jawa Timur,-7.471629,112.437133
"Jl. Raya Surabaya - Malang Km.40, Ngetal, Ngerong, Kec. Gempol, Pasuruan, Jawa Timur 67155",Kota Pasuruan,Jawa Timur,-7.599307400000001,112.6898143
Jl Raya Jabon No. 6 Gayaman Kec Mojoanyar Mojokerto,Kabupaten Mojokerto,Jawa Timur,-7.4959851,112.4647503
"Jl. Raya Luwung Sarirogo No.100, Sari Rogo, Kec. Sidoarjo, Kabupaten Sidoarjo, Jawa Timur 61229",Kabupaten Sidoarjo,Jawa Timur,-7.422651200000001,112.679254
"Tenggulunan, Tanggulungan, Watugolong, Kec. Krian, Kabupaten Sidoarjo, Jawa Timur 61262",Kabupaten Sidoarjo,Jawa Timur,-7.3865321,112.5893222
"Jalan Raya Magetan - Maospati, Turus No.Km. 4, Turus, Purwosari, Kec. Magetan, Kabupaten Magetan, Jawa Timur 63319",Kabupaten Magetan,Jawa Timur,-7.6403458,111.3566119
"Jl. Perum Taman Candiloka 1, Tawang Sari, Ngampelsari, Kec. Candi, Kabupaten Sidoarjo, Jawa Timur 61271",Kabupaten Sidoarjo,Jawa Timur,-7.494720399999999,112.7195046
"Jl. Raya Sawunggaling No. 190 Sidoarjo, Kabupaten Sidoarjo, Jawa Timur",Kabupaten Sidoarjo,Jawa Timur,-7.370887999999999,112.6784775
"Jl. Raya Gondanglegi No.15, Minggir Jaya, Cangkringmalang, Kec. Beji, Pasuruan, Jawa Timur 67154",Kabupaten Pasuruan,Jawa Timur,-7.573354699999999,112.7263721
"Jl. Jayanegara 20 A - Mojokerto, Kabupaten Mojokerto, Jawa Timur",Kabupaten Mojokerto,Jawa Timur,-7.490851800000001,112.4456538
"Jl. Dr. Soebandi 6, Cangkring, Patrang, Kec. Patrang",Kabupaten Jember,Jawa Timur,-8.1540064,113.7031665
"Jl. Raya Wisma Tropodo Aa/01, Waru, Tropodo Wetan, Tropodo, Sidoarjo, Kabupaten Sidoarjo, Jawa Timur 61256",Kabupaten Sidoarjo,Jawa Timur,-7.356062,112.7597444
"Jl. Veteran, Jambean, Sukorejo, Kec. Bojonegoro, Jawa Timur",Kabupaten Bojonegoro,Jawa Timur,-7.1610578,111.8981789
"Jl. Raya Domas No 23 - 24 Menganti, Sidomulyo, Hulaan, Gresik, Gresik Regency, East Java 61174",Kabupaten Gresik,Jawa Timur,-7.294067699999999,112.5908571
"Jl. Raya Trowulan No. 66, Mojokerto, Kabupaten Mojokerto, Jawa Timur",Kabupaten Mojokerto,Jawa Timur,-7.5548362,112.3750714
"Jl. Raya Sepuluh, Sepuluh Kab. Bangkalan, Jawa Timur",Kabupaten Bangkalan,Jawa Timur,-6.8969574,112.9587213
"Karang Pakis, Dukuhsari, Kec. Jabon, Kabupaten Sidoarjo, Jawa Timur 61276",Kabupaten Sidoarjo,Jawa Timur,-7.5483908,112.7263855
"Jalan Dura Karang Puri, Duran, Karangpuri, Kec. Sidoarjo, Jawa Timur, 61261, Indonesia",Kabupaten Sidoarjo,Jawa Timur,-7.4127644,112.6330634
"Jl. Raya Nginden No.22, Baratajaya, Kec. Gubeng, Kota SBY, Jawa Timur 60284, Indonesia",Kota Surabaya,Jawa Timur,-7.300461100000001,112.7617425
"Jl Kh Hasyim Asyari No284 - Bondowoso, Kabupaten Bangkalan, Jawa Timur",Kabupaten Bangkalan,Jawa Timur,-7.9673906,113.9060624
"Limbung Sari, Ajung, Kec. Ajung, Kabupaten Jember, Jawa Timur",Kabupaten Jember,Jawa Timur,-8.2118494,113.6770012
"Jl. Lumba-Lumba No 66 Kaliwates Jember, Kabupaten Jember, Jawa Timur",Kabupaten Jember,Jawa Timur,-8.1819843,113.6544793
"Jl. Raya Pakusari Kec. Pakusari Jember, Kabupaten Jember, Jawa Timur",Kabupaten Jember,Jawa Timur,-8.172417099999999,113.7811324
"Tengah, Kapongan, Kec. Kapongan, Kabupaten Situbondo",Kabupaten Situbondo,Jawa Timur,-7.6931142,114.0696131
"Jl Dokter Soetomo No 98 Tulungagung, Kabupaten Tulungagung, Jawa Timur",Kabupaten Tulungagung,Jawa Timur,-8.0688683,111.896077
Jln Majapahit No. 1 Keputran Kec. Tegalsari Kota Surabaya,Kota Surabaya,Jawa Timur,-7.2741902,112.7432494
"Jl. Kalisari Selatan No 5 Pakuwon City, Laguna, Jawa Timur",Kota Surabaya,Jawa Timur,-7.2799289,112.8060824
"Jl. Re Martadinata No. 45 Mlajah, Kabupaten Bangkalan, Jawa Timur",Kabupaten Bangkalan,Jawa Timur,-7.046132699999999,112.7286694
"Jl. Raya Tambakboyo, Jetis, Kec. Tambakboyo, Jawa Timur",Kabupaten Tuban,Jawa Timur,-6.8014183,111.8602119
"Jl. Suropati No.49, Ngaglik, Kec. Batu, Kota Batu, Jawa Timur 65311",Kota Batu,Jawa Timur,-7.874867699999999,112.5207261
"Jl. Semeru Sel., Dampit, Malang, Jawa Timur 65181, Indonesia",Kabupaten Malang,Jawa Timur,-8.2121049,112.7499293
"Jl. R. Agil Kusumadya, Sawah, Gratitunon, Kec. Grati, Pasuruan, Jawa Timur 67187",Kabupaten Pasuruan,Jawa Timur,-6.8166813,110.8378774
"Jl. Otto Iskandar Dinata 89 Kaliwates Jember, Jawa Timur",Kabupaten Jember,Jawa Timur,-8.1956758,113.6523832
Jl. Raya Dr Ir Soekarno No. 2 Kalijudan Kec. Mulyorejo Kota Surabaya,Kota Surabaya,Jawa Timur,-7.2505127,112.7837174
"Jl. Sumatera No.1 -15, Pacar Keling, Kec. Tambaksari",Kota Surabaya,Jawa Timur,-7.268645100000001,112.750919
"Jl. Raya Waru No.26, Kedungrejo, Kec. Waru, Kabupaten Sidoarjo, Jawa Timur 61256",Kabupaten Sidoarjo,Jawa Timur,-7.3534821,112.7289692
"Jl. Raya Wiguna No.33 - 34 Gn. Anyar, Kota Surabaya, Jawa Timur",Kota Surabaya,Jawa Timur,-7.3392387,112.8039116
"Jl. Raya Pandan No. 02, Pacet - Mojokerto, Jawa Timur",Kota Mojokerto,Jawa Timur,-7.667538700000001,112.5404049
"Bataan, Candijati, Arjasa, Kabupaten Jember, Jawa Timur",Kabupaten Jember,Jawa Timur,-8.1002198,113.7603078
"Jl. Anjasmoro No.78, Kepanjen Lor, Kec. Kepanjenkidul, Kota Blitar, Jawa Timur 66117, Indonesia",Kota Blitar,Jawa Timur,-8.0945213,112.165167
Jl. Soekarno Hatta No. 27 Kunjang Kabupaten Kediri,Kabupaten Kediri,Jawa Timur,-7.656341099999999,112.1565804
"Jl. Hayam Wuruk No. 50-58 Gerdu, Sempusari, Kec. Kaliwates",Kabupaten Jember,Jawa Timur,-8.185707599999999,113.6627902
"Jl. Raya Porong No.1, Porong, Kec. Porong, Kabupaten Sidoarjo, Jawa Timur 61274",Kabupaten Sidoarjo,Jawa Timur,-7.542737000000001,112.6985692
"Jl. Jend. Basuki Rahmat Kabupaten Jombang, Jawa Timur",Kabupaten Jombang,Jawa Timur,-7.5631504,112.2193574
"Jl. Nasional 15 No.12, Kronggahan, Mejayan, Madiun, Jawa Timur 63153",Kabupaten Madiun,Jawa Timur,-7.549199999999999,111.6742821
"Jl. Ahmad Yani No.Km 2, Caruban, Ngampel, Mejayan, Madiun, Jawa Timur 63153",Kabupaten Madiun,Jawa Timur,-7.5307603,111.6440081
"Jl. Raya Pilangkenceng, Rt.08/Rw.01, Kenongo, Kenongorejo, Pilangkenceng, Madiun, Jawa Timur 63154",Kabupaten Madiun,Jawa Timur,-7.4792215,111.6125782
"Jl. H.A. Salim No.80, Pandean, Taman, Kota Madiun, Jawa Timur 63129",Kabupaten Madiun,Jawa Timur,-7.633342400000001,111.5170313
"Jl. Ringroad Barat, Winongo, Mangu Harjo, Kota Madiun, Jawa Timur 63125",Kota Madiun,Jawa Timur,-7.6165072,111.5050365
"Jl. Raya Maospati - Ngawi, Glodog, Karangrejo, Kabupaten Magetan, Jawa Timur 63395",Kabupaten Magetan,Jawa Timur,-7.5578248,111.4259584
"Jl. Temboro - Selawe No.184, Pule, Temboro, Karas, Kabupaten Magetan, Jawa Timur 63395",Kabupaten Magetan,Jawa Timur,-7.5885454,111.3988465
"Jl. Brawijaya No. 29 Pakelan, Kec. Kota Kediri, Jawa Timur",Kota Kediri,Jawa Timur,-7.8142115,112.0116047
"Jl. Raya Madiun Caruban Mejayan Madiun, Kota Madiun, Jawa Timur",Kota Madiun,Jawa Timur,-7.5481411,111.6566191
"Jl Trisula Sumberjo - Kademangan Blitar, Jawa Timur",Kabupaten Blitar,Jawa Timur,-8.1778425,112.1098477
"Karangtalun, Kalidawir, Kabupaten Tulungagung, Jawa Timur 66281",Kabupaten Tulungagung,Jawa Timur,-8.1858626,111.9671537
Jl. Raya Madiun Sumber Agung Balerejo Madiun 63152,Kabupaten Madiun,Jawa Timur,-7.5568116,111.5726904
"Jl. Ahmad Yani, Ngrambe, Kabupaten Ngawi, Jawa Timur 63263",Kabupaten Ngawi,Jawa Timur,-7.5118952,111.2054671
"Jl. Budi Utomo, Ronowijayan, Siman, Kabupaten Ponorogo, Jawa Timur 63471",Kabupaten Ponorogo,Jawa Timur,-7.8632784,111.4987575
"Jln Raya Trisula No 57 Jatisari, Kota Blitar, Jawa Timur",Kota Blitar,Jawa Timur,-8.1474996,112.143819
Jl. Balowerti 1 No. 64 Rt/Rw 016/005 Balowerti Kediri,Kota Kediri,Jawa Timur,-7.8087368,112.0133574
"Jl. Letjend Suprapto No. 79 Banjaran Kediri, Jawa Timur",Kota Kediri,Jawa Timur,-7.8207051,112.0281063
"Jl. Berbek Industri 7, Berbek, Waru, Berbek Industri, Berbek, Kec. Waru, Kabupaten Sidoarjo, Jawa Timur 61256, Indonesia",Kabupaten Nganjuk,Jawa Timur,-7.339760799999999,112.7626887
"Jl. Panglima Sudirman No. 114 Pare, Kabupaten Kediri, Jawa Timur",Kabupaten Kediri,Jawa Timur,-7.825065299999999,112.0108166
"Area Sawah/Gunung, Tamansari, Ampelgading, Malang, Jawa Timur 65183, Indonesia",Kabupaten Tulungagung,Jawa Timur,-8.135015,112.8880068
"Jl. Ki Mangun Sarkoro No.66, Dusun Krajan, Beji, Kec. Boyolangu, Kabupaten Tulungagung, Jawa Timur 66233, Indonesia",Kabupaten Tulungagung,Jawa Timur,-8.0827276,111.9024608
"Dukunam Sari, Betoyokauman, Kec. Manyar, Kabupaten Gresik, Jawa Timur 61151",Kabupaten Gresik,Jawa Timur,-7.0893104,112.5733056
"Pangean, Maduran, Kabupaten Lamongan, Jawa Timur 62261",Kabupaten Lamongan,Jawa Timur,-7.0165688,112.2771485
"Jl. Joko Tole No.14, Beringin, Omben, Kabupaten Sampang, Jawa Timur 69291, Indonesia",Kabupaten Sampang,Jawa Timur,-7.1174262,113.3278734
"Jl. Kejawan Gebang No.7, Gebang Putih, Kec. Sukolilo",Kota Surabaya,Jawa Timur,-7.2870162,112.800973
Jl. Raya Manyar No. 9  Manyar Sabrangan  Kec Mulyorejo Surabaya,Kota Surabaya,Jawa Timur,-7.2887391,112.7633704
JL. DIPONEGORO No 65 Kelurahan Banyuanyar Kecamatan Sampang Kabupaten Sampang,Kabupaten Sampang,Jawa Timur,-7.2023619,113.2510023
"Jl. Nasional Iii, Jetis I, Jetis, Kabupaten Ponorogo, Jawa Timur 63473",Kabupaten Ponorogo,Jawa Timur,-7.9388292,111.4808877
"Tegalrejo, Dradah Blumbang, Kedungpring, Kabupaten Lamongan, Jawa Timur 62272",Kabupaten Lamongan,Jawa Timur,-7.2100808,112.1847509
"Jl. Mayjen Bambang Yuwono, Suwaluh Utara, Suwaluh, Kec. Balongbendo, Kabupaten Sidoarjo, Jawa Timur 61263",Kabupaten Sidoarjo,Jawa Timur,-7.4134783,112.541487
"Dusun Pzh Genggong Pajarakan Probolinggo, Jawa Timur",Kabupaten Probolinggo,Jawa Timur,-7.7903064,113.3747062
"Jl.Raya Kras, Jambean Dsn Ngrombeh Kab. Kediri, Jawa Timur",Kota Kediri,Jawa Timur,-7.9401565,111.9672906
"Jl. Kutisari Utara No. 47 A Surabaya, Kota Surabaya, Jawa Timur",Kota Surabaya,Jawa Timur,-7.3330679,112.7482318
"Jl. Raya Tlogomas No.3, Tlogomas, Kec. Lowokwaru, Jawa Timur",Kota Malang,Jawa Timur,-7.9351501,112.6048942
"Desa Sukorejo Asembagus Situbondo, Kota Situbondo, Jawa Timur",Kota Situbondo,Jawa Timur,-7.707034699999999,114.0119331
"Jl. Ngoro-Jombang No.1500, Cukir, Kec. Diwek, Kabupaten Jombang, Jawa Timur 61471, Indonesia",Kabupaten Jombang,Jawa Timur,-7.606959499999999,112.2388907
"Jl. Wicaksono No.1, Bangle, Gn. Gangsir, Kec. Beji, Pasuruan, Jawa Timur 67154",Kabupaten Pasuruan,Jawa Timur,-7.58237,112.7098917
"Jl. Cerme Kidul No.139, Cerme Kidul, Cerme, Kabupaten Gresik, Jawa Timur 61171",Kabupaten Gresik,Jawa Timur,-7.230590500000001,112.5660072
"Jl. Benowo No.5, Benowo, Kec. Pakal, Kota Sby, Jawa Timur",Kota Surabaya,Jawa Timur,-7.2350734,112.6127974
Jl. Raya Ijen No.67 Mergelo Wates Kec Magersari Mojokerto,Kota Mojokerto,Jawa Timur,-7.4555487,112.4499999
"Jl. Walikota Mustajab No 32  Rt.001/Rw05, Ketabang, Genteng, Kota Sby, Jawa Timur 60272",Kota Surabaya,Jawa Timur,-7.259979099999999,112.7441663
"Jl. Raya Manyar No. 102 Kel Sukomulyo - Manyar Kabupaten Gresik,Jawa Timur 61151",Kabupaten Gresik,Jawa Timur,-7.1243684,112.607222
"Jl. Raya Arosbaya, Tambak, Tengket, Arosbaya, Kab. Bangkalan, Jawa Timur 69151",Kabupaten Bangkalan,Jawa Timur,-6.9500047,112.8270959
"Jl. Raya Ambeng Ambeng, Lemre, Ambeng Ambeng Watangrejo, Duduksampeyan, Kabupaten Gresik, Jawa Timur 61162",Kabupaten Gresik,Jawa Timur,-7.1690645,112.5673477
"Gg. X, Indro Legi, Sidorukun, Kec. Gresik, Kabupaten Gresik, Jawa Timur 61124",Kabupaten Gresik,Jawa Timur,-7.1796924,112.6616119
"Jl. Raya Kedanyang, Sekarkurung, Kedanyang, Kebomas, Kabupaten Gresik, Jawa Timur 61124",Kabupaten Gresik,Jawa Timur,-7.1837191,112.6165887
"Jl. Raya Kedanyang, Sekarkurung, Kedanyang, Kebomas, Kabupaten Gresik, Jawa Timur 61124",Kabupaten Gresik,Jawa Timur,-7.1837191,112.6165887
"Jl. Raya Kedanyang, Sekarkurung, Kedanyang, Kebomas, Kabupaten Gresik, Jawa Timur 61124",Kabupaten Gresik,Jawa Timur,-7.1837191,112.6165887
"Jl. Raya Watangrejo, Tebaloan, Ambeng Ambeng Watangrejo, Duduksampeyan, Kabupaten Gresik, Jawa Timur 61162",Kabupaten Gresik,Jawa Timur,-7.1659844,112.5570124
"Jl. Raya Pendopo No.45, Area Sawah/Kebun, Sembayat, Kec. Manyar, Kabupaten Gresik, Jawa Timur 61151",Kabupaten Gresik,Jawa Timur,-7.0745608,112.5736129
"Jl. Raya Babat Jombang Sendangrejo Ngimbang No.89, Santren, Banaran, Babat, Kabupaten Lamongan, Jawa Timur 62271",Kabupaten Lamongan,Jawa Timur,-7.1104401,112.1652136
"Jl. Raya Pecinan, Pesanggrahan Kwanyar, Kabupaten Bangkalan, Jawa Timur",Kabupaten Bangkalan,Jawa Timur,-7.162059799999999,112.873112
"Jl. Gadung No. 1 Kec Wonokromo Kota Surabaya, Jawa Timur",Kota Surabaya,Jawa Timur,-7.3085275,112.7385943
"Jl. Raya Kemantren, Putuk Rejo, Kemantren, Jabung, Malang, Jawa Timur 65155",Kota Malang,Jawa Timur,-7.9437372,112.7499026
"Jalan Simpang Borobudur 1, Mojolangu, Kec. Lowokwaru, Kota Malang, Jawa Timur 65142",Kota Malang,Jawa Timur,-7.9398155,112.63866
"Jl. Kolonel Sugiono, Ciptomulyo, Kec. Sukun, Kota Malang, Jawa Timur 65148",Kabupaten Malang,Jawa Timur,-8.0006542,112.6315267
"Jl. Tri Dharma No.3, Karangturi, Kec. Gresik, Kabupaten Gresik, Jawa Timur 61121",Kabupaten Gresik,Jawa Timur,-7.1605227,112.634076
"Jl. Raya Pelem Watu, Palem Dodol, Pelemwatu, Menganti, Kabupaten Gresik, Jawa Timur 61174",Kabupaten Gresik,Jawa Timur,-7.2728199,112.5847058
"Jl. Raya Paseseh Tanjung Bumi, Bangkalan Madura, Jawa Timur",Kabupaten Bangkalan,Jawa Timur,-6.895695099999999,113.0875719
"Jl. Raya Pamekasan-Sumenep, Bluto, Kabupaten Sumenep, Jawa Timur",Kabupaten Sumenep,Jawa Timur,-7.1189054,113.7717344
"Jl. Perak Timur 498, Perak Utara, Kota Surabaya, Jawa Timur",Kota Surabaya,Jawa Timur,-7.2031612,112.7341832
"Jl. Arif Rahman Hakim No. 169 - 171, Kota Surabaya, Jawa Timur",Kota Surabaya,Jawa Timur,-7.289982,112.787671
"Jl. Raya Gresik - Babat No.37, Surabayan, Sidogembul, Sukodadi, Kabupaten Lamongan, Jawa Timur 62253",Kabupaten Lamongan,Jawa Timur,-7.0958334,112.3386027
"Jl. Raya Pantura Jl. Mbah H. Amin Sedengan Arjosari No.6, Sarirejo, Sambirejo, Kec. Rejoso, Pasuruan, Jawa Timur 67181",Kabupaten Pasuruan,Jawa Timur,-7.6982345,112.9739497
"Jl. Raya Surabaya - Malang 21, Suwayuwo, Kec. Sukorejo, Pasuruan, Jawa Timur 67161",Kabupaten Pasuruan,Jawa Timur,-7.698067399999998,112.7108759
"Jl.Pare-Wates, Plosoklaten Kabupaten Kediri, Jawa Timur",Kabupaten Kediri,Jawa Timur,-7.8384822,112.1763059
"Jl Pahlawan No 07 Gondang Nganjuk, Kabupaten Nganjuk, Jawa Timur",Kabupaten Nganjuk,Jawa Timur,-7.525485899999999,111.9539147
"Dusun Karang Pedat Gondang Kulon, Kabupaten Nganjuk, Jawa Timur",Kabupaten Nganjuk,Jawa Timur,-7.526822699999999,111.9567205
"Jl. Supriyadi No. 76, Nganjuk 64312, Kabupaten Nganjuk, Jawa Timur",Kabupaten Nganjuk,Jawa Timur,-7.5854287,112.1099783
"Jl. Ahmad Yani No.23, Kepanjen Lor, Kec. Kepanjenkidul, Kota Blitar, Jawa Timur 66117, Indonesia",Kabupaten Blitar,Jawa Timur,-8.0995706,112.1716641
"Jl. Raya Tugu Rante , Blitar, Jawa Timur, Jawa Timur",Kabupaten Blitar,Jawa Timur,-8.083704299999999,112.1191917
"Jl. Raya Pasinan Wringinanom, Dusun Legundi, Krikilan, Kec. Driyorejo, Kabupaten Gresik, Jawa Timur 61177",Kabupaten Gresik,Jawa Timur,-7.3874196,112.5726618
"Jl. Ampeldento, Bagorejo, Gumuk Mas, Kabupaten Jember, Jawa Timur",Kabupaten Jember,Jawa Timur,-8.309132,113.4404024
"Jl. Bhayangkara No.16, Dusun Krajan, Siliragung, Kabupaten Banyuwangi,",Kabupaten Banyuwangi,Jawa Timur,-8.5547043,114.1171808
"Jl. Hos Cokro Aminoto No.03 Tanggul - Jember, Jawa Timur",Kabupaten Jember,Jawa Timur,-8.168823,113.4685585
Jl. Pandegiling No. 262-264 Wonorejo Kec Tegalsari  Surabaya,Kota Surabaya,Jawa Timur,-7.275147399999999,112.7333579
"Jl Raya Tembelang No. 40 Kec. Tembelang Jombang, Jawa Timur",Kabupaten Bangkalan,Jawa Timur,-7.4837943,112.2312174
Jl Mayjend Prof Dr Moestopo No.6-8  Airlangga Kec Gubeng Surabaya,Kota Surabaya,Jawa Timur,-7.269959999999998,112.7567497
"Jl. Nginden Intan Barat No.Blok B, Ngenden Jangkungan, Kec. Sukolilo, Kota SBY, Jawa Timur 60118, Indonesia",Kota Surabaya,Jawa Timur,-7.304632300000001,112.7652181
"Jl. Safir, Suci, Manyar, Kabupaten Gresik, Jawa Timur 61151",Kabupaten Gresik,Jawa Timur,-7.1459889,112.5960895
"Jl Raya Bndarkedung Mulyo Jombang, Kabupaten Jombang, Jawa Timur",Kabupaten Jombang,Jawa Timur,-7.5682375,112.1260439
"Kauman, Sidoharjo, Kec. Lamongan Sub-District, Lamongan Regency, East Java 62214",Kabupaten Lamongan,Jawa Timur,-7.1144221,112.4067947
"Jl. Panglima Sudirman No.114, Lebak, Pejagan, Kec. Bangkalan, Kabupaten Bangkalan, Jawa Timur 69112, Indonesia",Kabupaten Bangkalan,Jawa Timur,-7.024641,112.7505582
"Jl. Brigjend Katamso 65-74, Mekar Raya Binangun, Janti, Kec. Waru, Kabupaten Sidoarjo, Jawa Timur 61256",Kabupaten Sidoarjo,Jawa Timur,-7.350129000000001,112.7409334
"Pangkalan Arsenal Tni Al Bangkalan, Kec. Labang, Jawa Timur",Kabupaten Bangkalan,Jawa Timur,-7.1385847,112.7735694
"Jl. Letjen S Parman No.1, Dusun Pager, Sawotratap, Kec. Gedangan, Kabupaten Sidoarjo, Jawa Timur 61254",Kabupaten Sidoarjo,Jawa Timur,-7.3832802,112.7282446
"Jl. Tol Satelit Jl. Mayjen Sungkono, Putat Gede, Kec. Sukomanunggal, Kota Sby, Jawa Timur 60189",Kota Surabaya,Jawa Timur,-7.2891635,112.7031871
"Jl Raya Sedarum Nguling, Pasuruan, Kabupaten Pasuruan, Jawa Timur",Kabupaten Pasuruan,Jawa Timur,-7.7158657,113.0530756
"Jl. Sumberdadi, Tegaldlimo, Kabupaten Banyuwangi,",Kabupaten Banyuwangi,Jawa Timur,-8.508928,114.2910566
"Jl. Bukit Darmo Golf No.2, Pradahkalikendal, Kec. Dukuhpakis, Kota Sby, Jawa Timur",Kota Surabaya,Jawa Timur,-7.294657,112.694602
"Jl. Raya Sukoraharjo No.326, Blobo, Sukoharjo, Kec. Kepanjen, Malang, Jawa Timur 65163",Kabupaten Malang,Jawa Timur,-8.1193557,112.5935268
"Jl. Raya Kagrengan No.62, Kedawung, Ngijo, Kec. Karang Ploso, Malang, Jawa Timur 65152",Kota Malang,Jawa Timur,-7.907706,112.6158281
"Jl. Graha Kencana Utara V, Karanglo, Banjararum, Kec. Singosari, Malang, Jawa Timur 65153",Kota Malang,Jawa Timur,-7.922778,112.6569038
"Jl. Mauni, Pesantren, Kediri, Kota Kediri, Jawa Timur 64131",Kota Kediri,Jawa Timur,-7.8340155,112.0540342
"Komplek Ruko Permata Suci, Jl. Permata Suci, Suci, Gresik, Kabupaten Gresik, Jawa Timur 61151",Kabupaten Gresik,Jawa Timur,-7.149335,112.597251
"Jl. Raya Lidah Wetan No.Kel, Lidah Wetan, Kec. Lakarsantri, ,",Kota Surabaya,Jawa Timur,-7.307375,112.667609
"Jl. Raya Tlogomas, Tlogomas, Kec. Lowokwaru, Kota Malang, Jawa Timur 65144",Kota Malang,Jawa Timur,-7.9264447,112.6017721
"Jl. Raya Tlogomas, Tlogomas, Kec. Lowokwaru, Kota Malang, Jawa Timur 65144",Kota Malang,Jawa Timur,-7.9264447,112.6017721
"Manyar, Sedati Agung, Kec. Sedati, Kabupaten Sidoarjo, Jawa Timur 61253",Kabupaten Sidoarjo,Jawa Timur,-7.3811926,112.7606485
"Jl. Kebraon 5 Blok Af No.1, Kebraon, Kec. Karang Pilang, Kota Sby, Jawa Timur 60222",Kota Surabaya,Jawa Timur,-7.332713399999999,112.7011814
"Balai Pengobatan Ampel , Jl. Raya Hang Tuah Surabaya",Kota Surabaya,Jawa Timur,-7.208793999999999,112.7419114
"Jl. Mayjen Sungkono No.47, Pakis, Kec. Sawahan, Kota Sby, Jawa Timur창",Kota Surabaya,Jawa Timur,-7.2917865,112.7233141
"Jl. R.A. Kartini No.280, Kesemen, Sukorame, Kec. Gresik, Kabupaten Gresik, Jawa Timur 61122",Kabupaten Gresik,Jawa Timur,-7.1664238,112.641975
"Jl. Ahmad Yani, Dusun Sawo, Sawotratap, Kec. Gedangan",Kabupaten Sidoarjo,Jawa Timur,-7.3729379,112.7263855
"Jl. Trunojoyo No.39f, RT.01/RW.06, Pejagan, Kec. Bangkalan, Kabupaten Bangkalan, Jawa Timur 69112, Indonesia",Kabupaten Bangkalan,Jawa Timur,-7.0271047,112.754716
"Jl. Jawa No.76 Gkb, Karanggondang, Yosowilangun, Manyar, Kabupaten Gresik, Jawa Timur 61151",Kabupaten Gresik,Jawa Timur,-7.1506893,112.6134683
"Jl. Supriyadi No.19, Kauman, Kec. Nganjuk, Kabupaten Nganjuk, Jawa Timur 64411, Indonesia",Kabupaten Nganjuk,Jawa Timur,-7.600927400000001,111.9000273
"Jl. Mayjend Sungkono No.30, Klangonan, Kebomas, Kabupaten Gresik, Jawa Timur 61124",Kabupaten Gresik,Jawa Timur,-7.1691501,112.6155346
"Jl. Raya Bandara Juanda, Semambung, Kec. Gedangan, Kabupaten Sidoarjo, Jawa Timur 61254",Kabupaten Sidoarjo,Jawa Timur,-7.3802351,112.7415104
"Jl. Basuki Rahmat No. 129-137 Surabaya, Jawa Timur",Kota Surabaya,Jawa Timur,-7.271637,112.7420847
"Jl. Brigadir Jenderal Katamso No.67, Kp. Dalem, Kec. Kota Kediri, Kota Kediri, Jawa Timur 64126, Indonesia",Kabupaten Jember,Jawa Timur,-7.8287397,112.0164048
"Jl. Kyai H. Wahid Hasyim No.5-7, Kauman, Kec. Klojen, Kota Malang, Jawa Timur 65119",Kota Malang,Jawa Timur,-7.9833509,112.6291611
"Jl. Pahlawan No.29, Kartoharjo, Kec. Kartoharjo, Kota Madiun, Jawa Timur 63116, Indonesia",Kota Madiun,Jawa Timur,-7.6238214,111.5206761
"Jl. R.A. Kartini No 210 Gresik 61122, Kabupaten Gresik, Jawa Timur",Kabupaten Gresik,Jawa Timur,-7.1678145,112.6452876
"Jl. Jendral Ahmad Yani No.3, Kp. Using, Jemberlor, Kec. Patrang, Kabupaten Jember, Jawa Timur 68118, Indonesia",Kabupaten Jember,Jawa Timur,-8.1688996,113.7033466
"Jl. Gentengkali No. 93-95 60275 Jawa Timur, Jawa Timur",Kota Surabaya,Jawa Timur,-7.2563929,112.7389101
